{
  "district": "강서구",
  "zscode": "11500",
  "summary": {
    "total_count": 4820,
    "available_count": 3706,
    "total_percent": 76.9,
    "slow_total": 4445,
    "slow_avail": 3408,
    "slow_percent": 76.7,
    "fast_total": 375,
    "fast_avail": 298,
    "fast_percent": 79.5,
    "station_count": 948
  },
  "stations": [
    {
      "station_id": "SF002101",
      "name": "마곡 엠밸리 9단지",
      "address": "서울특별시 강서구 공항대로 103",
      "lat": "37.5622651",
      "lng": "126.8191654",
      "total_count": 96,
      "available_count": 90,
      "total_percent": 93.8,
      "slow_total": 96,
      "slow_avail": 90,
      "slow_percent": 93.8,
      "fast_total": 0,
      "fast_avail": 0,
      "fast_percent": 0.0,
      "latest_update": "20260714023434"
    },
    {
      "station_id": "PC000505",
      "name": "화곡푸르지오아파트(강서)",
      "address": "서울특별시 강서구 화곡로13길 107",
      "lat": "37.5446580",
      "lng": "126.8313960",
      "total_count": 84,
      "available_count": 65,
      "total_percent": 77.4,
      "slow_total": 74,
      "slow_avail": 55,
      "slow_percent": 74.3,
      "fast_total": 10,
      "fast_avail": 10,
      "fast_percent": 100.0,
      "latest_update": "20260714012340"
    },
    {
      "station_id": "LU001004",
      "name": "우장산아이파크e편한세상",
      "address": "서울특별시 강서구 강서로 266",
      "lat": "37.548263",
      "lng": "126.840981",
      "total_count": 62,
      "available_count": 37,
      "total_percent": 59.7,
      "slow_total": 60,
      "slow_avail": 35,
      "slow_percent": 58.3,
      "fast_total": 2,
      "fast_avail": 2,
      "fast_percent": 100.0,
      "latest_update": "20260714045938"
    },
    {
      "station_id": "PIA00265",
      "name": "BMW차징스테이션 르웨스트시티 by한독모터스시티 by한독모",
      "address": "서울특별시 강서구 마곡중앙로 143",
      "lat": "37.56571",
      "lng": "126.82563",
      "total_count": 42,
      "available_count": 42,
      "total_percent": 100.0,
      "slow_total": 42,
      "slow_avail": 42,
      "slow_percent": 100.0,
      "fast_total": 0,
      "fast_avail": 0,
      "fast_percent": 0.0,
      "latest_update": "20260713225818"
    },
    {
      "station_id": "PI204136",
      "name": "서울시 강서구 강서힐스테이트",
      "address": "서울특별시 강서구 우현로 67",
      "lat": "37.547546187",
      "lng": "126.83720752",
      "total_count": 41,
      "available_count": 36,
      "total_percent": 87.8,
      "slow_total": 40,
      "slow_avail": 35,
      "slow_percent": 87.5,
      "fast_total": 1,
      "fast_avail": 1,
      "fast_percent": 100.0,
      "latest_update": "20260714042631"
    },
    {
      "station_id": "HM001396",
      "name": "_이대서울병원",
      "address": "서울특별시 강서구 공항대로 260",
      "lat": "37.5573448",
      "lng": "126.8361273",
      "total_count": 40,
      "available_count": 40,
      "total_percent": 100.0,
      "slow_total": 38,
      "slow_avail": 38,
      "slow_percent": 100.0,
      "fast_total": 2,
      "fast_avail": 2,
      "fast_percent": 100.0,
      "latest_update": "20260714045812"
    },
    {
      "station_id": "JA110031",
      "name": "롯데몰 김포공항점 P1F층",
      "address": "서울특별시 강서구 하늘길 38",
      "lat": "37.5637971",
      "lng": "126.8060191",
      "total_count": 40,
      "available_count": 39,
      "total_percent": 97.5,
      "slow_total": 40,
      "slow_avail": 39,
      "slow_percent": 97.5,
      "fast_total": 0,
      "fast_avail": 0,
      "fast_percent": 0.0,
      "latest_update": "20260714014902"
    },
    {
      "station_id": "LU100856",
      "name": "LG사이언스파크 동측1차부지",
      "address": "서울특별시 강서구 마곡중앙8로 71",
      "lat": "37.5634031",
      "lng": "126.8312303",
      "total_count": 40,
      "available_count": 37,
      "total_percent": 92.5,
      "slow_total": 40,
      "slow_avail": 37,
      "slow_percent": 92.5,
      "fast_total": 0,
      "fast_avail": 0,
      "fast_percent": 0.0,
      "latest_update": "20260713221332"
    },
    {
      "station_id": "PL031727",
      "name": "서울 등촌대림아파트",
      "address": "서울 강서구 공항대로39길 100",
      "lat": "37.5636169",
      "lng": "126.8473931",
      "total_count": 40,
      "available_count": 37,
      "total_percent": 92.5,
      "slow_total": 40,
      "slow_avail": 37,
      "slow_percent": 92.5,
      "fast_total": 0,
      "fast_avail": 0,
      "fast_percent": 0.0,
      "latest_update": "20260713205506"
    },
    {
      "station_id": "SF001223",
      "name": "마곡엠벨리14단지",
      "address": "서울특별시 강서구 마곡중앙로 33",
      "lat": "37.558050103",
      "lng": "126.82408022",
      "total_count": 40,
      "available_count": 39,
      "total_percent": 97.5,
      "slow_total": 40,
      "slow_avail": 39,
      "slow_percent": 97.5,
      "fast_total": 0,
      "fast_avail": 0,
      "fast_percent": 0.0,
      "latest_update": "20260713222938"
    },
    {
      "station_id": "NT102732",
      "name": "강서 우장산롯데캐슬",
      "address": "서울특별시 강서구 공항대로 382",
      "lat": "37.55639",
      "lng": "126.84954",
      "total_count": 39,
      "available_count": 32,
      "total_percent": 82.1,
      "slow_total": 39,
      "slow_avail": 32,
      "slow_percent": 82.1,
      "fast_total": 0,
      "fast_avail": 0,
      "fast_percent": 0.0,
      "latest_update": "20260714024850"
    },
    {
      "station_id": "PC001108",
      "name": "등촌동현대아이파크(강서)",
      "address": "서울특별시 강서구 등촌로 163",
      "lat": "37.544729773",
      "lng": "126.86159333",
      "total_count": 39,
      "available_count": 24,
      "total_percent": 61.5,
      "slow_total": 35,
      "slow_avail": 21,
      "slow_percent": 60.0,
      "fast_total": 4,
      "fast_avail": 3,
      "fast_percent": 75.0,
      "latest_update": "20260714040205"
    },
    {
      "station_id": "SF000320",
      "name": "마곡엠밸리9단지 (서울에너지공사)",
      "address": "서울특별시 강서구 공항대로 103",
      "lat": "37.5623003",
      "lng": "126.8191692",
      "total_count": 37,
      "available_count": 37,
      "total_percent": 100.0,
      "slow_total": 37,
      "slow_avail": 37,
      "slow_percent": 100.0,
      "fast_total": 0,
      "fast_avail": 0,
      "fast_percent": 0.0,
      "latest_update": "20260710201710"
    },
    {
      "station_id": "PL000797",
      "name": "마곡 엠밸리 9단지",
      "address": "서울특별시 강서구 공항대로 103",
      "lat": "37.5619070",
      "lng": "126.8186090",
      "total_count": 36,
      "available_count": 25,
      "total_percent": 69.4,
      "slow_total": 36,
      "slow_avail": 25,
      "slow_percent": 69.4,
      "fast_total": 0,
      "fast_avail": 0,
      "fast_percent": 0.0,
      "latest_update": "20260714035030"
    },
    {
      "station_id": "SF001192",
      "name": "한화꿈에그린아파트",
      "address": "서울특별시 강서구 우장산로 103",
      "lat": "37.5535355",
      "lng": "126.8470995",
      "total_count": 30,
      "available_count": 29,
      "total_percent": 96.7,
      "slow_total": 30,
      "slow_avail": 29,
      "slow_percent": 96.7,
      "fast_total": 0,
      "fast_avail": 0,
      "fast_percent": 0.0,
      "latest_update": "20260713203441"
    },
    {
      "station_id": "PI712902",
      "name": "마곡수명산파크1단지",
      "address": "서울특별시 강서구 강서로47길 108",
      "lat": "37.5535654",
      "lng": "126.8305342",
      "total_count": 28,
      "available_count": 23,
      "total_percent": 82.1,
      "slow_total": 28,
      "slow_avail": 23,
      "slow_percent": 82.1,
      "fast_total": 0,
      "fast_avail": 0,
      "fast_percent": 0.0,
      "latest_update": "20260713224529"
    },
    {
      "station_id": "JA110093",
      "name": "롯데몰 김포공항점 P2F",
      "address": "서울특별시 강서구 하늘길 38",
      "lat": "37.5640627",
      "lng": "126.8018221",
      "total_count": 26,
      "available_count": 26,
      "total_percent": 100.0,
      "slow_total": 26,
      "slow_avail": 26,
      "slow_percent": 100.0,
      "fast_total": 0,
      "fast_avail": 0,
      "fast_percent": 0.0,
      "latest_update": "20260713173003"
    },
    {
      "station_id": "LU001988",
      "name": "LG전자 마곡사옥",
      "address": "서울특별시 강서구 마곡중앙10로 10",
      "lat": "37.563497",
      "lng": "126.830233",
      "total_count": 26,
      "available_count": 26,
      "total_percent": 100.0,
      "slow_total": 24,
      "slow_avail": 24,
      "slow_percent": 100.0,
      "fast_total": 2,
      "fast_avail": 2,
      "fast_percent": 100.0,
      "latest_update": "20260713205737"
    },
    {
      "station_id": "NT101571",
      "name": "아시아나항공 아시아나타운",
      "address": "서울특별시 강서구 오정로 443-83",
      "lat": "37.54634",
      "lng": "126.79711",
      "total_count": 26,
      "available_count": 26,
      "total_percent": 100.0,
      "slow_total": 24,
      "slow_avail": 24,
      "slow_percent": 100.0,
      "fast_total": 2,
      "fast_avail": 2,
      "fast_percent": 100.0,
      "latest_update": "20260713192150"
    },
    {
      "station_id": "SF001225",
      "name": "마곡엠벨리 8단지",
      "address": "서울특별시 강서구 마곡서1로 81",
      "lat": "37.564366388",
      "lng": "126.81915442",
      "total_count": 26,
      "available_count": 26,
      "total_percent": 100.0,
      "slow_total": 26,
      "slow_avail": 26,
      "slow_percent": 100.0,
      "fast_total": 0,
      "fast_avail": 0,
      "fast_percent": 0.0,
      "latest_update": "20260713081932"
    },
    {
      "station_id": "PI200855",
      "name": "서울시 강서구 마곡13단지힐스테이트마스터",
      "address": "서울특별시 강서구 마곡중앙1로 71",
      "lat": "37.5569083",
      "lng": "126.8178746",
      "total_count": 24,
      "available_count": 21,
      "total_percent": 87.5,
      "slow_total": 23,
      "slow_avail": 20,
      "slow_percent": 87.0,
      "fast_total": 1,
      "fast_avail": 1,
      "fast_percent": 100.0,
      "latest_update": "20260714050632"
    },
    {
      "station_id": "HM110307",
      "name": "_원그로브 B5-2",
      "address": "서울특별시 강서구 공항대로 165",
      "lat": "37.5608751",
      "lng": "126.824696",
      "total_count": 23,
      "available_count": 23,
      "total_percent": 100.0,
      "slow_total": 22,
      "slow_avail": 22,
      "slow_percent": 100.0,
      "fast_total": 1,
      "fast_avail": 1,
      "fast_percent": 100.0,
      "latest_update": "20260713200623"
    },
    {
      "station_id": "LU100337",
      "name": " 방화5단지",
      "address": "서울특별시 강서구 금낭화로 287-19",
      "lat": "37.57680385",
      "lng": "126.81028685",
      "total_count": 23,
      "available_count": 18,
      "total_percent": 78.3,
      "slow_total": 23,
      "slow_avail": 18,
      "slow_percent": 78.3,
      "fast_total": 0,
      "fast_avail": 0,
      "fast_percent": 0.0,
      "latest_update": "20260714003048"
    },
    {
      "station_id": "PC001262",
      "name": "내발산동 647-1 주차장(강서)",
      "address": "서울특별시 강서구 공항대로 302",
      "lat": "37.557842349",
      "lng": "126.84139077",
      "total_count": 23,
      "available_count": 16,
      "total_percent": 69.6,
      "slow_total": 21,
      "slow_avail": 14,
      "slow_percent": 66.7,
      "fast_total": 2,
      "fast_avail": 2,
      "fast_percent": 100.0,
      "latest_update": "20260714042503"
    },
    {
      "station_id": "PL032428",
      "name": "동신대아 아파트",
      "address": "서울특별시 강서구 강서로 532",
      "lat": "37.571275",
      "lng": "126.8422775",
      "total_count": 22,
      "available_count": 10,
      "total_percent": 45.5,
      "slow_total": 22,
      "slow_avail": 10,
      "slow_percent": 45.5,
      "fast_total": 0,
      "fast_avail": 0,
      "fast_percent": 0.0,
      "latest_update": "20260714000741"
    },
    {
      "station_id": "PL032709",
      "name": "마곡엠밸리6단지",
      "address": "서울 강서구 마곡서1로 100",
      "lat": "37.5657541",
      "lng": "126.8196234",
      "total_count": 22,
      "available_count": 19,
      "total_percent": 86.4,
      "slow_total": 22,
      "slow_avail": 19,
      "slow_percent": 86.4,
      "fast_total": 0,
      "fast_avail": 0,
      "fast_percent": 0.0,
      "latest_update": "20260713195749"
    },
    {
      "station_id": "CV000857",
      "name": "홈플러스 강서점(본사)",
      "address": "서울특별시 강서구 화곡로 398",
      "lat": "37.5583433",
      "lng": "126.8544407",
      "total_count": 21,
      "available_count": 19,
      "total_percent": 90.5,
      "slow_total": 18,
      "slow_avail": 16,
      "slow_percent": 88.9,
      "fast_total": 3,
      "fast_avail": 3,
      "fast_percent": 100.0,
      "latest_update": "20260714050542"
    },
    {
      "station_id": "HM110306",
      "name": "_원그로브 B5-1",
      "address": "서울특별시 강서구 공항대로 165",
      "lat": "37.5608751",
      "lng": "126.824696",
      "total_count": 21,
      "available_count": 21,
      "total_percent": 100.0,
      "slow_total": 19,
      "slow_avail": 19,
      "slow_percent": 100.0,
      "fast_total": 2,
      "fast_avail": 2,
      "fast_percent": 100.0,
      "latest_update": "20260713141222"
    },
    {
      "station_id": "LU100836",
      "name": "기아서비스센터 강서점",
      "address": "서울특별시 강서구 양천로 542",
      "lat": "37.55851848",
      "lng": "126.85901918",
      "total_count": 21,
      "available_count": 21,
      "total_percent": 100.0,
      "slow_total": 21,
      "slow_avail": 21,
      "slow_percent": 100.0,
      "fast_total": 0,
      "fast_avail": 0,
      "fast_percent": 0.0,
      "latest_update": "20260713162454"
    },
    {
      "station_id": "LU101504",
      "name": "LG사이언스파크 동측2차부지(D22, D25)",
      "address": "강서구 마곡중앙8로 71",
      "lat": "37.5618354",
      "lng": "126.8342775",
      "total_count": 21,
      "available_count": 20,
      "total_percent": 95.2,
      "slow_total": 19,
      "slow_avail": 18,
      "slow_percent": 94.7,
      "fast_total": 2,
      "fast_avail": 2,
      "fast_percent": 100.0,
      "latest_update": "20260714022414"
    },
    {
      "station_id": "PI763036",
      "name": "마곡대방디엠시티1차",
      "address": "서울특별시 강서구 양천로 344",
      "lat": "37.568266",
      "lng": "126.8403596",
      "total_count": 21,
      "available_count": 11,
      "total_percent": 52.4,
      "slow_total": 21,
      "slow_avail": 11,
      "slow_percent": 52.4,
      "fast_total": 0,
      "fast_avail": 0,
      "fast_percent": 0.0,
      "latest_update": "20260714020535"
    },
    {
      "station_id": "LU003755",
      "name": "LG전자 마곡사옥 DP2",
      "address": "서울특별시 강서구 마곡중앙10로 10",
      "lat": "37.563497",
      "lng": "126.830233",
      "total_count": 20,
      "available_count": 20,
      "total_percent": 100.0,
      "slow_total": 20,
      "slow_avail": 20,
      "slow_percent": 100.0,
      "fast_total": 0,
      "fast_avail": 0,
      "fast_percent": 0.0,
      "latest_update": "20260713222732"
    },
    {
      "station_id": "PK000021",
      "name": "영인운수",
      "address": "서울특별시 강서구 남부순환로 224-58",
      "lat": "37.5452735",
      "lng": "126.8182364",
      "total_count": 20,
      "available_count": 17,
      "total_percent": 85.0,
      "slow_total": 0,
      "slow_avail": 0,
      "slow_percent": 0.0,
      "fast_total": 20,
      "fast_avail": 17,
      "fast_percent": 85.0,
      "latest_update": "20260714051001"
    },
    {
      "station_id": "PWE06442",
      "name": "마곡우림필유아파트",
      "address": "서울특별시 강서구 양천로28길 29",
      "lat": "37.5721462",
      "lng": "126.8212598",
      "total_count": 20,
      "available_count": 20,
      "total_percent": 100.0,
      "slow_total": 20,
      "slow_avail": 20,
      "slow_percent": 100.0,
      "fast_total": 0,
      "fast_avail": 0,
      "fast_percent": 0.0,
      "latest_update": "20260519112749"
    },
    {
      "station_id": "HY000916",
      "name": "서울 NC백화점 강서점",
      "address": "서울특별시 강서구 강서로56길 17",
      "lat": "37.5599335",
      "lng": "126.8404988",
      "total_count": 19,
      "available_count": 19,
      "total_percent": 100.0,
      "slow_total": 19,
      "slow_avail": 19,
      "slow_percent": 100.0,
      "fast_total": 0,
      "fast_avail": 0,
      "fast_percent": 0.0,
      "latest_update": "20260713220705"
    },
    {
      "station_id": "JA110072",
      "name": "(출입제한)대한항공 P2주차장",
      "address": "서울특별시 강서구 하늘길 259",
      "lat": "37.5513522",
      "lng": "126.8159054",
      "total_count": 19,
      "available_count": 18,
      "total_percent": 94.7,
      "slow_total": 18,
      "slow_avail": 17,
      "slow_percent": 94.4,
      "fast_total": 1,
      "fast_avail": 1,
      "fast_percent": 100.0,
      "latest_update": "20260714050706"
    },
    {
      "station_id": "JA110191",
      "name": "VL르웨스트",
      "address": "서울특별시 강서구 마곡중앙3로 16",
      "lat": "37.562970873",
      "lng": "126.82455263",
      "total_count": 19,
      "available_count": 16,
      "total_percent": 84.2,
      "slow_total": 17,
      "slow_avail": 14,
      "slow_percent": 82.4,
      "fast_total": 2,
      "fast_avail": 2,
      "fast_percent": 100.0,
      "latest_update": "20260713234915"
    },
    {
      "station_id": "PW015148",
      "name": "마곡엠밸리14단지 입주자대표회의",
      "address": "서울특별시 강서구 마곡중앙로 33",
      "lat": "37.558050103",
      "lng": "126.82408022",
      "total_count": 19,
      "available_count": 8,
      "total_percent": 42.1,
      "slow_total": 19,
      "slow_avail": 8,
      "slow_percent": 42.1,
      "fast_total": 0,
      "fast_avail": 0,
      "fast_percent": 0.0,
      "latest_update": "20260714022936"
    },
    {
      "station_id": "HY001185",
      "name": "강서 등촌주공5단지",
      "address": "서울특별시 강서구 공항대로39길 74",
      "lat": "37.5604513",
      "lng": "126.8448691",
      "total_count": 18,
      "available_count": 15,
      "total_percent": 83.3,
      "slow_total": 18,
      "slow_avail": 15,
      "slow_percent": 83.3,
      "fast_total": 0,
      "fast_avail": 0,
      "fast_percent": 0.0,
      "latest_update": "20260713225605"
    },
    {
      "station_id": "NT102016",
      "name": "마곡 수명산파크7단지",
      "address": "서울특별시 강서구 수명로2가길 22",
      "lat": "37.54766",
      "lng": "126.82191",
      "total_count": 18,
      "available_count": 16,
      "total_percent": 88.9,
      "slow_total": 18,
      "slow_avail": 16,
      "slow_percent": 88.9,
      "fast_total": 0,
      "fast_avail": 0,
      "fast_percent": 0.0,
      "latest_update": "20260713221850"
    },
    {
      "station_id": "PI203049",
      "name": "강서한강자이타워",
      "address": "서울특별시 강서구 양천로 401",
      "lat": "37.565555",
      "lng": "126.847934",
      "total_count": 18,
      "available_count": 18,
      "total_percent": 100.0,
      "slow_total": 17,
      "slow_avail": 17,
      "slow_percent": 100.0,
      "fast_total": 1,
      "fast_avail": 1,
      "fast_percent": 100.0,
      "latest_update": "20260714013126"
    },
    {
      "station_id": "PI204227",
      "name": "서울시 강서구 우림블루나인비즈니스센터",
      "address": "서울특별시 강서구 양천로 583",
      "lat": "37.557116191",
      "lng": "126.86434741",
      "total_count": 18,
      "available_count": 18,
      "total_percent": 100.0,
      "slow_total": 15,
      "slow_avail": 15,
      "slow_percent": 100.0,
      "fast_total": 3,
      "fast_avail": 3,
      "fast_percent": 100.0,
      "latest_update": "20260713204153"
    },
    {
      "station_id": "PL000481",
      "name": "대림경동아파트",
      "address": "서울특별시 강서구 허준로 121",
      "lat": "37.5670940",
      "lng": "126.8547358",
      "total_count": 18,
      "available_count": 12,
      "total_percent": 66.7,
      "slow_total": 18,
      "slow_avail": 12,
      "slow_percent": 66.7,
      "fast_total": 0,
      "fast_avail": 0,
      "fast_percent": 0.0,
      "latest_update": "20260713231229"
    },
    {
      "station_id": "SF002069",
      "name": "마곡엠밸리2단지",
      "address": "서울특별시 강서구 마곡서1로 146",
      "lat": "37.568824973",
      "lng": "126.82141102",
      "total_count": 18,
      "available_count": 17,
      "total_percent": 94.4,
      "slow_total": 18,
      "slow_avail": 17,
      "slow_percent": 94.4,
      "fast_total": 0,
      "fast_avail": 0,
      "fast_percent": 0.0,
      "latest_update": "20260714002134"
    },
    {
      "station_id": "HM110268",
      "name": "k스퀘어 마곡",
      "address": "서울특별시 강서구 마곡중앙로 105-7",
      "lat": "37.562923484",
      "lng": "126.82607688",
      "total_count": 17,
      "available_count": 13,
      "total_percent": 76.5,
      "slow_total": 13,
      "slow_avail": 10,
      "slow_percent": 76.9,
      "fast_total": 4,
      "fast_avail": 3,
      "fast_percent": 75.0,
      "latest_update": "20260713224619"
    },
    {
      "station_id": "SF002397",
      "name": "마곡엠밸리10단지",
      "address": "서울특별시 강서구 마곡중앙1로 72",
      "lat": "37.559040010",
      "lng": "126.82006322",
      "total_count": 17,
      "available_count": 17,
      "total_percent": 100.0,
      "slow_total": 17,
      "slow_avail": 17,
      "slow_percent": 100.0,
      "fast_total": 0,
      "fast_avail": 0,
      "fast_percent": 0.0,
      "latest_update": "20260713215720"
    },
    {
      "station_id": "EZ210038",
      "name": "염창동동아아파트 입주자대표회의(콘센트)",
      "address": "서울특별시 강서구 양천로69길 58",
      "lat": "37.554456",
      "lng": "126.8729524",
      "total_count": 16,
      "available_count": 0,
      "total_percent": 0.0,
      "slow_total": 16,
      "slow_avail": 0,
      "slow_percent": 0.0,
      "fast_total": 0,
      "fast_avail": 0,
      "fast_percent": 0.0,
      "latest_update": "20260601113310"
    },
    {
      "station_id": "PC001156",
      "name": "마곡수명산파크6단지아파트(강서)",
      "address": "서울특별시 강서구 수명로2길 63",
      "lat": "37.5503534",
      "lng": "126.8257306",
      "total_count": 16,
      "available_count": 14,
      "total_percent": 87.5,
      "slow_total": 15,
      "slow_avail": 13,
      "slow_percent": 86.7,
      "fast_total": 1,
      "fast_avail": 1,
      "fast_percent": 100.0,
      "latest_update": "20260713232516"
    },
    {
      "station_id": "PL002467",
      "name": "등촌동성아파트",
      "address": "서울특별시 강서구 강서로68길 108",
      "lat": "37.5646673",
      "lng": "126.8457024",
      "total_count": 16,
      "available_count": 11,
      "total_percent": 68.8,
      "slow_total": 16,
      "slow_avail": 11,
      "slow_percent": 68.8,
      "fast_total": 0,
      "fast_avail": 0,
      "fast_percent": 0.0,
      "latest_update": "20260713210706"
    },
    {
      "station_id": "PL032609",
      "name": "염창동아1차아파트",
      "address": "서울 강서구 양천로69길 58",
      "lat": "37.5552720",
      "lng": "126.8729604",
      "total_count": 16,
      "available_count": 5,
      "total_percent": 31.2,
      "slow_total": 16,
      "slow_avail": 5,
      "slow_percent": 31.2,
      "fast_total": 0,
      "fast_avail": 0,
      "fast_percent": 0.0,
      "latest_update": "20260713224707"
    },
    {
      "station_id": "PMP00519",
      "name": "공항버스(강서공영차고지)",
      "address": "서울특별시 강서구 개화동로8길 17",
      "lat": "37.5767383",
      "lng": "126.7988641",
      "total_count": 16,
      "available_count": 16,
      "total_percent": 100.0,
      "slow_total": 0,
      "slow_avail": 0,
      "slow_percent": 0.0,
      "fast_total": 16,
      "fast_avail": 16,
      "fast_percent": 100.0,
      "latest_update": "20260714050817"
    },
    {
      "station_id": "TDA00042",
      "name": "황토방2차아파트",
      "address": "서울특별시 강서구 공항대로55길 50",
      "lat": "37.555161",
      "lng": "126.861963",
      "total_count": 16,
      "available_count": 12,
      "total_percent": 75.0,
      "slow_total": 16,
      "slow_avail": 12,
      "slow_percent": 75.0,
      "fast_total": 0,
      "fast_avail": 0,
      "fast_percent": 0.0,
      "latest_update": "20260713224503"
    },
    {
      "station_id": "HM110305",
      "name": "_원그로브 B4-2",
      "address": "서울특별시 강서구 공항대로 165",
      "lat": "37.5608751",
      "lng": "126.824696",
      "total_count": 15,
      "available_count": 15,
      "total_percent": 100.0,
      "slow_total": 14,
      "slow_avail": 14,
      "slow_percent": 100.0,
      "fast_total": 1,
      "fast_avail": 1,
      "fast_percent": 100.0,
      "latest_update": "20260713195425"
    },
    {
      "station_id": "PL033131",
      "name": "강변힐스테이트아파트",
      "address": "서울 강서구 양천로75길 19",
      "lat": "37.5518116",
      "lng": "126.8740724",
      "total_count": 15,
      "available_count": 8,
      "total_percent": 53.3,
      "slow_total": 15,
      "slow_avail": 8,
      "slow_percent": 53.3,
      "fast_total": 0,
      "fast_avail": 0,
      "fast_percent": 0.0,
      "latest_update": "20260714002010"
    },
    {
      "station_id": "PW014672",
      "name": "마곡나루역보타닉푸르지오시티관리단",
      "address": "서울특별시 강서구 마곡중앙5로 6",
      "lat": "37.567314",
      "lng": "126.8275549",
      "total_count": 15,
      "available_count": 11,
      "total_percent": 73.3,
      "slow_total": 15,
      "slow_avail": 11,
      "slow_percent": 73.3,
      "fast_total": 0,
      "fast_avail": 0,
      "fast_percent": 0.0,
      "latest_update": "20260714012912"
    },
    {
      "station_id": "UN000060",
      "name": "마곡동 마곡엠밸리7단지아파트",
      "address": "서울특별시 강서구 마곡서로 133",
      "lat": "37.5651924",
      "lng": "126.8229812",
      "total_count": 15,
      "available_count": 15,
      "total_percent": 100.0,
      "slow_total": 15,
      "slow_avail": 15,
      "slow_percent": 100.0,
      "fast_total": 0,
      "fast_avail": 0,
      "fast_percent": 0.0,
      "latest_update": "20260713221401"
    },
    {
      "station_id": "LU101402",
      "name": "마곡엠벨리15단지",
      "address": "서울특별시 강서구 마곡중앙로 36",
      "lat": "37.5574187",
      "lng": "126.8270293",
      "total_count": 14,
      "available_count": 13,
      "total_percent": 92.9,
      "slow_total": 14,
      "slow_avail": 13,
      "slow_percent": 92.9,
      "fast_total": 0,
      "fast_avail": 0,
      "fast_percent": 0.0,
      "latest_update": "20260713205106"
    },
    {
      "station_id": "PK000005",
      "name": "김포교통 본사차고지",
      "address": "서울특별시 강서구 금낭화로 170",
      "lat": "37.5802528",
      "lng": "126.8140162",
      "total_count": 14,
      "available_count": 12,
      "total_percent": 85.7,
      "slow_total": 0,
      "slow_avail": 0,
      "slow_percent": 0.0,
      "fast_total": 14,
      "fast_avail": 12,
      "fast_percent": 85.7,
      "latest_update": "20260714051003"
    },
    {
      "station_id": "PWE05474",
      "name": "등촌동성아파트",
      "address": "서울특별시 강서구 강서로68길 108",
      "lat": "37.564667250",
      "lng": "126.84570243",
      "total_count": 14,
      "available_count": 14,
      "total_percent": 100.0,
      "slow_total": 14,
      "slow_avail": 14,
      "slow_percent": 100.0,
      "fast_total": 0,
      "fast_avail": 0,
      "fast_percent": 0.0,
      "latest_update": "20260519112647"
    },
    {
      "station_id": "ST115021",
      "name": "수협강서수산물도매시장",
      "address": "서울특별시 강서구 발산로 24",
      "lat": "37.5538217",
      "lng": "126.818825",
      "total_count": 14,
      "available_count": 0,
      "total_percent": 0.0,
      "slow_total": 12,
      "slow_avail": 0,
      "slow_percent": 0.0,
      "fast_total": 2,
      "fast_avail": 0,
      "fast_percent": 0.0,
      "latest_update": "20260714033310"
    },
    {
      "station_id": "LU004265",
      "name": "우장산숲아이파크",
      "address": "서울특별시 강서구 화곡로31다길 20",
      "lat": "37.545246",
      "lng": "126.838798",
      "total_count": 13,
      "available_count": 9,
      "total_percent": 69.2,
      "slow_total": 13,
      "slow_avail": 9,
      "slow_percent": 69.2,
      "fast_total": 0,
      "fast_avail": 0,
      "fast_percent": 0.0,
      "latest_update": "20260714005006"
    },
    {
      "station_id": "PC000076",
      "name": "가양2단지 성지아파트(강서)",
      "address": "서울특별시 강서구 허준로 47",
      "lat": "37.571013",
      "lng": "126.846585",
      "total_count": 13,
      "available_count": 7,
      "total_percent": 53.8,
      "slow_total": 12,
      "slow_avail": 6,
      "slow_percent": 50.0,
      "fast_total": 1,
      "fast_avail": 1,
      "fast_percent": 100.0,
      "latest_update": "20260714001544"
    },
    {
      "station_id": "PL032397",
      "name": "방화8단지개화아파트",
      "address": "서울 강서구 금낭화로 167",
      "lat": "37.5809503",
      "lng": "126.8133731",
      "total_count": 13,
      "available_count": 10,
      "total_percent": 76.9,
      "slow_total": 13,
      "slow_avail": 10,
      "slow_percent": 76.9,
      "fast_total": 0,
      "fast_avail": 0,
      "fast_percent": 0.0,
      "latest_update": "20260714034703"
    },
    {
      "station_id": "ST600068",
      "name": "동익드미라벨",
      "address": "서울특별시 강서구 마곡서로 101",
      "lat": "37.5626707",
      "lng": "126.8236056",
      "total_count": 13,
      "available_count": 0,
      "total_percent": 0.0,
      "slow_total": 9,
      "slow_avail": 0,
      "slow_percent": 0.0,
      "fast_total": 4,
      "fast_avail": 0,
      "fast_percent": 0.0,
      "latest_update": "20260714033310"
    },
    {
      "station_id": "CGA00001",
      "name": "e편한세상염창 아파트(B2F 입주자 전용)",
      "address": "서울특별시 강서구 공항대로 583",
      "lat": "37.548866",
      "lng": "126.8706712",
      "total_count": 12,
      "available_count": 7,
      "total_percent": 58.3,
      "slow_total": 12,
      "slow_avail": 7,
      "slow_percent": 58.3,
      "fast_total": 0,
      "fast_avail": 0,
      "fast_percent": 0.0,
      "latest_update": "20260713214515"
    },
    {
      "station_id": "EZ210015",
      "name": "마곡엠밸리7단지아파트입주자대표회의",
      "address": "서울특별시 강서구 마곡서로 133",
      "lat": "37.5651924",
      "lng": "126.8229812",
      "total_count": 12,
      "available_count": 0,
      "total_percent": 0.0,
      "slow_total": 12,
      "slow_avail": 0,
      "slow_percent": 0.0,
      "fast_total": 0,
      "fast_avail": 0,
      "fast_percent": 0.0,
      "latest_update": "20260601113310"
    },
    {
      "station_id": "HJ000005",
      "name": "한진 김포공항 전기차충전소",
      "address": "서울특별시 강서구 하늘길 259",
      "lat": "37.550942330",
      "lng": "126.81472019",
      "total_count": 12,
      "available_count": 12,
      "total_percent": 100.0,
      "slow_total": 0,
      "slow_avail": 0,
      "slow_percent": 0.0,
      "fast_total": 12,
      "fast_avail": 12,
      "fast_percent": 100.0,
      "latest_update": "20260714004000"
    },
    {
      "station_id": "HM110304",
      "name": "_원그로브 B4-1",
      "address": "서울특별시 강서구 공항대로 165",
      "lat": "37.5608751",
      "lng": "126.824696",
      "total_count": 12,
      "available_count": 12,
      "total_percent": 100.0,
      "slow_total": 10,
      "slow_avail": 10,
      "slow_percent": 100.0,
      "fast_total": 2,
      "fast_avail": 2,
      "fast_percent": 100.0,
      "latest_update": "20260713193422"
    },
    {
      "station_id": "LU003804",
      "name": "강서한강자이아파트",
      "address": "서울특별시 강서구 양천로55길 55",
      "lat": "37.566328",
      "lng": "126.848183",
      "total_count": 12,
      "available_count": 7,
      "total_percent": 58.3,
      "slow_total": 12,
      "slow_avail": 7,
      "slow_percent": 58.3,
      "fast_total": 0,
      "fast_avail": 0,
      "fast_percent": 0.0,
      "latest_update": "20260714041015"
    },
    {
      "station_id": "NS850132",
      "name": "마곡아이파크디어반(완속)",
      "address": "서울특별시 강서구 마곡중앙8로7길 57",
      "lat": "37.56649275",
      "lng": "126.8390180",
      "total_count": 12,
      "available_count": 6,
      "total_percent": 50.0,
      "slow_total": 12,
      "slow_avail": 6,
      "slow_percent": 50.0,
      "fast_total": 0,
      "fast_avail": 0,
      "fast_percent": 0.0,
      "latest_update": "20260714000713"
    },
    {
      "station_id": "PI752068",
      "name": "마곡대방디엠시티2차",
      "address": "서울특별시 강서구 마곡동로10길 23",
      "lat": "37.5686752",
      "lng": "126.8393559",
      "total_count": 12,
      "available_count": 9,
      "total_percent": 75.0,
      "slow_total": 12,
      "slow_avail": 9,
      "slow_percent": 75.0,
      "fast_total": 0,
      "fast_avail": 0,
      "fast_percent": 0.0,
      "latest_update": "20260713232637"
    },
    {
      "station_id": "PI775033",
      "name": "BMW차징스테이션 마곡엠벨리10단지",
      "address": "서울특별시 강서구 마곡중앙1로 72",
      "lat": "37.5595605",
      "lng": "126.8189920",
      "total_count": 12,
      "available_count": 6,
      "total_percent": 50.0,
      "slow_total": 12,
      "slow_avail": 6,
      "slow_percent": 50.0,
      "fast_total": 0,
      "fast_avail": 0,
      "fast_percent": 0.0,
      "latest_update": "20260714043307"
    },
    {
      "station_id": "PW013190",
      "name": "마곡힐스테이트에코동익관리단",
      "address": "서울특별시 강서구 공항대로 195",
      "lat": "37.559888",
      "lng": "126.8291698",
      "total_count": 12,
      "available_count": 9,
      "total_percent": 75.0,
      "slow_total": 12,
      "slow_avail": 9,
      "slow_percent": 75.0,
      "fast_total": 0,
      "fast_avail": 0,
      "fast_percent": 0.0,
      "latest_update": "20260714001209"
    },
    {
      "station_id": "CGA00217",
      "name": "강서 등촌주공3단지아파트",
      "address": "서울특별시 강서구 강서로56나길 37",
      "lat": "37.5626644",
      "lng": "126.8408743",
      "total_count": 11,
      "available_count": 7,
      "total_percent": 63.6,
      "slow_total": 11,
      "slow_avail": 7,
      "slow_percent": 63.6,
      "fast_total": 0,
      "fast_avail": 0,
      "fast_percent": 0.0,
      "latest_update": "20260714043009"
    },
    {
      "station_id": "HY001608",
      "name": "강서 마곡힐스테이트",
      "address": "서울특별시 강서구 마곡중앙3로 74",
      "lat": "37.5640306",
      "lng": "126.817834",
      "total_count": 11,
      "available_count": 8,
      "total_percent": 72.7,
      "slow_total": 11,
      "slow_avail": 8,
      "slow_percent": 72.7,
      "fast_total": 0,
      "fast_avail": 0,
      "fast_percent": 0.0,
      "latest_update": "20260714025805"
    },
    {
      "station_id": "NT101387",
      "name": "강서 더베뉴지서울",
      "address": "서울특별시 강서구 강서로 388",
      "lat": "37.5601851",
      "lng": "126.8393161",
      "total_count": 11,
      "available_count": 11,
      "total_percent": 100.0,
      "slow_total": 11,
      "slow_avail": 11,
      "slow_percent": 100.0,
      "fast_total": 0,
      "fast_avail": 0,
      "fast_percent": 0.0,
      "latest_update": "20260713182150"
    },
    {
      "station_id": "NT102489",
      "name": "강서 마곡벽산아파트",
      "address": "서울특별시 강서구 양천로47길 118",
      "lat": "37.57564",
      "lng": "126.83685",
      "total_count": 11,
      "available_count": 4,
      "total_percent": 36.4,
      "slow_total": 11,
      "slow_avail": 4,
      "slow_percent": 36.4,
      "fast_total": 0,
      "fast_avail": 0,
      "fast_percent": 0.0,
      "latest_update": "20260714022850"
    },
    {
      "station_id": "NT102846",
      "name": "강서 마곡수명산파크5단지",
      "address": "서울특별시 강서구 수명로2길 105",
      "lat": "37.55158",
      "lng": "126.82758",
      "total_count": 11,
      "available_count": 5,
      "total_percent": 45.5,
      "slow_total": 11,
      "slow_avail": 5,
      "slow_percent": 45.5,
      "fast_total": 0,
      "fast_avail": 0,
      "fast_percent": 0.0,
      "latest_update": "20260714043550"
    },
    {
      "station_id": "PIH00199",
      "name": "홈앤쇼핑사옥",
      "address": "서울특별시 강서구 공항대로 150",
      "lat": "37.559466370",
      "lng": "126.82443748",
      "total_count": 11,
      "available_count": 8,
      "total_percent": 72.7,
      "slow_total": 11,
      "slow_avail": 8,
      "slow_percent": 72.7,
      "fast_total": 0,
      "fast_avail": 0,
      "fast_percent": 0.0,
      "latest_update": "20260713210722"
    },
    {
      "station_id": "PL030543",
      "name": "마곡나루역캐슬파크",
      "address": "서울특별시 강서구 마곡중앙로 161-1",
      "lat": "37.5678657",
      "lng": "126.8274534",
      "total_count": 11,
      "available_count": 8,
      "total_percent": 72.7,
      "slow_total": 11,
      "slow_avail": 8,
      "slow_percent": 72.7,
      "fast_total": 0,
      "fast_avail": 0,
      "fast_percent": 0.0,
      "latest_update": "20260714021744"
    },
    {
      "station_id": "PL031425",
      "name": "서울 강서뉴타워아파트",
      "address": "서울 강서구 화곡로18길 24",
      "lat": "37.5390664",
      "lng": "126.8354190",
      "total_count": 11,
      "available_count": 8,
      "total_percent": 72.7,
      "slow_total": 11,
      "slow_avail": 8,
      "slow_percent": 72.7,
      "fast_total": 0,
      "fast_avail": 0,
      "fast_percent": 0.0,
      "latest_update": "20260713202728"
    },
    {
      "station_id": "SF000464",
      "name": "영광빌딩 (국민건강보험공단 강서지사) (서울에너지공사)",
      "address": "서울특별시 강서구 강서로 412",
      "lat": "37.562125",
      "lng": "126.839743",
      "total_count": 11,
      "available_count": 11,
      "total_percent": 100.0,
      "slow_total": 11,
      "slow_avail": 11,
      "slow_percent": 100.0,
      "fast_total": 0,
      "fast_avail": 0,
      "fast_percent": 0.0,
      "latest_update": "20260707170042"
    },
    {
      "station_id": "BNBN0822",
      "name": "강서구 서울식물원 제2공영주차장",
      "address": "서울특별시 강서구 양천로 291 (마곡동)",
      "lat": "37.5706297",
      "lng": "126.8298909",
      "total_count": 10,
      "available_count": 10,
      "total_percent": 100.0,
      "slow_total": 0,
      "slow_avail": 0,
      "slow_percent": 0.0,
      "fast_total": 10,
      "fast_avail": 10,
      "fast_percent": 100.0,
      "latest_update": "20260714025112"
    },
    {
      "station_id": "EV005180",
      "name": "서울강서 마곡수명산파크5단지",
      "address": "서울특별시 강서구 수명로2길 105",
      "lat": "37.5515867",
      "lng": "126.8275827",
      "total_count": 10,
      "available_count": 9,
      "total_percent": 90.0,
      "slow_total": 10,
      "slow_avail": 9,
      "slow_percent": 90.0,
      "fast_total": 0,
      "fast_avail": 0,
      "fast_percent": 0.0,
      "latest_update": "20260714002547"
    },
    {
      "station_id": "EV018852",
      "name": "서울강서 등촌아이파크아파트 1",
      "address": "서울특별시 강서구 등촌로 163",
      "lat": "37.5440303",
      "lng": "126.8611009",
      "total_count": 10,
      "available_count": 8,
      "total_percent": 80.0,
      "slow_total": 10,
      "slow_avail": 8,
      "slow_percent": 80.0,
      "fast_total": 0,
      "fast_avail": 0,
      "fast_percent": 0.0,
      "latest_update": "20260714041158"
    },
    {
      "station_id": "PC000216",
      "name": "두산더랜드파크(강서)",
      "address": "서울특별시 강서구 마곡중앙로 161-8",
      "lat": "37.5688515",
      "lng": "126.8273387",
      "total_count": 10,
      "available_count": 10,
      "total_percent": 100.0,
      "slow_total": 9,
      "slow_avail": 9,
      "slow_percent": 100.0,
      "fast_total": 1,
      "fast_avail": 1,
      "fast_percent": 100.0,
      "latest_update": "20260713224152"
    },
    {
      "station_id": "PI200373",
      "name": "서울시 강서구 한화꿈에그린아파트",
      "address": "서울특별시 강서구 공항대로75길 17",
      "lat": "37.548411260354",
      "lng": "126.8728997336",
      "total_count": 10,
      "available_count": 0,
      "total_percent": 0.0,
      "slow_total": 10,
      "slow_avail": 0,
      "slow_percent": 0.0,
      "fast_total": 0,
      "fast_avail": 0,
      "fast_percent": 0.0,
      "latest_update": "20260522164810"
    },
    {
      "station_id": "PI709997",
      "name": "서울물재생시설공단",
      "address": "서울특별시 강서구 양천로 201",
      "lat": "37.5746952",
      "lng": "126.8328906",
      "total_count": 10,
      "available_count": 10,
      "total_percent": 100.0,
      "slow_total": 10,
      "slow_avail": 10,
      "slow_percent": 100.0,
      "fast_total": 0,
      "fast_avail": 0,
      "fast_percent": 0.0,
      "latest_update": "20260713213521"
    },
    {
      "station_id": "PI752859",
      "name": "신마곡벽산블루밍",
      "address": "서울특별시 강서구 양천로10길 38",
      "lat": "37.5710053",
      "lng": "126.8086413",
      "total_count": 10,
      "available_count": 4,
      "total_percent": 40.0,
      "slow_total": 10,
      "slow_avail": 4,
      "slow_percent": 40.0,
      "fast_total": 0,
      "fast_avail": 0,
      "fast_percent": 0.0,
      "latest_update": "20260713233602"
    },
    {
      "station_id": "PI762527",
      "name": "등촌서광아파트",
      "address": "서울특별시 강서구 공항대로45길 68-6",
      "lat": "37.5579637",
      "lng": "126.8569701",
      "total_count": 10,
      "available_count": 10,
      "total_percent": 100.0,
      "slow_total": 10,
      "slow_avail": 10,
      "slow_percent": 100.0,
      "fast_total": 0,
      "fast_avail": 0,
      "fast_percent": 0.0,
      "latest_update": "20260417110636"
    },
    {
      "station_id": "PI762765",
      "name": "힐스테이트에코마곡나루역",
      "address": "서울특별시 강서구 마곡중앙로 76",
      "lat": "37.560386342",
      "lng": "126.82747004",
      "total_count": 10,
      "available_count": 10,
      "total_percent": 100.0,
      "slow_total": 10,
      "slow_avail": 10,
      "slow_percent": 100.0,
      "fast_total": 0,
      "fast_avail": 0,
      "fast_percent": 0.0,
      "latest_update": "20260713194534"
    },
    {
      "station_id": "PI773589",
      "name": "마곡13단지힐스테이트마스터아파트",
      "address": "서울특별시 강서구 마곡중앙1로 71",
      "lat": "37.557559519",
      "lng": "126.81849035",
      "total_count": 10,
      "available_count": 7,
      "total_percent": 70.0,
      "slow_total": 10,
      "slow_avail": 7,
      "slow_percent": 70.0,
      "fast_total": 0,
      "fast_avail": 0,
      "fast_percent": 0.0,
      "latest_update": "20260714050246"
    },
    {
      "station_id": "PI807070",
      "name": "서울 강서구 한화꿈에그린아파트",
      "address": "서울특별시 강서구 공항대로75길 17",
      "lat": "37.5484113",
      "lng": "126.8728997",
      "total_count": 10,
      "available_count": 6,
      "total_percent": 60.0,
      "slow_total": 10,
      "slow_avail": 6,
      "slow_percent": 60.0,
      "fast_total": 0,
      "fast_avail": 0,
      "fast_percent": 0.0,
      "latest_update": "20260714002311"
    },
    {
      "station_id": "PK000162",
      "name": "정평운수",
      "address": "서울특별시 강서구 개화동로8길 17",
      "lat": "37.57775",
      "lng": "126.79724",
      "total_count": 10,
      "available_count": 10,
      "total_percent": 100.0,
      "slow_total": 0,
      "slow_avail": 0,
      "slow_percent": 0.0,
      "fast_total": 10,
      "fast_avail": 10,
      "fast_percent": 100.0,
      "latest_update": "20260714051002"
    },
    {
      "station_id": "PK000296",
      "name": "영인본사차고지",
      "address": "서울특별시 강서구 남부순환로 224-58(외발산동)",
      "lat": "37.5452700",
      "lng": "126.8182400",
      "total_count": 10,
      "available_count": 9,
      "total_percent": 90.0,
      "slow_total": 0,
      "slow_avail": 0,
      "slow_percent": 0.0,
      "fast_total": 10,
      "fast_avail": 9,
      "fast_percent": 90.0,
      "latest_update": "20260714051001"
    },
    {
      "station_id": "PL000277",
      "name": "화곡푸르지오",
      "address": "서울특별시 강서구 화곡로13길 107",
      "lat": "37.5472450",
      "lng": "126.8322439",
      "total_count": 10,
      "available_count": 8,
      "total_percent": 80.0,
      "slow_total": 10,
      "slow_avail": 8,
      "slow_percent": 80.0,
      "fast_total": 0,
      "fast_avail": 0,
      "fast_percent": 0.0,
      "latest_update": "20260713184804"
    },
    {
      "station_id": "PL030582",
      "name": "서광등촌마을",
      "address": "서울특별시 강서구 공항대로45길 68-6",
      "lat": "37.5579627",
      "lng": "126.8569695",
      "total_count": 10,
      "available_count": 6,
      "total_percent": 60.0,
      "slow_total": 10,
      "slow_avail": 6,
      "slow_percent": 60.0,
      "fast_total": 0,
      "fast_avail": 0,
      "fast_percent": 0.0,
      "latest_update": "20260713224111"
    },
    {
      "station_id": "PW010768",
      "name": "강서힐스테이트아파트",
      "address": "서울특별시 강서구 우현로 67",
      "lat": "37.5475428",
      "lng": "126.8373961",
      "total_count": 10,
      "available_count": 6,
      "total_percent": 60.0,
      "slow_total": 10,
      "slow_avail": 6,
      "slow_percent": 60.0,
      "fast_total": 0,
      "fast_avail": 0,
      "fast_percent": 0.0,
      "latest_update": "20260714003210"
    },
    {
      "station_id": "PW011382",
      "name": "마곡나루보타닉푸르지오시티관리단",
      "address": "서울특별시 강서구 마곡중앙5로 6",
      "lat": "37.567314",
      "lng": "126.8275549",
      "total_count": 10,
      "available_count": 8,
      "total_percent": 80.0,
      "slow_total": 10,
      "slow_avail": 8,
      "slow_percent": 80.0,
      "fast_total": 0,
      "fast_avail": 0,
      "fast_percent": 0.0,
      "latest_update": "20260713124209"
    },
    {
      "station_id": "PW012397",
      "name": "우장산롯데캐슬 입주자대표회의",
      "address": "서울특별시 강서구 공항대로 382",
      "lat": "37.556395843088",
      "lng": "126.8495471721",
      "total_count": 10,
      "available_count": 10,
      "total_percent": 100.0,
      "slow_total": 10,
      "slow_avail": 10,
      "slow_percent": 100.0,
      "fast_total": 0,
      "fast_avail": 0,
      "fast_percent": 0.0,
      "latest_update": "20260519112131"
    },
    {
      "station_id": "PW015149",
      "name": "마곡엠밸리14단지 입주자대표회의(SP)",
      "address": "서울특별시 강서구 마곡중앙로 33",
      "lat": "37.558050103",
      "lng": "126.82408022",
      "total_count": 10,
      "available_count": 6,
      "total_percent": 60.0,
      "slow_total": 10,
      "slow_avail": 6,
      "slow_percent": 60.0,
      "fast_total": 0,
      "fast_avail": 0,
      "fast_percent": 0.0,
      "latest_update": "20260714044837"
    },
    {
      "station_id": "PW801041",
      "name": "한사랑2차삼성아파트(SP)",
      "address": "서울특별시 강서구 공항대로59길 64",
      "lat": "37.554623216",
      "lng": "126.86418467",
      "total_count": 10,
      "available_count": 9,
      "total_percent": 90.0,
      "slow_total": 10,
      "slow_avail": 9,
      "slow_percent": 90.0,
      "fast_total": 0,
      "fast_avail": 0,
      "fast_percent": 0.0,
      "latest_update": "20260713183324"
    },
    {
      "station_id": "PWE06868",
      "name": "우장산역동문디이스트아파트",
      "address": "서울특별시 강서구 강서로45길 92-27",
      "lat": "37.549544705",
      "lng": "126.83391880",
      "total_count": 10,
      "available_count": 10,
      "total_percent": 100.0,
      "slow_total": 10,
      "slow_avail": 10,
      "slow_percent": 100.0,
      "fast_total": 0,
      "fast_avail": 0,
      "fast_percent": 0.0,
      "latest_update": "20260714022910"
    },
    {
      "station_id": "SF002361",
      "name": "마곡엠밸리5단지 (완속충전기)",
      "address": "서울특별시 강서구 마곡서1로 111-11",
      "lat": "37.5658002",
      "lng": "126.817289",
      "total_count": 10,
      "available_count": 9,
      "total_percent": 90.0,
      "slow_total": 10,
      "slow_avail": 9,
      "slow_percent": 90.0,
      "fast_total": 0,
      "fast_avail": 0,
      "fast_percent": 0.0,
      "latest_update": "20260714034544"
    },
    {
      "station_id": "ST115019",
      "name": "서울축산업협동조합",
      "address": "서울특별시 강서구 양천로 570",
      "lat": "37.556728443",
      "lng": "126.86201052",
      "total_count": 10,
      "available_count": 0,
      "total_percent": 0.0,
      "slow_total": 8,
      "slow_avail": 0,
      "slow_percent": 0.0,
      "fast_total": 2,
      "fast_avail": 0,
      "fast_percent": 0.0,
      "latest_update": "20260714033310"
    },
    {
      "station_id": "EV011435",
      "name": "서울강서 마곡엠벨리1단지아파트",
      "address": "서울특별시 강서구 마곡서1로 131 (마곡동, 마곡엠밸리1단지)",
      "lat": "37.5684726",
      "lng": "126.8183172",
      "total_count": 9,
      "available_count": 8,
      "total_percent": 88.9,
      "slow_total": 9,
      "slow_avail": 8,
      "slow_percent": 88.9,
      "fast_total": 0,
      "fast_avail": 0,
      "fast_percent": 0.0,
      "latest_update": "20260714044816"
    },
    {
      "station_id": "HM000068",
      "name": "마곡퀸즈파크나인",
      "address": "서울특별시 강서구 공항대로 247",
      "lat": "37.559313519",
      "lng": "126.83523914",
      "total_count": 9,
      "available_count": 8,
      "total_percent": 88.9,
      "slow_total": 9,
      "slow_avail": 8,
      "slow_percent": 88.9,
      "fast_total": 0,
      "fast_avail": 0,
      "fast_percent": 0.0,
      "latest_update": "20260713222000"
    },
    {
      "station_id": "HY001091",
      "name": "강서 등촌주공10단지",
      "address": "서울특별시 강서구 화곡로63가길 71",
      "lat": "37.5627331",
      "lng": "126.8485311",
      "total_count": 9,
      "available_count": 3,
      "total_percent": 33.3,
      "slow_total": 9,
      "slow_avail": 3,
      "slow_percent": 33.3,
      "fast_total": 0,
      "fast_avail": 0,
      "fast_percent": 0.0,
      "latest_update": "20260713223904"
    },
    {
      "station_id": "JA110182",
      "name": "서울시 롯데중앙연구소",
      "address": "서울특별시 강서구 마곡중앙로 201",
      "lat": "37.5716686",
      "lng": "126.8271582",
      "total_count": 9,
      "available_count": 9,
      "total_percent": 100.0,
      "slow_total": 9,
      "slow_avail": 9,
      "slow_percent": 100.0,
      "fast_total": 0,
      "fast_avail": 0,
      "fast_percent": 0.0,
      "latest_update": "20260713172816"
    },
    {
      "station_id": "LU002007",
      "name": "디앤오강서사옥",
      "address": "서울특별시 강서구 마곡중앙로 150",
      "lat": "37.566994",
      "lng": "126.82852",
      "total_count": 9,
      "available_count": 9,
      "total_percent": 100.0,
      "slow_total": 9,
      "slow_avail": 9,
      "slow_percent": 100.0,
      "fast_total": 0,
      "fast_avail": 0,
      "fast_percent": 0.0,
      "latest_update": "20260713204822"
    },
    {
      "station_id": "LU002090",
      "name": "힐스테이트에코마곡",
      "address": "서울특별시 강서구 공항대로 269-15",
      "lat": "37.559611",
      "lng": "126.837242",
      "total_count": 9,
      "available_count": 8,
      "total_percent": 88.9,
      "slow_total": 9,
      "slow_avail": 8,
      "slow_percent": 88.9,
      "fast_total": 0,
      "fast_avail": 0,
      "fast_percent": 0.0,
      "latest_update": "20260713235020"
    },
    {
      "station_id": "NT102530",
      "name": "강서 가양7단지아파트",
      "address": "서울특별시 강서구 허준로 209",
      "lat": "37.56173",
      "lng": "126.86159",
      "total_count": 9,
      "available_count": 5,
      "total_percent": 55.6,
      "slow_total": 9,
      "slow_avail": 5,
      "slow_percent": 55.6,
      "fast_total": 0,
      "fast_avail": 0,
      "fast_percent": 0.0,
      "latest_update": "20260714022350"
    },
    {
      "station_id": "NT200158",
      "name": "마곡엠벨리2단지",
      "address": "서울특별시 강서구 마곡서1로 146",
      "lat": "37.569546019",
      "lng": "126.81972321",
      "total_count": 9,
      "available_count": 8,
      "total_percent": 88.9,
      "slow_total": 9,
      "slow_avail": 8,
      "slow_percent": 88.9,
      "fast_total": 0,
      "fast_avail": 0,
      "fast_percent": 0.0,
      "latest_update": "20260713221750"
    },
    {
      "station_id": "PI202671",
      "name": "케이티가양빌딩",
      "address": "서울특별시 강서구 강서로 442 (등촌동, 케이티플라자)",
      "lat": "37.5648",
      "lng": "126.841",
      "total_count": 9,
      "available_count": 2,
      "total_percent": 22.2,
      "slow_total": 9,
      "slow_avail": 2,
      "slow_percent": 22.2,
      "fast_total": 0,
      "fast_avail": 0,
      "fast_percent": 0.0,
      "latest_update": "20260709131614"
    },
    {
      "station_id": "PI203063",
      "name": "마곡수명산파크2단지아파트",
      "address": "서울특별시 강서구 강서로47길 158",
      "lat": "37.554515",
      "lng": "126.827403",
      "total_count": 9,
      "available_count": 7,
      "total_percent": 77.8,
      "slow_total": 9,
      "slow_avail": 7,
      "slow_percent": 77.8,
      "fast_total": 0,
      "fast_avail": 0,
      "fast_percent": 0.0,
      "latest_update": "20260713223642"
    },
    {
      "station_id": "PI709760",
      "name": "마곡중앙하이츠아파트",
      "address": "서울특별시 강서구 양천로6길 28",
      "lat": "37.5710275",
      "lng": "126.8063998",
      "total_count": 9,
      "available_count": 8,
      "total_percent": 88.9,
      "slow_total": 9,
      "slow_avail": 8,
      "slow_percent": 88.9,
      "fast_total": 0,
      "fast_avail": 0,
      "fast_percent": 0.0,
      "latest_update": "20260713171024"
    },
    {
      "station_id": "PIH00602",
      "name": "미주진로아파트",
      "address": "서울특별시 강서구 공항대로 351-21",
      "lat": "37.5605993",
      "lng": "126.8476189",
      "total_count": 9,
      "available_count": 4,
      "total_percent": 44.4,
      "slow_total": 9,
      "slow_avail": 4,
      "slow_percent": 44.4,
      "fast_total": 0,
      "fast_avail": 0,
      "fast_percent": 0.0,
      "latest_update": "20260714022210"
    },
    {
      "station_id": "PL002562",
      "name": "가양9-1단지아파트",
      "address": "서울특별시 강서구 허준로 224",
      "lat": "37.55999",
      "lng": "126.862819",
      "total_count": 9,
      "available_count": 5,
      "total_percent": 55.6,
      "slow_total": 9,
      "slow_avail": 5,
      "slow_percent": 55.6,
      "fast_total": 0,
      "fast_avail": 0,
      "fast_percent": 0.0,
      "latest_update": "20260713224648"
    },
    {
      "station_id": "PW014427",
      "name": "마곡엠코지니어스타관리단",
      "address": "서울특별시 강서구 강서로 471",
      "lat": "37.5674482",
      "lng": "126.8405733",
      "total_count": 9,
      "available_count": 8,
      "total_percent": 88.9,
      "slow_total": 9,
      "slow_avail": 8,
      "slow_percent": 88.9,
      "fast_total": 0,
      "fast_avail": 0,
      "fast_percent": 0.0,
      "latest_update": "20260713181211"
    },
    {
      "station_id": "ST115004",
      "name": "인서울27골프클럽",
      "address": "서울특별시 강서구 오정로 443-198",
      "lat": "37.546919",
      "lng": "126.796269",
      "total_count": 9,
      "available_count": 0,
      "total_percent": 0.0,
      "slow_total": 9,
      "slow_avail": 0,
      "slow_percent": 0.0,
      "fast_total": 0,
      "fast_avail": 0,
      "fast_percent": 0.0,
      "latest_update": "20260714033310"
    },
    {
      "station_id": "CGA00066",
      "name": "마곡 GMG타워(8F)",
      "address": "서울특별시 강서구 마곡중앙6로 16",
      "lat": "37.560401551",
      "lng": "126.82900620",
      "total_count": 8,
      "available_count": 8,
      "total_percent": 100.0,
      "slow_total": 8,
      "slow_avail": 8,
      "slow_percent": 100.0,
      "fast_total": 0,
      "fast_avail": 0,
      "fast_percent": 0.0,
      "latest_update": "20260712060006"
    },
    {
      "station_id": "CGA00255",
      "name": "강서 염창동아3차아파트_307동",
      "address": "서울특별시 강서구 양천로 731",
      "lat": "37.5496973",
      "lng": "126.8771824",
      "total_count": 8,
      "available_count": 3,
      "total_percent": 37.5,
      "slow_total": 8,
      "slow_avail": 3,
      "slow_percent": 37.5,
      "fast_total": 0,
      "fast_avail": 0,
      "fast_percent": 0.0,
      "latest_update": "20260714040008"
    },
    {
      "station_id": "CGA00261",
      "name": "강서 마곡아이파크",
      "address": "서울특별시 강서구 마곡중앙8로 90",
      "lat": "37.5605730",
      "lng": "126.8375933",
      "total_count": 8,
      "available_count": 7,
      "total_percent": 87.5,
      "slow_total": 8,
      "slow_avail": 7,
      "slow_percent": 87.5,
      "fast_total": 0,
      "fast_avail": 0,
      "fast_percent": 0.0,
      "latest_update": "20260713223011"
    },
    {
      "station_id": "EC004857",
      "name": "극동상록수아파트 지상주차장",
      "address": "서울특별시 강서구 공항대로71길 31",
      "lat": "37.5487849",
      "lng": "126.8725328",
      "total_count": 8,
      "available_count": 0,
      "total_percent": 0.0,
      "slow_total": 8,
      "slow_avail": 0,
      "slow_percent": 0.0,
      "fast_total": 0,
      "fast_avail": 0,
      "fast_percent": 0.0,
      "latest_update": "20260624124202"
    },
    {
      "station_id": "EV000006",
      "name": "강서한강자이아파트",
      "address": "서울특별시 강서구 양천로55길 55",
      "lat": "37.5664708",
      "lng": "126.8481216",
      "total_count": 8,
      "available_count": 7,
      "total_percent": 87.5,
      "slow_total": 8,
      "slow_avail": 7,
      "slow_percent": 87.5,
      "fast_total": 0,
      "fast_avail": 0,
      "fast_percent": 0.0,
      "latest_update": "20260714042203"
    },
    {
      "station_id": "EV008520",
      "name": "서울강서 메트로9호선 차고지주차장",
      "address": "서울특별시 강서구 개화동로8길 38",
      "lat": "37.5791664",
      "lng": "126.7980723",
      "total_count": 8,
      "available_count": 6,
      "total_percent": 75.0,
      "slow_total": 8,
      "slow_avail": 6,
      "slow_percent": 75.0,
      "fast_total": 0,
      "fast_avail": 0,
      "fast_percent": 0.0,
      "latest_update": "20260713223310"
    },
    {
      "station_id": "EV011046",
      "name": "서울강서 방화동성아파트3",
      "address": "서울특별시 강서구 금낭화로23길 8",
      "lat": "37.579749274",
      "lng": "126.81162974",
      "total_count": 8,
      "available_count": 5,
      "total_percent": 62.5,
      "slow_total": 8,
      "slow_avail": 5,
      "slow_percent": 62.5,
      "fast_total": 0,
      "fast_avail": 0,
      "fast_percent": 0.0,
      "latest_update": "20260713232912"
    },
    {
      "station_id": "EV017856",
      "name": "서울강서 염창현대아파트 1",
      "address": "서울특별시 강서구 양천로75길 57",
      "lat": "37.5533142",
      "lng": "126.8748906",
      "total_count": 8,
      "available_count": 3,
      "total_percent": 37.5,
      "slow_total": 8,
      "slow_avail": 3,
      "slow_percent": 37.5,
      "fast_total": 0,
      "fast_avail": 0,
      "fast_percent": 0.0,
      "latest_update": "20260714014601"
    },
    {
      "station_id": "HE001020",
      "name": "기아자동차 강서서비스센터",
      "address": "서울특별시 강서구 양천로 542",
      "lat": "37.558474",
      "lng": "126.859049",
      "total_count": 8,
      "available_count": 8,
      "total_percent": 100.0,
      "slow_total": 0,
      "slow_avail": 0,
      "slow_percent": 0.0,
      "fast_total": 8,
      "fast_avail": 8,
      "fast_percent": 100.0,
      "latest_update": "20260713163400"
    },
    {
      "station_id": "JA110073",
      "name": "(출입제한)대한항공 P3주차장",
      "address": "서울특별시 강서구 하늘길 260",
      "lat": "37.5462582",
      "lng": "126.8123845",
      "total_count": 8,
      "available_count": 5,
      "total_percent": 62.5,
      "slow_total": 7,
      "slow_avail": 4,
      "slow_percent": 57.1,
      "fast_total": 1,
      "fast_avail": 1,
      "fast_percent": 100.0,
      "latest_update": "20260713204906"
    },
    {
      "station_id": "JA110188",
      "name": "김포공항 에어사이드",
      "address": "서울특별시 강서구 하늘길 70",
      "lat": "37.561997595",
      "lng": "126.79636485",
      "total_count": 8,
      "available_count": 8,
      "total_percent": 100.0,
      "slow_total": 0,
      "slow_avail": 0,
      "slow_percent": 0.0,
      "fast_total": 8,
      "fast_avail": 8,
      "fast_percent": 100.0,
      "latest_update": "20260713094017"
    },
    {
      "station_id": "LU001165",
      "name": " 한화비즈메트로1차",
      "address": "서울특별시 강서구 양천로 551-17",
      "lat": "37.559110",
      "lng": "126.860941",
      "total_count": 8,
      "available_count": 7,
      "total_percent": 87.5,
      "slow_total": 8,
      "slow_avail": 7,
      "slow_percent": 87.5,
      "fast_total": 0,
      "fast_avail": 0,
      "fast_percent": 0.0,
      "latest_update": "20260714000140"
    },
    {
      "station_id": "LU001582",
      "name": "금부빌딩",
      "address": "서울특별시 강서구 양천로 476",
      "lat": "37.5616",
      "lng": "126.853272",
      "total_count": 8,
      "available_count": 8,
      "total_percent": 100.0,
      "slow_total": 8,
      "slow_avail": 8,
      "slow_percent": 100.0,
      "fast_total": 0,
      "fast_avail": 0,
      "fast_percent": 0.0,
      "latest_update": "20260713223602"
    },
    {
      "station_id": "LU001897",
      "name": "그랑타워B동",
      "address": "서울특별시 강서구 마곡중앙4로 18",
      "lat": "37.558526",
      "lng": "126.82862",
      "total_count": 8,
      "available_count": 8,
      "total_percent": 100.0,
      "slow_total": 8,
      "slow_avail": 8,
      "slow_percent": 100.0,
      "fast_total": 0,
      "fast_avail": 0,
      "fast_percent": 0.0,
      "latest_update": "20260713230658"
    },
    {
      "station_id": "LU003808",
      "name": "가양강변아파트",
      "address": "서울특별시 강서구 허준로 139",
      "lat": "37.564612",
      "lng": "126.856279",
      "total_count": 8,
      "available_count": 5,
      "total_percent": 62.5,
      "slow_total": 8,
      "slow_avail": 5,
      "slow_percent": 62.5,
      "fast_total": 0,
      "fast_avail": 0,
      "fast_percent": 0.0,
      "latest_update": "20260714040727"
    },
    {
      "station_id": "NT102546",
      "name": "강서 등촌주공9단지",
      "address": "서울특별시 강서구 화곡로63가길 92",
      "lat": "37.56195",
      "lng": "126.85020",
      "total_count": 8,
      "available_count": 5,
      "total_percent": 62.5,
      "slow_total": 8,
      "slow_avail": 5,
      "slow_percent": 62.5,
      "fast_total": 0,
      "fast_avail": 0,
      "fast_percent": 0.0,
      "latest_update": "20260714045450"
    },
    {
      "station_id": "PI200306",
      "name": "서울시 강서구 강서월드메르디앙아파트",
      "address": "서울특별시 강서구 공항대로42길 54-26",
      "lat": "37.5568199",
      "lng": "126.8430936",
      "total_count": 8,
      "available_count": 8,
      "total_percent": 100.0,
      "slow_total": 8,
      "slow_avail": 8,
      "slow_percent": 100.0,
      "fast_total": 0,
      "fast_avail": 0,
      "fast_percent": 0.0,
      "latest_update": "20260713165644"
    },
    {
      "station_id": "PI200323",
      "name": "서울시 강서구 마곡엠밸리7단지",
      "address": "서울특별시 강서구 마곡서로 133",
      "lat": "37.564091",
      "lng": "126.8239317",
      "total_count": 8,
      "available_count": 6,
      "total_percent": 75.0,
      "slow_total": 8,
      "slow_avail": 6,
      "slow_percent": 75.0,
      "fast_total": 0,
      "fast_avail": 0,
      "fast_percent": 0.0,
      "latest_update": "20260714033614"
    },
    {
      "station_id": "PI200354",
      "name": "서울시 강서구 열린M타워",
      "address": "서울특별시 강서구 공항대로 242",
      "lat": "37.5584802",
      "lng": "126.8343275",
      "total_count": 8,
      "available_count": 8,
      "total_percent": 100.0,
      "slow_total": 8,
      "slow_avail": 8,
      "slow_percent": 100.0,
      "fast_total": 0,
      "fast_avail": 0,
      "fast_percent": 0.0,
      "latest_update": "20260713212106"
    },
    {
      "station_id": "PI204274",
      "name": "서울시 강서구 화곡대림",
      "address": "서울특별시 강서구 월정로 160",
      "lat": "37.5340208",
      "lng": "126.8375371",
      "total_count": 8,
      "available_count": 8,
      "total_percent": 100.0,
      "slow_total": 8,
      "slow_avail": 8,
      "slow_percent": 100.0,
      "fast_total": 0,
      "fast_avail": 0,
      "fast_percent": 0.0,
      "latest_update": "20260713222645"
    },
    {
      "station_id": "PI712712",
      "name": "마곡역센트럴푸르지오시티",
      "address": "서울특별시 강서구 마곡중앙6로 10",
      "lat": "37.5603865",
      "lng": "126.8282078",
      "total_count": 8,
      "available_count": 6,
      "total_percent": 75.0,
      "slow_total": 8,
      "slow_avail": 6,
      "slow_percent": 75.0,
      "fast_total": 0,
      "fast_avail": 0,
      "fast_percent": 0.0,
      "latest_update": "20260713195121"
    },
    {
      "station_id": "PIH00363",
      "name": "파인스퀘어",
      "address": "서울특별시 강서구 마곡중앙4로 22",
      "lat": "37.558283",
      "lng": "126.8290099",
      "total_count": 8,
      "available_count": 8,
      "total_percent": 100.0,
      "slow_total": 8,
      "slow_avail": 8,
      "slow_percent": 100.0,
      "fast_total": 0,
      "fast_avail": 0,
      "fast_percent": 0.0,
      "latest_update": "20260713211214"
    },
    {
      "station_id": "PL002527",
      "name": "초록아파트",
      "address": "서울 강서구 강서로45다길 30-27",
      "lat": "37.5453154",
      "lng": "126.8330781",
      "total_count": 8,
      "available_count": 6,
      "total_percent": 75.0,
      "slow_total": 8,
      "slow_avail": 6,
      "slow_percent": 75.0,
      "fast_total": 0,
      "fast_avail": 0,
      "fast_percent": 0.0,
      "latest_update": "20260713220601"
    },
    {
      "station_id": "PL002572",
      "name": "신안아파트",
      "address": "서울특별시 강서구 양천로30길 123-9",
      "lat": "37.5687564",
      "lng": "126.823404",
      "total_count": 8,
      "available_count": 7,
      "total_percent": 87.5,
      "slow_total": 8,
      "slow_avail": 7,
      "slow_percent": 87.5,
      "fast_total": 0,
      "fast_avail": 0,
      "fast_percent": 0.0,
      "latest_update": "20260713222419"
    },
    {
      "station_id": "PL032589",
      "name": "마곡엠밸리11단지아파트",
      "address": "서울 강서구 공항대로 124",
      "lat": "37.5594618",
      "lng": "126.8207286",
      "total_count": 8,
      "available_count": 6,
      "total_percent": 75.0,
      "slow_total": 8,
      "slow_avail": 6,
      "slow_percent": 75.0,
      "fast_total": 0,
      "fast_avail": 0,
      "fast_percent": 0.0,
      "latest_update": "20260714031215"
    },
    {
      "station_id": "PWE01585",
      "name": "등촌대림아파트",
      "address": "서울특별시 강서구 공항대로39길 100",
      "lat": "37.56362",
      "lng": "126.84739",
      "total_count": 8,
      "available_count": 8,
      "total_percent": 100.0,
      "slow_total": 8,
      "slow_avail": 8,
      "slow_percent": 100.0,
      "fast_total": 0,
      "fast_avail": 0,
      "fast_percent": 0.0,
      "latest_update": "20260519112417"
    },
    {
      "station_id": "CV000531",
      "name": "넥센타이어(주)중앙연구소",
      "address": "서울특별시 강서구 마곡중앙로 177",
      "lat": "37.570016",
      "lng": "126.827498",
      "total_count": 7,
      "available_count": 7,
      "total_percent": 100.0,
      "slow_total": 7,
      "slow_avail": 7,
      "slow_percent": 100.0,
      "fast_total": 0,
      "fast_avail": 0,
      "fast_percent": 0.0,
      "latest_update": "20260714000546"
    },
    {
      "station_id": "CV002136",
      "name": "한국도로교통공단 강서운전면허시험장 별관 제2주차장",
      "address": "서울특별시 강서구 남부순환로 171",
      "lat": "37.5501458",
      "lng": "126.8194603",
      "total_count": 7,
      "available_count": 7,
      "total_percent": 100.0,
      "slow_total": 5,
      "slow_avail": 5,
      "slow_percent": 100.0,
      "fast_total": 2,
      "fast_avail": 2,
      "fast_percent": 100.0,
      "latest_update": "20260714032030"
    },
    {
      "station_id": "CV002137",
      "name": "한국도로교통공단 강서운전면허시험장 별관 제1주차장",
      "address": "서울특별시 강서구 남부순환로 171",
      "lat": "37.5491592",
      "lng": "126.8202138",
      "total_count": 7,
      "available_count": 7,
      "total_percent": 100.0,
      "slow_total": 5,
      "slow_avail": 5,
      "slow_percent": 100.0,
      "fast_total": 2,
      "fast_avail": 2,
      "fast_percent": 100.0,
      "latest_update": "20260713164522"
    },
    {
      "station_id": "EV018619",
      "name": "서울강서 태영송화아파트 1",
      "address": "서울특별시 강서구 공항대로61길 60",
      "lat": "37.5536714",
      "lng": "126.8675549",
      "total_count": 7,
      "available_count": 7,
      "total_percent": 100.0,
      "slow_total": 7,
      "slow_avail": 7,
      "slow_percent": 100.0,
      "fast_total": 0,
      "fast_avail": 0,
      "fast_percent": 0.0,
      "latest_update": "20260712210246"
    },
    {
      "station_id": "HU200005",
      "name": "두산더랜드타워",
      "address": "서울특별시 강서구 마곡서로 152",
      "lat": "37.5677108",
      "lng": "126.8256454",
      "total_count": 7,
      "available_count": 7,
      "total_percent": 100.0,
      "slow_total": 7,
      "slow_avail": 7,
      "slow_percent": 100.0,
      "fast_total": 0,
      "fast_avail": 0,
      "fast_percent": 0.0,
      "latest_update": "20260713200000"
    },
    {
      "station_id": "KE000740",
      "name": "서울강서우장산힐스테이트105동",
      "address": "서울특별시 강서구 강서로 348",
      "lat": "37.5559651",
      "lng": "126.8387761",
      "total_count": 7,
      "available_count": 7,
      "total_percent": 100.0,
      "slow_total": 7,
      "slow_avail": 7,
      "slow_percent": 100.0,
      "fast_total": 0,
      "fast_avail": 0,
      "fast_percent": 0.0,
      "latest_update": "20260713233409"
    },
    {
      "station_id": "LU001265",
      "name": " 레드캡투어 마곡",
      "address": "서울특별시 강서구 양천로47길 72",
      "lat": "37.573577",
      "lng": "126.837432",
      "total_count": 7,
      "available_count": 7,
      "total_percent": 100.0,
      "slow_total": 7,
      "slow_avail": 7,
      "slow_percent": 100.0,
      "fast_total": 0,
      "fast_avail": 0,
      "fast_percent": 0.0,
      "latest_update": "20260627123423"
    },
    {
      "station_id": "LU002124",
      "name": "리더스퀘어마곡관리단",
      "address": "서울특별시 강서구 마곡중앙6로 45",
      "lat": "37.560631",
      "lng": "126.832721",
      "total_count": 7,
      "available_count": 7,
      "total_percent": 100.0,
      "slow_total": 7,
      "slow_avail": 7,
      "slow_percent": 100.0,
      "fast_total": 0,
      "fast_avail": 0,
      "fast_percent": 0.0,
      "latest_update": "20260713130001"
    },
    {
      "station_id": "LU002806",
      "name": "강변성원아파트",
      "address": "서울특별시 강서구 양천로69길 65",
      "lat": "37.555957",
      "lng": "126.872154",
      "total_count": 7,
      "available_count": 3,
      "total_percent": 42.9,
      "slow_total": 7,
      "slow_avail": 3,
      "slow_percent": 42.9,
      "fast_total": 0,
      "fast_avail": 0,
      "fast_percent": 0.0,
      "latest_update": "20260713230007"
    },
    {
      "station_id": "LU003012",
      "name": "마곡한진해모로",
      "address": "서울특별시 강서구 양천로24가길 59",
      "lat": "37.571061",
      "lng": "126.813839",
      "total_count": 7,
      "available_count": 2,
      "total_percent": 28.6,
      "slow_total": 7,
      "slow_avail": 2,
      "slow_percent": 28.6,
      "fast_total": 0,
      "fast_avail": 0,
      "fast_percent": 0.0,
      "latest_update": "20260714024323"
    },
    {
      "station_id": "NT102444",
      "name": "강서 방화청솔3단지아파트",
      "address": "서울특별시 강서구 방화대로47길 55",
      "lat": "37.57594",
      "lng": "126.81240",
      "total_count": 7,
      "available_count": 3,
      "total_percent": 42.9,
      "slow_total": 7,
      "slow_avail": 3,
      "slow_percent": 42.9,
      "fast_total": 0,
      "fast_avail": 0,
      "fast_percent": 0.0,
      "latest_update": "20260713221050"
    },
    {
      "station_id": "NT102543",
      "name": "강서 등촌주공1단지",
      "address": "서울특별시 강서구 강서로68길 36",
      "lat": "37.56538",
      "lng": "126.84226",
      "total_count": 7,
      "available_count": 5,
      "total_percent": 71.4,
      "slow_total": 7,
      "slow_avail": 5,
      "slow_percent": 71.4,
      "fast_total": 0,
      "fast_avail": 0,
      "fast_percent": 0.0,
      "latest_update": "20260713201950"
    },
    {
      "station_id": "NT102545",
      "name": "강서 등촌주공4단지",
      "address": "서울특별시 강서구 공항대로39길 59",
      "lat": "37.56225",
      "lng": "126.84290",
      "total_count": 7,
      "available_count": 7,
      "total_percent": 100.0,
      "slow_total": 7,
      "slow_avail": 7,
      "slow_percent": 100.0,
      "fast_total": 0,
      "fast_avail": 0,
      "fast_percent": 0.0,
      "latest_update": "20260714011350"
    },
    {
      "station_id": "NT102547",
      "name": "강서 등촌주공6단지",
      "address": "서울특별시 강서구 화곡로63가길 18",
      "lat": "37.56000",
      "lng": "126.84840",
      "total_count": 7,
      "available_count": 5,
      "total_percent": 71.4,
      "slow_total": 7,
      "slow_avail": 5,
      "slow_percent": 71.4,
      "fast_total": 0,
      "fast_avail": 0,
      "fast_percent": 0.0,
      "latest_update": "20260714013550"
    },
    {
      "station_id": "NT200085",
      "name": "마곡엠벨리3단지",
      "address": "서울특별시 강서구 마곡서1로 132",
      "lat": "37.5681441",
      "lng": "126.8195679",
      "total_count": 7,
      "available_count": 7,
      "total_percent": 100.0,
      "slow_total": 7,
      "slow_avail": 7,
      "slow_percent": 100.0,
      "fast_total": 0,
      "fast_avail": 0,
      "fast_percent": 0.0,
      "latest_update": "20260713160250"
    },
    {
      "station_id": "PC000480",
      "name": "관음삼성아파트(강서)",
      "address": "서울특별시 강서구 양천로 656",
      "lat": "37.552722",
      "lng": "126.869114",
      "total_count": 7,
      "available_count": 6,
      "total_percent": 85.7,
      "slow_total": 6,
      "slow_avail": 5,
      "slow_percent": 83.3,
      "fast_total": 1,
      "fast_avail": 1,
      "fast_percent": 100.0,
      "latest_update": "20260713202228"
    },
    {
      "station_id": "PC001564",
      "name": "퀸즈파크11차(강서)",
      "address": "서울특별시 강서구 공항대로 212",
      "lat": "37.5587491",
      "lng": "126.8308211",
      "total_count": 7,
      "available_count": 7,
      "total_percent": 100.0,
      "slow_total": 7,
      "slow_avail": 7,
      "slow_percent": 100.0,
      "fast_total": 0,
      "fast_avail": 0,
      "fast_percent": 0.0,
      "latest_update": "20260713195415"
    },
    {
      "station_id": "PI204336",
      "name": "서울시 강서구 신안네트빌1단지",
      "address": "서울특별시 강서구 양천로14길 37",
      "lat": "37.5715656",
      "lng": "126.8102972",
      "total_count": 7,
      "available_count": 7,
      "total_percent": 100.0,
      "slow_total": 7,
      "slow_avail": 7,
      "slow_percent": 100.0,
      "fast_total": 0,
      "fast_avail": 0,
      "fast_percent": 0.0,
      "latest_update": "20260714011650"
    },
    {
      "station_id": "PL000375",
      "name": "개화역광역환승센터",
      "address": "서울특별시 강서구 개화동로8길 19",
      "lat": "37.5778861",
      "lng": "126.7982112",
      "total_count": 7,
      "available_count": 7,
      "total_percent": 100.0,
      "slow_total": 7,
      "slow_avail": 7,
      "slow_percent": 100.0,
      "fast_total": 0,
      "fast_avail": 0,
      "fast_percent": 0.0,
      "latest_update": "20260713193707"
    },
    {
      "station_id": "PL002569",
      "name": "마곡엠밸리4단지",
      "address": "서울특별시 강서구 마곡서로 175",
      "lat": "37.5689081",
      "lng": "126.8242325",
      "total_count": 7,
      "available_count": 3,
      "total_percent": 42.9,
      "slow_total": 7,
      "slow_avail": 3,
      "slow_percent": 42.9,
      "fast_total": 0,
      "fast_avail": 0,
      "fast_percent": 0.0,
      "latest_update": "20260714034947"
    },
    {
      "station_id": "PL032400",
      "name": "강나루현대아파트",
      "address": "서울특별시 강서구 양천로 507",
      "lat": "37.5603957",
      "lng": "126.8573626",
      "total_count": 7,
      "available_count": 6,
      "total_percent": 85.7,
      "slow_total": 7,
      "slow_avail": 6,
      "slow_percent": 85.7,
      "fast_total": 0,
      "fast_avail": 0,
      "fast_percent": 0.0,
      "latest_update": "20260713153239"
    },
    {
      "station_id": "SE000002",
      "name": "개화산역 공영주차장",
      "address": "서울특별시 강서구 양천로 22",
      "lat": "37.5724222",
      "lng": "126.804828",
      "total_count": 7,
      "available_count": 7,
      "total_percent": 100.0,
      "slow_total": 0,
      "slow_avail": 0,
      "slow_percent": 0.0,
      "fast_total": 7,
      "fast_avail": 7,
      "fast_percent": 100.0,
      "latest_update": "20260713212721"
    },
    {
      "station_id": "CGA00254",
      "name": "강서 염창동아3차아파트_302동",
      "address": "서울특별시 강서구 양천로 731",
      "lat": "37.5495901",
      "lng": "126.8780426",
      "total_count": 6,
      "available_count": 6,
      "total_percent": 100.0,
      "slow_total": 6,
      "slow_avail": 6,
      "slow_percent": 100.0,
      "fast_total": 0,
      "fast_avail": 0,
      "fast_percent": 0.0,
      "latest_update": "20260712224512"
    },
    {
      "station_id": "CV003829",
      "name": "한강동아아파트",
      "address": "서울특별시 강서구 양천로73길 80",
      "lat": "37.553986",
      "lng": "126.8741764",
      "total_count": 6,
      "available_count": 2,
      "total_percent": 33.3,
      "slow_total": 6,
      "slow_avail": 2,
      "slow_percent": 33.3,
      "fast_total": 0,
      "fast_avail": 0,
      "fast_percent": 0.0,
      "latest_update": "20260714034541"
    },
    {
      "station_id": "EC000201",
      "name": "삼정그린코아",
      "address": "서울특별시 강서구 공항대로75길 30",
      "lat": "37.5480819",
      "lng": "126.8746047",
      "total_count": 6,
      "available_count": 4,
      "total_percent": 66.7,
      "slow_total": 6,
      "slow_avail": 4,
      "slow_percent": 66.7,
      "fast_total": 0,
      "fast_avail": 0,
      "fast_percent": 0.0,
      "latest_update": "20260713232201"
    },
    {
      "station_id": "EC003345",
      "name": "마곡수명산파크3단지 307동 B2",
      "address": "서울특별시 강서구 수명로1길 110",
      "lat": "37.5522285",
      "lng": "126.8248407",
      "total_count": 6,
      "available_count": 6,
      "total_percent": 100.0,
      "slow_total": 6,
      "slow_avail": 6,
      "slow_percent": 100.0,
      "fast_total": 0,
      "fast_avail": 0,
      "fast_percent": 0.0,
      "latest_update": "20260713074401"
    },
    {
      "station_id": "EV007090",
      "name": "서울강서 방화동부센트레빌",
      "address": "서울특별시 강서구 방화대로45길 32",
      "lat": "37.574881",
      "lng": "126.8143291",
      "total_count": 6,
      "available_count": 4,
      "total_percent": 66.7,
      "slow_total": 6,
      "slow_avail": 4,
      "slow_percent": 66.7,
      "fast_total": 0,
      "fast_avail": 0,
      "fast_percent": 0.0,
      "latest_update": "20260714032732"
    },
    {
      "station_id": "EV007451",
      "name": "서울강서 염창롯데캐슬아파트 1",
      "address": "서울특별시 강서구 공항대로65길 21",
      "lat": "37.550795934",
      "lng": "126.86821784",
      "total_count": 6,
      "available_count": 4,
      "total_percent": 66.7,
      "slow_total": 6,
      "slow_avail": 4,
      "slow_percent": 66.7,
      "fast_total": 0,
      "fast_avail": 0,
      "fast_percent": 0.0,
      "latest_update": "20260713214208"
    },
    {
      "station_id": "EV013436",
      "name": "서울강서 염창무학아파트",
      "address": "서울특별시 강서구 양천로77길 45",
      "lat": "37.551014977",
      "lng": "126.87665017",
      "total_count": 6,
      "available_count": 4,
      "total_percent": 66.7,
      "slow_total": 6,
      "slow_avail": 4,
      "slow_percent": 66.7,
      "fast_total": 0,
      "fast_avail": 0,
      "fast_percent": 0.0,
      "latest_update": "20260713224647"
    },
    {
      "station_id": "EV013937",
      "name": "서울강서 메이필드호텔",
      "address": "서울특별시 강서구 방화대로 94 (외발산동)",
      "lat": "37.5478957",
      "lng": "126.8195071",
      "total_count": 6,
      "available_count": 5,
      "total_percent": 83.3,
      "slow_total": 6,
      "slow_avail": 5,
      "slow_percent": 83.3,
      "fast_total": 0,
      "fast_avail": 0,
      "fast_percent": 0.0,
      "latest_update": "20260714034520"
    },
    {
      "station_id": "EV014383",
      "name": "서울강서 이화여대 마곡캠퍼스",
      "address": "서울특별시 강서구 마곡동로2길 25",
      "lat": "37.5562461",
      "lng": "126.8361757",
      "total_count": 6,
      "available_count": 6,
      "total_percent": 100.0,
      "slow_total": 6,
      "slow_avail": 6,
      "slow_percent": 100.0,
      "fast_total": 0,
      "fast_avail": 0,
      "fast_percent": 0.0,
      "latest_update": "20260713230256"
    },
    {
      "station_id": "EV017004",
      "name": "서울강서 금호타운아파트",
      "address": "서울특별시 강서구 양천로 595",
      "lat": "37.5560552",
      "lng": "126.8653078",
      "total_count": 6,
      "available_count": 3,
      "total_percent": 50.0,
      "slow_total": 6,
      "slow_avail": 3,
      "slow_percent": 50.0,
      "fast_total": 0,
      "fast_avail": 0,
      "fast_percent": 0.0,
      "latest_update": "20260713231504"
    },
    {
      "station_id": "EV019747",
      "name": "서울강서 마곡수명산파크1단지아파트 2",
      "address": "서울특별시 강서구 강서로47길 108",
      "lat": "37.5546077",
      "lng": "126.8314727",
      "total_count": 6,
      "available_count": 5,
      "total_percent": 83.3,
      "slow_total": 6,
      "slow_avail": 5,
      "slow_percent": 83.3,
      "fast_total": 0,
      "fast_avail": 0,
      "fast_percent": 0.0,
      "latest_update": "20260714010613"
    },
    {
      "station_id": "EV019748",
      "name": "서울강서 마곡수명산파크1단지아파트 3",
      "address": "서울특별시 강서구 강서로47길 108",
      "lat": "37.5546042",
      "lng": "126.8305984",
      "total_count": 6,
      "available_count": 6,
      "total_percent": 100.0,
      "slow_total": 6,
      "slow_avail": 6,
      "slow_percent": 100.0,
      "fast_total": 0,
      "fast_avail": 0,
      "fast_percent": 0.0,
      "latest_update": "20260713173317"
    },
    {
      "station_id": "EV019750",
      "name": "서울강서 마곡수명산파크1단지아파트 5",
      "address": "서울 강서구 강서로47길 108",
      "lat": "37.5545558",
      "lng": "126.8298120",
      "total_count": 6,
      "available_count": 4,
      "total_percent": 66.7,
      "slow_total": 6,
      "slow_avail": 4,
      "slow_percent": 66.7,
      "fast_total": 0,
      "fast_avail": 0,
      "fast_percent": 0.0,
      "latest_update": "20260714030521"
    },
    {
      "station_id": "EV019751",
      "name": "서울강서 마곡수명산파크1단지아파트 6",
      "address": "서울 강서구 강서로47길 108",
      "lat": "37.5549156",
      "lng": "126.8293840",
      "total_count": 6,
      "available_count": 3,
      "total_percent": 50.0,
      "slow_total": 6,
      "slow_avail": 3,
      "slow_percent": 50.0,
      "fast_total": 0,
      "fast_avail": 0,
      "fast_percent": 0.0,
      "latest_update": "20260714035221"
    },
    {
      "station_id": "HD000034",
      "name": "강서 농산물도매시장 E-pit",
      "address": "서울특별시 강서구 시장도매인로 28",
      "lat": "37.5531998",
      "lng": "126.8221818",
      "total_count": 6,
      "available_count": 6,
      "total_percent": 100.0,
      "slow_total": 0,
      "slow_avail": 0,
      "slow_percent": 0.0,
      "fast_total": 6,
      "fast_avail": 6,
      "fast_percent": 100.0,
      "latest_update": "20260714045400"
    },
    {
      "station_id": "HE240156",
      "name": "기아자동차 강서서비스센터",
      "address": "서울특별시 강서구 양천로 542",
      "lat": "37.5585185",
      "lng": "126.8590192",
      "total_count": 6,
      "available_count": 6,
      "total_percent": 100.0,
      "slow_total": 6,
      "slow_avail": 6,
      "slow_percent": 100.0,
      "fast_total": 0,
      "fast_avail": 0,
      "fast_percent": 0.0,
      "latest_update": "20260713135000"
    },
    {
      "station_id": "HY001247",
      "name": "강서 가양대림경동",
      "address": "서울특별시 강서구 허준로 121",
      "lat": "37.5664234",
      "lng": "126.8539451",
      "total_count": 6,
      "available_count": 5,
      "total_percent": 83.3,
      "slow_total": 6,
      "slow_avail": 5,
      "slow_percent": 83.3,
      "fast_total": 0,
      "fast_avail": 0,
      "fast_percent": 0.0,
      "latest_update": "20260713212003"
    },
    {
      "station_id": "HY001809",
      "name": "강서 방화동대림e편한세상",
      "address": "서울특별시 강서구 양천로6길 57",
      "lat": "37.570122",
      "lng": "126.808183",
      "total_count": 6,
      "available_count": 4,
      "total_percent": 66.7,
      "slow_total": 6,
      "slow_avail": 4,
      "slow_percent": 66.7,
      "fast_total": 0,
      "fast_avail": 0,
      "fast_percent": 0.0,
      "latest_update": "20260713221906"
    },
    {
      "station_id": "JA110192",
      "name": "송화프라자",
      "address": "서울특별시 강서구 강서로 267",
      "lat": "37.5496001",
      "lng": "126.8359413",
      "total_count": 6,
      "available_count": 6,
      "total_percent": 100.0,
      "slow_total": 6,
      "slow_avail": 6,
      "slow_percent": 100.0,
      "fast_total": 0,
      "fast_avail": 0,
      "fast_percent": 0.0,
      "latest_update": "20260713172817"
    },
    {
      "station_id": "KE000739",
      "name": "서울강서우장산힐스테이트101동",
      "address": "서울특별시 강서구 강서로 348",
      "lat": "37.5554566",
      "lng": "126.8380498",
      "total_count": 6,
      "available_count": 5,
      "total_percent": 83.3,
      "slow_total": 6,
      "slow_avail": 5,
      "slow_percent": 83.3,
      "fast_total": 0,
      "fast_avail": 0,
      "fast_percent": 0.0,
      "latest_update": "20260713210110"
    },
    {
      "station_id": "KE000741",
      "name": "서울강서우장산힐스테이트107동1",
      "address": "서울특별시 강서구 강서로 348",
      "lat": "37.5566001",
      "lng": "126.8381047",
      "total_count": 6,
      "available_count": 5,
      "total_percent": 83.3,
      "slow_total": 6,
      "slow_avail": 5,
      "slow_percent": 83.3,
      "fast_total": 0,
      "fast_avail": 0,
      "fast_percent": 0.0,
      "latest_update": "20260713205109"
    },
    {
      "station_id": "KE000742",
      "name": "서울강서우장산힐스테이트108동1",
      "address": "서울특별시 강서구 강서로 348",
      "lat": "37.5565124",
      "lng": "126.8390145",
      "total_count": 6,
      "available_count": 5,
      "total_percent": 83.3,
      "slow_total": 6,
      "slow_avail": 5,
      "slow_percent": 83.3,
      "fast_total": 0,
      "fast_avail": 0,
      "fast_percent": 0.0,
      "latest_update": "20260713224809"
    },
    {
      "station_id": "KE000743",
      "name": "서울강서우장산힐스테이트111동",
      "address": "서울특별시 강서구 강서로 348",
      "lat": "37.5570301",
      "lng": "126.8390047",
      "total_count": 6,
      "available_count": 6,
      "total_percent": 100.0,
      "slow_total": 6,
      "slow_avail": 6,
      "slow_percent": 100.0,
      "fast_total": 0,
      "fast_avail": 0,
      "fast_percent": 0.0,
      "latest_update": "20260714025109"
    },
    {
      "station_id": "KE001075",
      "name": "서울강서강변한솔솔파크102동",
      "address": "서울특별시 강서구 양천로63길 38",
      "lat": "37.5568887",
      "lng": "126.866573",
      "total_count": 6,
      "available_count": 5,
      "total_percent": 83.3,
      "slow_total": 6,
      "slow_avail": 5,
      "slow_percent": 83.3,
      "fast_total": 0,
      "fast_avail": 0,
      "fast_percent": 0.0,
      "latest_update": "20260714014110"
    },
    {
      "station_id": "KE001076",
      "name": "서울강서강변한솔솔파크106동",
      "address": "서울특별시 강서구 양천로63길 38",
      "lat": "37.5568887",
      "lng": "126.866573",
      "total_count": 6,
      "available_count": 6,
      "total_percent": 100.0,
      "slow_total": 6,
      "slow_avail": 6,
      "slow_percent": 100.0,
      "fast_total": 0,
      "fast_avail": 0,
      "fast_percent": 0.0,
      "latest_update": "20260714044110"
    },
    {
      "station_id": "KE001246",
      "name": "서울강서 배다리동길공영주차장1",
      "address": "서울특별시 강서구 국회대로7길 157",
      "lat": "37.5289392",
      "lng": "126.8520923",
      "total_count": 6,
      "available_count": 6,
      "total_percent": 100.0,
      "slow_total": 6,
      "slow_avail": 6,
      "slow_percent": 100.0,
      "fast_total": 0,
      "fast_avail": 0,
      "fast_percent": 0.0,
      "latest_update": "20260714032709"
    },
    {
      "station_id": "LU002955",
      "name": "마곡현대1차아파트",
      "address": "서울특별시 강서구 방화대로37길 26",
      "lat": "37.570804",
      "lng": "126.814002",
      "total_count": 6,
      "available_count": 5,
      "total_percent": 83.3,
      "slow_total": 6,
      "slow_avail": 5,
      "slow_percent": 83.3,
      "fast_total": 0,
      "fast_avail": 0,
      "fast_percent": 0.0,
      "latest_update": "20260714020938"
    },
    {
      "station_id": "LU003754",
      "name": "LG아트센터_로딩덕",
      "address": "서울특별시 강서구 마곡중앙로 136",
      "lat": "37.565387",
      "lng": "126.829255",
      "total_count": 6,
      "available_count": 6,
      "total_percent": 100.0,
      "slow_total": 6,
      "slow_avail": 6,
      "slow_percent": 100.0,
      "fast_total": 0,
      "fast_avail": 0,
      "fast_percent": 0.0,
      "latest_update": "20260712210032"
    },
    {
      "station_id": "LU101184",
      "name": "우장산한화꿈에그린",
      "address": "서울특별시 강서구 우장산로 103",
      "lat": "37.5535356",
      "lng": "126.8470995",
      "total_count": 6,
      "available_count": 6,
      "total_percent": 100.0,
      "slow_total": 6,
      "slow_avail": 6,
      "slow_percent": 100.0,
      "fast_total": 0,
      "fast_avail": 0,
      "fast_percent": 0.0,
      "latest_update": "20260713190241"
    },
    {
      "station_id": "LU101640",
      "name": "강나루현대",
      "address": "서울특별시 강서구 양천로 507",
      "lat": "37.5603957",
      "lng": "126.8573626",
      "total_count": 6,
      "available_count": 1,
      "total_percent": 16.7,
      "slow_total": 6,
      "slow_avail": 1,
      "slow_percent": 16.7,
      "fast_total": 0,
      "fast_avail": 0,
      "fast_percent": 0.0,
      "latest_update": "20260714030145"
    },
    {
      "station_id": "NT101043",
      "name": "마곡 헤리움2차오피스텔",
      "address": "서울특별시 강서구 마곡중앙5로1길 25",
      "lat": "37.569242031",
      "lng": "126.82613798",
      "total_count": 6,
      "available_count": 4,
      "total_percent": 66.7,
      "slow_total": 6,
      "slow_avail": 4,
      "slow_percent": 66.7,
      "fast_total": 0,
      "fast_avail": 0,
      "fast_percent": 0.0,
      "latest_update": "20260714001150"
    },
    {
      "station_id": "NT102544",
      "name": "강서 등촌주공11단지",
      "address": "서울특별시 강서구 공항대로43길 39",
      "lat": "37.55928",
      "lng": "126.84964",
      "total_count": 6,
      "available_count": 5,
      "total_percent": 83.3,
      "slow_total": 6,
      "slow_avail": 5,
      "slow_percent": 83.3,
      "fast_total": 0,
      "fast_avail": 0,
      "fast_percent": 0.0,
      "latest_update": "20260714032650"
    },
    {
      "station_id": "PC000066",
      "name": "마곡일성트루엘플래닛",
      "address": "서울특별시 강서구 마곡중앙로 161-22",
      "lat": "37.568617",
      "lng": "126.825508",
      "total_count": 6,
      "available_count": 6,
      "total_percent": 100.0,
      "slow_total": 6,
      "slow_avail": 6,
      "slow_percent": 100.0,
      "fast_total": 0,
      "fast_avail": 0,
      "fast_percent": 0.0,
      "latest_update": "20260713102441"
    },
    {
      "station_id": "PI070891",
      "name": "마곡센트럴타워B",
      "address": "서울특별시 강서구 공항대로 227",
      "lat": "37.559589526",
      "lng": "126.83255646",
      "total_count": 6,
      "available_count": 6,
      "total_percent": 100.0,
      "slow_total": 6,
      "slow_avail": 6,
      "slow_percent": 100.0,
      "fast_total": 0,
      "fast_avail": 0,
      "fast_percent": 0.0,
      "latest_update": "20260713181602"
    },
    {
      "station_id": "PI200314",
      "name": "서울시 강서구 염창동신동아아파트",
      "address": "서울특별시 강서구 양천로67길 32",
      "lat": "37.5551178",
      "lng": "126.8688643",
      "total_count": 6,
      "available_count": 2,
      "total_percent": 33.3,
      "slow_total": 6,
      "slow_avail": 2,
      "slow_percent": 33.3,
      "fast_total": 0,
      "fast_avail": 0,
      "fast_percent": 0.0,
      "latest_update": "20260714043108"
    },
    {
      "station_id": "PI200350",
      "name": "서울시 강서구 마곡747타워",
      "address": "서울특별시 강서구 공항대로 168",
      "lat": "37.559273639191",
      "lng": "126.8261369814",
      "total_count": 6,
      "available_count": 0,
      "total_percent": 0.0,
      "slow_total": 6,
      "slow_avail": 0,
      "slow_percent": 0.0,
      "fast_total": 0,
      "fast_avail": 0,
      "fast_percent": 0.0,
      "latest_update": "20260407143206"
    },
    {
      "station_id": "PI204219",
      "name": "서울시 강서구 공항해태아파트",
      "address": "서울특별시 강서구 방화대로 259",
      "lat": "37.5635549",
      "lng": "126.8152481",
      "total_count": 6,
      "available_count": 3,
      "total_percent": 50.0,
      "slow_total": 6,
      "slow_avail": 3,
      "slow_percent": 50.0,
      "fast_total": 0,
      "fast_avail": 0,
      "fast_percent": 0.0,
      "latest_update": "20260713061147"
    },
    {
      "station_id": "PI645271",
      "name": "BMW차징스테이션 메이필드호텔 by바바리안모터스",
      "address": "서울특별시 강서구 방화대로 94",
      "lat": "37.547895723",
      "lng": "126.81950712",
      "total_count": 6,
      "available_count": 6,
      "total_percent": 100.0,
      "slow_total": 2,
      "slow_avail": 2,
      "slow_percent": 100.0,
      "fast_total": 4,
      "fast_avail": 4,
      "fast_percent": 100.0,
      "latest_update": "20260713103803"
    },
    {
      "station_id": "PI716067",
      "name": "염창1차더보람더하임아파트",
      "address": "서울특별시 강서구 양천로 666",
      "lat": "37.5515311",
      "lng": "126.870365",
      "total_count": 6,
      "available_count": 5,
      "total_percent": 83.3,
      "slow_total": 6,
      "slow_avail": 5,
      "slow_percent": 83.3,
      "fast_total": 0,
      "fast_avail": 0,
      "fast_percent": 0.0,
      "latest_update": "20260713211543"
    },
    {
      "station_id": "PI717961",
      "name": "마곡대명투웨니퍼스트",
      "address": "서울특별시 강서구 강서로 443",
      "lat": "37.5651622",
      "lng": "126.8399172",
      "total_count": 6,
      "available_count": 6,
      "total_percent": 100.0,
      "slow_total": 6,
      "slow_avail": 6,
      "slow_percent": 100.0,
      "fast_total": 0,
      "fast_avail": 0,
      "fast_percent": 0.0,
      "latest_update": "20260712113044"
    },
    {
      "station_id": "PI724671",
      "name": "마곡사이언스타워2차",
      "address": "서울특별시 강서구 마곡중앙로 56",
      "lat": "37.5585524",
      "lng": "126.8271538",
      "total_count": 6,
      "available_count": 6,
      "total_percent": 100.0,
      "slow_total": 6,
      "slow_avail": 6,
      "slow_percent": 100.0,
      "fast_total": 0,
      "fast_avail": 0,
      "fast_percent": 0.0,
      "latest_update": "20260713151210"
    },
    {
      "station_id": "PI769019",
      "name": "벨리오오피스텔",
      "address": "서울특별시 강서구 강서로 439",
      "lat": "37.5648015",
      "lng": "126.8398095",
      "total_count": 6,
      "available_count": 6,
      "total_percent": 100.0,
      "slow_total": 6,
      "slow_avail": 6,
      "slow_percent": 100.0,
      "fast_total": 0,
      "fast_avail": 0,
      "fast_percent": 0.0,
      "latest_update": "20260710123057"
    },
    {
      "station_id": "PI775258",
      "name": "BMW차징스테이션 귀뚜라미냉난방기술연구소",
      "address": "서울특별시 강서구 마곡중앙로 86",
      "lat": "37.5612477",
      "lng": "126.8277415",
      "total_count": 6,
      "available_count": 6,
      "total_percent": 100.0,
      "slow_total": 6,
      "slow_avail": 6,
      "slow_percent": 100.0,
      "fast_total": 0,
      "fast_avail": 0,
      "fast_percent": 0.0,
      "latest_update": "20260711205806"
    },
    {
      "station_id": "PI805078",
      "name": "서울 강서구 서울에프아이피아이(FITI)시험연구원",
      "address": "서울특별시 강서구 마곡중앙8로3길 79",
      "lat": "37.5678876",
      "lng": "126.8384361",
      "total_count": 6,
      "available_count": 6,
      "total_percent": 100.0,
      "slow_total": 6,
      "slow_avail": 6,
      "slow_percent": 100.0,
      "fast_total": 0,
      "fast_avail": 0,
      "fast_percent": 0.0,
      "latest_update": "20260713201039"
    },
    {
      "station_id": "PIH01088",
      "name": "서울 마곡동 힐스테이트에코마곡역오피스텔",
      "address": "서울특별시 강서구 마곡중앙로 76",
      "lat": "37.560368463",
      "lng": "126.82756628",
      "total_count": 6,
      "available_count": 5,
      "total_percent": 83.3,
      "slow_total": 6,
      "slow_avail": 5,
      "slow_percent": 83.3,
      "fast_total": 0,
      "fast_avail": 0,
      "fast_percent": 0.0,
      "latest_update": "20260713210439"
    },
    {
      "station_id": "PL000245",
      "name": "가양더리브골드타워",
      "address": "서울특별시 강서구 양천로 400-12",
      "lat": "37.5653274",
      "lng": "126.8457565",
      "total_count": 6,
      "available_count": 5,
      "total_percent": 83.3,
      "slow_total": 6,
      "slow_avail": 5,
      "slow_percent": 83.3,
      "fast_total": 0,
      "fast_avail": 0,
      "fast_percent": 0.0,
      "latest_update": "20260713170831"
    },
    {
      "station_id": "PL000552",
      "name": "등촌동두산위브센티움",
      "address": "서울특별시 강서구 양천로 564",
      "lat": "37.5570868",
      "lng": "126.8613313",
      "total_count": 6,
      "available_count": 4,
      "total_percent": 66.7,
      "slow_total": 6,
      "slow_avail": 4,
      "slow_percent": 66.7,
      "fast_total": 0,
      "fast_avail": 0,
      "fast_percent": 0.0,
      "latest_update": "20260713181341"
    },
    {
      "station_id": "PL002682",
      "name": "방화동장미아파트",
      "address": "서울특별시 강서구 양천로 125",
      "lat": "37.5738488",
      "lng": "126.8172458",
      "total_count": 6,
      "available_count": 4,
      "total_percent": 66.7,
      "slow_total": 6,
      "slow_avail": 4,
      "slow_percent": 66.7,
      "fast_total": 0,
      "fast_avail": 0,
      "fast_percent": 0.0,
      "latest_update": "20260713224310"
    },
    {
      "station_id": "PL002688",
      "name": "강서마곡서광아파트",
      "address": "서울 강서구 양천로27길 129",
      "lat": "37.5789278",
      "lng": "126.8194950",
      "total_count": 6,
      "available_count": 3,
      "total_percent": 50.0,
      "slow_total": 6,
      "slow_avail": 3,
      "slow_percent": 50.0,
      "fast_total": 0,
      "fast_avail": 0,
      "fast_percent": 0.0,
      "latest_update": "20260713215631"
    },
    {
      "station_id": "PL002690",
      "name": "마곡한숲대림아파트",
      "address": "서울 강서구 방화대로50길 7",
      "lat": "37.5768121",
      "lng": "126.8174741",
      "total_count": 6,
      "available_count": 4,
      "total_percent": 66.7,
      "slow_total": 6,
      "slow_avail": 4,
      "slow_percent": 66.7,
      "fast_total": 0,
      "fast_avail": 0,
      "fast_percent": 0.0,
      "latest_update": "20260714022601"
    },
    {
      "station_id": "PL030812",
      "name": "태진한솔아파트",
      "address": "서울 강서구 공항대로71길 54",
      "lat": "37.5490450",
      "lng": "126.8745210",
      "total_count": 6,
      "available_count": 2,
      "total_percent": 33.3,
      "slow_total": 6,
      "slow_avail": 2,
      "slow_percent": 33.3,
      "fast_total": 0,
      "fast_avail": 0,
      "fast_percent": 0.0,
      "latest_update": "20260714020011"
    },
    {
      "station_id": "PWE05948",
      "name": "등촌동효성인텔리안오피스텔",
      "address": "서울특별시 강서구 강서로 426",
      "lat": "37.5633505",
      "lng": "126.84038318",
      "total_count": 6,
      "available_count": 6,
      "total_percent": 100.0,
      "slow_total": 6,
      "slow_avail": 6,
      "slow_percent": 100.0,
      "fast_total": 0,
      "fast_avail": 0,
      "fast_percent": 0.0,
      "latest_update": "20260519112711"
    },
    {
      "station_id": "PWE06339",
      "name": "가양강변3단지아파트",
      "address": "서울특별시 강서구 허준로 139",
      "lat": "37.5646121",
      "lng": "126.8562786",
      "total_count": 6,
      "available_count": 6,
      "total_percent": 100.0,
      "slow_total": 6,
      "slow_avail": 6,
      "slow_percent": 100.0,
      "fast_total": 0,
      "fast_avail": 0,
      "fast_percent": 0.0,
      "latest_update": "20260714013318"
    },
    {
      "station_id": "SF003035",
      "name": "가양 데시앙플렉스 (완속충전기)",
      "address": "서울특별시 강서구 양천로 424",
      "lat": "37.564227714",
      "lng": "126.84797103",
      "total_count": 6,
      "available_count": 6,
      "total_percent": 100.0,
      "slow_total": 6,
      "slow_avail": 6,
      "slow_percent": 100.0,
      "fast_total": 0,
      "fast_avail": 0,
      "fast_percent": 0.0,
      "latest_update": "20260713190440"
    },
    {
      "station_id": "SF003049",
      "name": "발산W타워 (완속충전기)",
      "address": "서울특별시 강서구 공항대로 222",
      "lat": "37.558668705",
      "lng": "126.83217338",
      "total_count": 6,
      "available_count": 6,
      "total_percent": 100.0,
      "slow_total": 6,
      "slow_avail": 6,
      "slow_percent": 100.0,
      "fast_total": 0,
      "fast_avail": 0,
      "fast_percent": 0.0,
      "latest_update": "20260713182150"
    },
    {
      "station_id": "ST115020",
      "name": "개화산역환승공영주차장",
      "address": "서울특별시 강서구 방화동 516-2",
      "lat": "37.5724",
      "lng": "126.8045",
      "total_count": 6,
      "available_count": 0,
      "total_percent": 0.0,
      "slow_total": 0,
      "slow_avail": 0,
      "slow_percent": 0.0,
      "fast_total": 6,
      "fast_avail": 0,
      "fast_percent": 0.0,
      "latest_update": "20260714033310"
    },
    {
      "station_id": "AH000021",
      "name": "(주)아하 마곡 RD센터",
      "address": "서울특별시 강서구 마곡중앙2로 30",
      "lat": "37.55738068",
      "lng": "126.8300020",
      "total_count": 5,
      "available_count": 5,
      "total_percent": 100.0,
      "slow_total": 1,
      "slow_avail": 1,
      "slow_percent": 100.0,
      "fast_total": 4,
      "fast_avail": 4,
      "fast_percent": 100.0,
      "latest_update": "20260713200857"
    },
    {
      "station_id": "CGA00045",
      "name": "강서 미즈메디병원(3F/4F)",
      "address": "서울특별시 강서구 내발산동 699-25",
      "lat": "37.5519863",
      "lng": "126.8348263",
      "total_count": 5,
      "available_count": 4,
      "total_percent": 80.0,
      "slow_total": 5,
      "slow_avail": 4,
      "slow_percent": 80.0,
      "fast_total": 0,
      "fast_avail": 0,
      "fast_percent": 0.0,
      "latest_update": "20260714034514"
    },