{
  "district": "양천구",
  "zscode": "11470",
  "summary": {
    "total_count": 2256,
    "available_count": 1793,
    "total_percent": 79.5,
    "slow_total": 2005,
    "slow_avail": 1589,
    "slow_percent": 79.3,
    "fast_total": 251,
    "fast_avail": 204,
    "fast_percent": 81.3,
    "station_count": 452
  },
  "stations": [
    {
      "station_id": "SF001414",
      "name": "부영그린타운3차",
      "address": "서울특별시 양천구 목동동로 411",
      "lat": "37.536726220",
      "lng": "126.88221363",
      "total_count": 50,
      "available_count": 49,
      "total_percent": 98.0,
      "slow_total": 50,
      "slow_avail": 49,
      "slow_percent": 98.0,
      "fast_total": 0,
      "fast_avail": 0,
      "fast_percent": 0.0,
      "latest_update": "20260714131927"
    },
    {
      "station_id": "NT100489",
      "name": "목동 래미안목동아델리체",
      "address": "서울특별시 양천구 중앙로43길 14",
      "lat": "37.519388",
      "lng": "126.8523361",
      "total_count": 41,
      "available_count": 37,
      "total_percent": 90.2,
      "slow_total": 41,
      "slow_avail": 37,
      "slow_percent": 90.2,
      "fast_total": 0,
      "fast_avail": 0,
      "fast_percent": 0.0,
      "latest_update": "20260714125550"
    },
    {
      "station_id": "CU201005",
      "name": "양천파리공원",
      "address": "서울특별시 양천구 목동동로 363",
      "lat": "37.5338904",
      "lng": "126.8761365",
      "total_count": 40,
      "available_count": 0,
      "total_percent": 0.0,
      "slow_total": 40,
      "slow_avail": 0,
      "slow_percent": 0.0,
      "fast_total": 0,
      "fast_avail": 0,
      "fast_percent": 0.0,
      "latest_update": "20260324151401"
    },
    {
      "station_id": "SF001230",
      "name": "양천아파트",
      "address": "서울특별시 양천구 목동로3길 57",
      "lat": "37.509454258",
      "lng": "126.86216417",
      "total_count": 40,
      "available_count": 40,
      "total_percent": 100.0,
      "slow_total": 40,
      "slow_avail": 40,
      "slow_percent": 100.0,
      "fast_total": 0,
      "fast_avail": 0,
      "fast_percent": 0.0,
      "latest_update": "20260710023754"
    },
    {
      "station_id": "LU101578",
      "name": "목동현대하이페리온",
      "address": "서울특별시 양천구 목동동로 257",
      "lat": "37.5273218",
      "lng": "126.8746191",
      "total_count": 33,
      "available_count": 28,
      "total_percent": 84.8,
      "slow_total": 33,
      "slow_avail": 28,
      "slow_percent": 84.8,
      "fast_total": 0,
      "fast_avail": 0,
      "fast_percent": 0.0,
      "latest_update": "20260714140538"
    },
    {
      "station_id": "SF001344",
      "name": "삼성쉐르빌1",
      "address": "서울특별시 양천구 목동동로 189",
      "lat": "37.5229413",
      "lng": "126.8701237",
      "total_count": 30,
      "available_count": 30,
      "total_percent": 100.0,
      "slow_total": 30,
      "slow_avail": 30,
      "slow_percent": 100.0,
      "fast_total": 0,
      "fast_avail": 0,
      "fast_percent": 0.0,
      "latest_update": "20260713155445"
    },
    {
      "station_id": "PI708252",
      "name": "목동롯데캐슬위너아파트",
      "address": "서울특별시 양천구 목동중앙북로 38",
      "lat": "37.546794421",
      "lng": "126.86725171",
      "total_count": 29,
      "available_count": 27,
      "total_percent": 93.1,
      "slow_total": 29,
      "slow_avail": 27,
      "slow_percent": 93.1,
      "fast_total": 0,
      "fast_avail": 0,
      "fast_percent": 0.0,
      "latest_update": "20260714131515"
    },
    {
      "station_id": "CU201003",
      "name": "목운중학교",
      "address": "서울특별시 양천구 목동동로 235",
      "lat": "37.5272338",
      "lng": "126.8724588",
      "total_count": 28,
      "available_count": 0,
      "total_percent": 0.0,
      "slow_total": 28,
      "slow_avail": 0,
      "slow_percent": 0.0,
      "fast_total": 0,
      "fast_avail": 0,
      "fast_percent": 0.0,
      "latest_update": "20260324151401"
    },
    {
      "station_id": "PW800658",
      "name": "목동2차우성아파트 입주자대표회의24",
      "address": "서울특별시 양천구 목동남로4길 6-23",
      "lat": "37.507600508",
      "lng": "126.86510911",
      "total_count": 28,
      "available_count": 26,
      "total_percent": 92.9,
      "slow_total": 28,
      "slow_avail": 26,
      "slow_percent": 92.9,
      "fast_total": 0,
      "fast_avail": 0,
      "fast_percent": 0.0,
      "latest_update": "20260714125809"
    },
    {
      "station_id": "LU004070",
      "name": "목동한신청구아파트",
      "address": "서울특별시 양천구 목동서로2길 22",
      "lat": "37.541628",
      "lng": "126.882643",
      "total_count": 25,
      "available_count": 21,
      "total_percent": 84.0,
      "slow_total": 25,
      "slow_avail": 21,
      "slow_percent": 84.0,
      "fast_total": 0,
      "fast_avail": 0,
      "fast_percent": 0.0,
      "latest_update": "20260714140429"
    },
    {
      "station_id": "LU000798",
      "name": "목동힐스테이트",
      "address": "서울특별시 양천구 중앙로36길 15",
      "lat": "37.520775",
      "lng": "126.855945",
      "total_count": 23,
      "available_count": 19,
      "total_percent": 82.6,
      "slow_total": 23,
      "slow_avail": 19,
      "slow_percent": 82.6,
      "fast_total": 0,
      "fast_avail": 0,
      "fast_percent": 0.0,
      "latest_update": "20260714133003"
    },
    {
      "station_id": "LU000997",
      "name": "현대41타워",
      "address": "서울특별시 양천구 목동동로 293",
      "lat": "37.528178",
      "lng": "126.875772",
      "total_count": 23,
      "available_count": 16,
      "total_percent": 69.6,
      "slow_total": 23,
      "slow_avail": 16,
      "slow_percent": 69.6,
      "fast_total": 0,
      "fast_avail": 0,
      "fast_percent": 0.0,
      "latest_update": "20260714140734"
    },
    {
      "station_id": "PL031938",
      "name": "서울 양천호반써밋목동아파트",
      "address": "서울 양천구 중앙로29길 11",
      "lat": "37.5169724",
      "lng": "126.8531558",
      "total_count": 23,
      "available_count": 22,
      "total_percent": 95.7,
      "slow_total": 23,
      "slow_avail": 22,
      "slow_percent": 95.7,
      "fast_total": 0,
      "fast_avail": 0,
      "fast_percent": 0.0,
      "latest_update": "20260714090936"
    },
    {
      "station_id": "PI204337",
      "name": "서울시 양천구 하이페리온2차",
      "address": "서울특별시 양천구 오목로 300",
      "lat": "37.524830401",
      "lng": "126.87002254",
      "total_count": 22,
      "available_count": 21,
      "total_percent": 95.5,
      "slow_total": 20,
      "slow_avail": 19,
      "slow_percent": 95.0,
      "fast_total": 2,
      "fast_avail": 2,
      "fast_percent": 100.0,
      "latest_update": "20260714132654"
    },
    {
      "station_id": "HY000818",
      "name": "현대백화점 목동점",
      "address": "서울특별시 양천구 목동동로 257",
      "lat": "37.5273218",
      "lng": "126.8746191",
      "total_count": 21,
      "available_count": 16,
      "total_percent": 76.2,
      "slow_total": 15,
      "slow_avail": 11,
      "slow_percent": 73.3,
      "fast_total": 6,
      "fast_avail": 5,
      "fast_percent": 83.3,
      "latest_update": "20260714135504"
    },
    {
      "station_id": "CU201001",
      "name": "양천문화회관",
      "address": "서울특별시 양천구 목동서로 367",
      "lat": "37.5166513",
      "lng": "126.8633139",
      "total_count": 20,
      "available_count": 0,
      "total_percent": 0.0,
      "slow_total": 20,
      "slow_avail": 0,
      "slow_percent": 0.0,
      "fast_total": 0,
      "fast_avail": 0,
      "fast_percent": 0.0,
      "latest_update": "20260324151401"
    },
    {
      "station_id": "CU201002",
      "name": "양천공원",
      "address": "서울특별시 양천구 목동서로 301-21",
      "lat": "37.5190054",
      "lng": "126.8685376",
      "total_count": 20,
      "available_count": 0,
      "total_percent": 0.0,
      "slow_total": 20,
      "slow_avail": 0,
      "slow_percent": 0.0,
      "fast_total": 0,
      "fast_avail": 0,
      "fast_percent": 0.0,
      "latest_update": "20260324151401"
    },
    {
      "station_id": "SF001437",
      "name": "목동 삼성 쉐르빌 2",
      "address": "서울특별시 양천구 목동동로 177",
      "lat": "37.521624559",
      "lng": "126.87044416",
      "total_count": 20,
      "available_count": 20,
      "total_percent": 100.0,
      "slow_total": 20,
      "slow_avail": 20,
      "slow_percent": 100.0,
      "fast_total": 0,
      "fast_avail": 0,
      "fast_percent": 0.0,
      "latest_update": "20260627122236"
    },
    {
      "station_id": "PC001356",
      "name": "서울남부지방법원(양천)",
      "address": "서울특별시 양천구 신월로 386",
      "lat": "37.5215983",
      "lng": "126.8636199",
      "total_count": 18,
      "available_count": 18,
      "total_percent": 100.0,
      "slow_total": 16,
      "slow_avail": 16,
      "slow_percent": 100.0,
      "fast_total": 2,
      "fast_avail": 2,
      "fast_percent": 100.0,
      "latest_update": "20260714124943"
    },
    {
      "station_id": "PL002162",
      "name": "목동현대아파트",
      "address": "서울특별시 양천구 목동동로12길 60",
      "lat": "37.5221333",
      "lng": "126.8777896",
      "total_count": 18,
      "available_count": 18,
      "total_percent": 100.0,
      "slow_total": 18,
      "slow_avail": 18,
      "slow_percent": 100.0,
      "fast_total": 0,
      "fast_avail": 0,
      "fast_percent": 0.0,
      "latest_update": "20260714133308"
    },
    {
      "station_id": "NT102874",
      "name": "양천 목동파라곤",
      "address": "서울특별시 양천구 목동서로 155",
      "lat": "37.52999",
      "lng": "126.87507",
      "total_count": 17,
      "available_count": 13,
      "total_percent": 76.5,
      "slow_total": 17,
      "slow_avail": 13,
      "slow_percent": 76.5,
      "fast_total": 0,
      "fast_avail": 0,
      "fast_percent": 0.0,
      "latest_update": "20260714140850"
    },
    {
      "station_id": "PI001334",
      "name": "목동 센트럴 푸르지오아파트",
      "address": "서울특별시 양천구 오목로 354",
      "lat": "37.5236946",
      "lng": "126.876697",
      "total_count": 17,
      "available_count": 15,
      "total_percent": 88.2,
      "slow_total": 17,
      "slow_avail": 15,
      "slow_percent": 88.2,
      "fast_total": 0,
      "fast_avail": 0,
      "fast_percent": 0.0,
      "latest_update": "20260714140659"
    },
    {
      "station_id": "PL033409",
      "name": "신정동 아이파크",
      "address": "서울특별시 양천구 목동동로 180",
      "lat": "37.5213688",
      "lng": "126.8728544",
      "total_count": 17,
      "available_count": 15,
      "total_percent": 88.2,
      "slow_total": 17,
      "slow_avail": 15,
      "slow_percent": 88.2,
      "fast_total": 0,
      "fast_avail": 0,
      "fast_percent": 0.0,
      "latest_update": "20260714135751"
    },
    {
      "station_id": "CU201006",
      "name": "샤르망오피스텔",
      "address": "서울특별시 양천구 월정로 101",
      "lat": "37.5284637",
      "lng": "126.8390009",
      "total_count": 16,
      "available_count": 0,
      "total_percent": 0.0,
      "slow_total": 16,
      "slow_avail": 0,
      "slow_percent": 0.0,
      "fast_total": 0,
      "fast_avail": 0,
      "fast_percent": 0.0,
      "latest_update": "20260324151401"
    },
    {
      "station_id": "EZ210039",
      "name": "하이페리온2관리단",
      "address": "서울특별시 양천구 오목로 300",
      "lat": "37.52410482",
      "lng": "126.8703368",
      "total_count": 16,
      "available_count": 0,
      "total_percent": 0.0,
      "slow_total": 16,
      "slow_avail": 0,
      "slow_percent": 0.0,
      "fast_total": 0,
      "fast_avail": 0,
      "fast_percent": 0.0,
      "latest_update": "20260601113310"
    },
    {
      "station_id": "NT102621",
      "name": "양천 신정현대6차아파트",
      "address": "서울특별시 양천구 신정로 170",
      "lat": "37.50864",
      "lng": "126.84237",
      "total_count": 16,
      "available_count": 13,
      "total_percent": 81.2,
      "slow_total": 16,
      "slow_avail": 13,
      "slow_percent": 81.2,
      "fast_total": 0,
      "fast_avail": 0,
      "fast_percent": 0.0,
      "latest_update": "20260714131650"
    },
    {
      "station_id": "PC000489",
      "name": "신정동 롯데캐슬아파트(양천)",
      "address": "서울특별시 양천구 신목로12길 22",
      "lat": "37.51998571",
      "lng": "126.8746894",
      "total_count": 16,
      "available_count": 16,
      "total_percent": 100.0,
      "slow_total": 14,
      "slow_avail": 14,
      "slow_percent": 100.0,
      "fast_total": 2,
      "fast_avail": 2,
      "fast_percent": 100.0,
      "latest_update": "20260714001942"
    },
    {
      "station_id": "PI001414",
      "name": "부영그린타운3차",
      "address": "서울특별시 양천구 목동동로 411",
      "lat": "37.5367107",
      "lng": "126.882196",
      "total_count": 16,
      "available_count": 16,
      "total_percent": 100.0,
      "slow_total": 16,
      "slow_avail": 16,
      "slow_percent": 100.0,
      "fast_total": 0,
      "fast_avail": 0,
      "fast_percent": 0.0,
      "latest_update": "20260714040659"
    },
    {
      "station_id": "PK000182",
      "name": "관악교통",
      "address": "서울특별시 양천구 신정로7길 17",
      "lat": "37.507068427",
      "lng": "126.83628083",
      "total_count": 16,
      "available_count": 12,
      "total_percent": 75.0,
      "slow_total": 0,
      "slow_avail": 0,
      "slow_percent": 0.0,
      "fast_total": 16,
      "fast_avail": 12,
      "fast_percent": 75.0,
      "latest_update": "20260714141054"
    },
    {
      "station_id": "PMP00502",
      "name": "한남여객(버스충전)",
      "address": "서울특별시 양천구 신정로 232",
      "lat": "37.3038",
      "lng": "126.5051",
      "total_count": 16,
      "available_count": 13,
      "total_percent": 81.2,
      "slow_total": 0,
      "slow_avail": 0,
      "slow_percent": 0.0,
      "fast_total": 16,
      "fast_avail": 13,
      "fast_percent": 81.2,
      "latest_update": "20260714141005"
    },
    {
      "station_id": "HY000552",
      "name": "양천 신정이펜하우스 4단지",
      "address": "서울특별시 양천구 신정이펜1로 51",
      "lat": "37.510851",
      "lng": "126.8311041",
      "total_count": 15,
      "available_count": 15,
      "total_percent": 100.0,
      "slow_total": 14,
      "slow_avail": 14,
      "slow_percent": 100.0,
      "fast_total": 1,
      "fast_avail": 1,
      "fast_percent": 100.0,
      "latest_update": "20260714051605"
    },
    {
      "station_id": "LU004193",
      "name": "목동금호베스트빌",
      "address": "서울특별시 양천구 목동중앙북로8길 111",
      "lat": "37.546226",
      "lng": "126.868339",
      "total_count": 15,
      "available_count": 14,
      "total_percent": 93.3,
      "slow_total": 15,
      "slow_avail": 14,
      "slow_percent": 93.3,
      "fast_total": 0,
      "fast_avail": 0,
      "fast_percent": 0.0,
      "latest_update": "20260714103352"
    },
    {
      "station_id": "DYME2066",
      "name": "서울 신정이펜하우스3단지",
      "address": "서울특별시 양천구 신정이펜1로 50",
      "lat": "37.5128155",
      "lng": "126.8303334",
      "total_count": 14,
      "available_count": 13,
      "total_percent": 92.9,
      "slow_total": 14,
      "slow_avail": 13,
      "slow_percent": 92.9,
      "fast_total": 0,
      "fast_avail": 0,
      "fast_percent": 0.0,
      "latest_update": "20260714123502"
    },
    {
      "station_id": "LU002670",
      "name": "목동현대파리지앙빌딩",
      "address": "서울특별시 양천구 목동서로 57",
      "lat": "37.536632",
      "lng": "126.879863",
      "total_count": 14,
      "available_count": 11,
      "total_percent": 78.6,
      "slow_total": 14,
      "slow_avail": 11,
      "slow_percent": 78.6,
      "fast_total": 0,
      "fast_avail": 0,
      "fast_percent": 0.0,
      "latest_update": "20260714134947"
    },
    {
      "station_id": "LU003897",
      "name": "목동7단지",
      "address": "서울특별시 양천구 목동로 212",
      "lat": "37.529250",
      "lng": "126.867093",
      "total_count": 14,
      "available_count": 12,
      "total_percent": 85.7,
      "slow_total": 14,
      "slow_avail": 12,
      "slow_percent": 85.7,
      "fast_total": 0,
      "fast_avail": 0,
      "fast_percent": 0.0,
      "latest_update": "20260714134405"
    },
    {
      "station_id": "PK000004",
      "name": "펌프킨 이밥 선일관광콜택시",
      "address": "서울특별시 양천구 오목로1길 9",
      "lat": "37.52196",
      "lng": "126.8377",
      "total_count": 14,
      "available_count": 13,
      "total_percent": 92.9,
      "slow_total": 0,
      "slow_avail": 0,
      "slow_percent": 0.0,
      "fast_total": 14,
      "fast_avail": 13,
      "fast_percent": 92.9,
      "latest_update": "20260714133626"
    },
    {
      "station_id": "SE000147",
      "name": "목동공영주차장",
      "address": "서울특별시 양천구 목동동로 298",
      "lat": "37.527094900",
      "lng": "126.87632574",
      "total_count": 13,
      "available_count": 13,
      "total_percent": 100.0,
      "slow_total": 0,
      "slow_avail": 0,
      "slow_percent": 0.0,
      "fast_total": 13,
      "fast_avail": 13,
      "fast_percent": 100.0,
      "latest_update": "20260714140721"
    },
    {
      "station_id": "CU201007",
      "name": "신월 스위트드림",
      "address": "서울특별시 양천구 곰달래로11길 56",
      "lat": "37.5346227",
      "lng": "126.8344875",
      "total_count": 12,
      "available_count": 0,
      "total_percent": 0.0,
      "slow_total": 12,
      "slow_avail": 0,
      "slow_percent": 0.0,
      "fast_total": 0,
      "fast_avail": 0,
      "fast_percent": 0.0,
      "latest_update": "20260324151401"
    },
    {
      "station_id": "PI795339",
      "name": "서울 양천구 신정5차현대아파트",
      "address": "서울특별시 양천구 신정로 300",
      "lat": "37.5130274",
      "lng": "126.8546564",
      "total_count": 12,
      "available_count": 12,
      "total_percent": 100.0,
      "slow_total": 12,
      "slow_avail": 12,
      "slow_percent": 100.0,
      "fast_total": 0,
      "fast_avail": 0,
      "fast_percent": 0.0,
      "latest_update": "20260714134252"
    },
    {
      "station_id": "SF003707",
      "name": "목동신시가지아파트8단지",
      "address": "서울특별시 양천구 목동서로 280",
      "lat": "37.522340273",
      "lng": "126.86756326",
      "total_count": 12,
      "available_count": 12,
      "total_percent": 100.0,
      "slow_total": 12,
      "slow_avail": 12,
      "slow_percent": 100.0,
      "fast_total": 0,
      "fast_avail": 0,
      "fast_percent": 0.0,
      "latest_update": "20260714122521"
    },
    {
      "station_id": "NT102855",
      "name": "양천 목동이편한세상",
      "address": "서울특별시 양천구 목동중앙로7길 32",
      "lat": "37.53935",
      "lng": "126.87126",
      "total_count": 11,
      "available_count": 10,
      "total_percent": 90.9,
      "slow_total": 11,
      "slow_avail": 10,
      "slow_percent": 90.9,
      "fast_total": 0,
      "fast_avail": 0,
      "fast_percent": 0.0,
      "latest_update": "20260714135250"
    },
    {
      "station_id": "PIA00165",
      "name": "서울 양천구 신트리1단지아파트",
      "address": "서울특별시 양천구 신정로 293",
      "lat": "37.5143099",
      "lng": "126.8550432",
      "total_count": 11,
      "available_count": 11,
      "total_percent": 100.0,
      "slow_total": 11,
      "slow_avail": 11,
      "slow_percent": 100.0,
      "fast_total": 0,
      "fast_avail": 0,
      "fast_percent": 0.0,
      "latest_update": "20260714115316"
    },
    {
      "station_id": "PL033735",
      "name": "목동신시가지아파트12단지",
      "address": "서울 양천구 목동동로 50",
      "lat": "37.5120948",
      "lng": "126.8602911",
      "total_count": 11,
      "available_count": 10,
      "total_percent": 90.9,
      "slow_total": 11,
      "slow_avail": 10,
      "slow_percent": 90.9,
      "fast_total": 0,
      "fast_avail": 0,
      "fast_percent": 0.0,
      "latest_update": "20260714123100"
    },
    {
      "station_id": "SE000102",
      "name": "한마음공영주차장",
      "address": "서울특별시 양천구 목동동로 316-6",
      "lat": "37.531187051",
      "lng": "126.87786896",
      "total_count": 11,
      "available_count": 11,
      "total_percent": 100.0,
      "slow_total": 0,
      "slow_avail": 0,
      "slow_percent": 0.0,
      "fast_total": 11,
      "fast_avail": 11,
      "fast_percent": 100.0,
      "latest_update": "20260714085121"
    },
    {
      "station_id": "CV002165",
      "name": "양천구 목동종합운동장",
      "address": "서울특별시 양천구 안양천로 939",
      "lat": "37.5292903",
      "lng": "126.8800785",
      "total_count": 10,
      "available_count": 6,
      "total_percent": 60.0,
      "slow_total": 4,
      "slow_avail": 1,
      "slow_percent": 25.0,
      "fast_total": 6,
      "fast_avail": 5,
      "fast_percent": 83.3,
      "latest_update": "20260714140035"
    },
    {
      "station_id": "CV003473",
      "name": "목동SBS",
      "address": "서울특별시 양천구 목동서로 161",
      "lat": "37.52916",
      "lng": "126.873548",
      "total_count": 10,
      "available_count": 7,
      "total_percent": 70.0,
      "slow_total": 6,
      "slow_avail": 3,
      "slow_percent": 50.0,
      "fast_total": 4,
      "fast_avail": 4,
      "fast_percent": 100.0,
      "latest_update": "20260714140544"
    },
    {
      "station_id": "EC000361",
      "name": "신정이펜하우스2단지 203동 B1 24기둥",
      "address": "서울특별시 양천구 신정이펜2로 55",
      "lat": "37.5154811",
      "lng": "126.831233",
      "total_count": 10,
      "available_count": 7,
      "total_percent": 70.0,
      "slow_total": 10,
      "slow_avail": 7,
      "slow_percent": 70.0,
      "fast_total": 0,
      "fast_avail": 0,
      "fast_percent": 0.0,
      "latest_update": "20260714140801"
    },
    {
      "station_id": "NT102435",
      "name": "목동 삼성아파트",
      "address": "서울특별시 양천구 신목로 7",
      "lat": "37.51507",
      "lng": "126.87641",
      "total_count": 10,
      "available_count": 10,
      "total_percent": 100.0,
      "slow_total": 10,
      "slow_avail": 10,
      "slow_percent": 100.0,
      "fast_total": 0,
      "fast_avail": 0,
      "fast_percent": 0.0,
      "latest_update": "20260714123750"
    },
    {
      "station_id": "PI709940",
      "name": "부영그린타운3차",
      "address": "서울특별시 양천구 목동동로 411",
      "lat": "37.5367262",
      "lng": "126.8822136",
      "total_count": 10,
      "available_count": 9,
      "total_percent": 90.0,
      "slow_total": 10,
      "slow_avail": 9,
      "slow_percent": 90.0,
      "fast_total": 0,
      "fast_avail": 0,
      "fast_percent": 0.0,
      "latest_update": "20260714122025"
    },
    {
      "station_id": "PI710168",
      "name": "목동금호베스트빌",
      "address": "서울특별시 양천구 목동중앙북로8길 111",
      "lat": "37.5462258",
      "lng": "126.8683386",
      "total_count": 10,
      "available_count": 7,
      "total_percent": 70.0,
      "slow_total": 10,
      "slow_avail": 7,
      "slow_percent": 70.0,
      "fast_total": 0,
      "fast_avail": 0,
      "fast_percent": 0.0,
      "latest_update": "20260714112028"
    },
    {
      "station_id": "PIH00084",
      "name": "푸른마을2단지아파트",
      "address": "서울특별시 양천구 신정로7길 76",
      "lat": "37.513496500",
      "lng": "126.83524650",
      "total_count": 10,
      "available_count": 8,
      "total_percent": 80.0,
      "slow_total": 10,
      "slow_avail": 8,
      "slow_percent": 80.0,
      "fast_total": 0,
      "fast_avail": 0,
      "fast_percent": 0.0,
      "latest_update": "20260714025719"
    },
    {
      "station_id": "PL002227",
      "name": "목동트윈빌",
      "address": "서울특별시 양천구 목동동로 339",
      "lat": "37.5321753",
      "lng": "126.8767430",
      "total_count": 10,
      "available_count": 9,
      "total_percent": 90.0,
      "slow_total": 10,
      "slow_avail": 9,
      "slow_percent": 90.0,
      "fast_total": 0,
      "fast_avail": 0,
      "fast_percent": 0.0,
      "latest_update": "20260714123131"
    },
    {
      "station_id": "PL032836",
      "name": "신트리4단지아파트",
      "address": "서울 양천구 신정로 260",
      "lat": "37.5111930",
      "lng": "126.8519831",
      "total_count": 10,
      "available_count": 10,
      "total_percent": 100.0,
      "slow_total": 10,
      "slow_avail": 10,
      "slow_percent": 100.0,
      "fast_total": 0,
      "fast_avail": 0,
      "fast_percent": 0.0,
      "latest_update": "20260714085614"
    },
    {
      "station_id": "PW013101",
      "name": "서울시 목동트라팰리스 입주자대표회의",
      "address": "서울특별시 양천구 오목로 299",
      "lat": "37.526083700",
      "lng": "126.87035534",
      "total_count": 10,
      "available_count": 8,
      "total_percent": 80.0,
      "slow_total": 10,
      "slow_avail": 8,
      "slow_percent": 80.0,
      "fast_total": 0,
      "fast_avail": 0,
      "fast_percent": 0.0,
      "latest_update": "20260714140424"
    },
    {
      "station_id": "PW800117",
      "name": "목동파크자이 입주자대표회의(SP)",
      "address": "서울특별시 양천구 목동남로4길 80",
      "lat": "37.508531",
      "lng": "126.8684693",
      "total_count": 10,
      "available_count": 10,
      "total_percent": 100.0,
      "slow_total": 10,
      "slow_avail": 10,
      "slow_percent": 100.0,
      "fast_total": 0,
      "fast_avail": 0,
      "fast_percent": 0.0,
      "latest_update": "20260714130116"
    },
    {
      "station_id": "SF000768",
      "name": "신트리3단지",
      "address": "서울특별시 양천구 신정로 290",
      "lat": "37.5123243",
      "lng": "126.8534546",
      "total_count": 10,
      "available_count": 10,
      "total_percent": 100.0,
      "slow_total": 10,
      "slow_avail": 10,
      "slow_percent": 100.0,
      "fast_total": 0,
      "fast_avail": 0,
      "fast_percent": 0.0,
      "latest_update": "20260714104947"
    },
    {
      "station_id": "SF001207",
      "name": "목동 진도2차",
      "address": "서울특별시 양천구 목동동로 250",
      "lat": "37.525708849",
      "lng": "126.87381760",
      "total_count": 10,
      "available_count": 10,
      "total_percent": 100.0,
      "slow_total": 10,
      "slow_avail": 10,
      "slow_percent": 100.0,
      "fast_total": 0,
      "fast_avail": 0,
      "fast_percent": 0.0,
      "latest_update": "20260713215136"
    },
    {
      "station_id": "SF001229",
      "name": "신월동 금용아파트",
      "address": "서울특별시 양천구 신월로17길 22",
      "lat": "37.520568124",
      "lng": "126.84241754",
      "total_count": 10,
      "available_count": 10,
      "total_percent": 100.0,
      "slow_total": 10,
      "slow_avail": 10,
      "slow_percent": 100.0,
      "fast_total": 0,
      "fast_avail": 0,
      "fast_percent": 0.0,
      "latest_update": "20260714122522"
    },
    {
      "station_id": "CV001834",
      "name": "양천구 목동종합운동장 다목적경기장",
      "address": "서울특별시 양천구 안양천로 939",
      "lat": "37.529438",
      "lng": "126.882193",
      "total_count": 9,
      "available_count": 8,
      "total_percent": 88.9,
      "slow_total": 9,
      "slow_avail": 8,
      "slow_percent": 88.9,
      "fast_total": 0,
      "fast_avail": 0,
      "fast_percent": 0.0,
      "latest_update": "20260714132525"
    },
    {
      "station_id": "EV006148",
      "name": "서울양천 현대하이페리온2",
      "address": "서울특별시 양천구 오목로 300",
      "lat": "37.5248304",
      "lng": "126.8700225",
      "total_count": 9,
      "available_count": 8,
      "total_percent": 88.9,
      "slow_total": 9,
      "slow_avail": 8,
      "slow_percent": 88.9,
      "fast_total": 0,
      "fast_avail": 0,
      "fast_percent": 0.0,
      "latest_update": "20260714125540"
    },
    {
      "station_id": "NT100334",
      "name": "신정 푸른마을4단지아파트",
      "address": "서울특별시 양천구 신정로7길 60-7",
      "lat": "37.5126638",
      "lng": "126.8384872",
      "total_count": 9,
      "available_count": 7,
      "total_percent": 77.8,
      "slow_total": 9,
      "slow_avail": 7,
      "slow_percent": 77.8,
      "fast_total": 0,
      "fast_avail": 0,
      "fast_percent": 0.0,
      "latest_update": "20260714140150"
    },
    {
      "station_id": "PL032868",
      "name": "학마을1단지아파트",
      "address": "서울 양천구 신정로14길 6",
      "lat": "37.5085359",
      "lng": "126.8444116",
      "total_count": 9,
      "available_count": 9,
      "total_percent": 100.0,
      "slow_total": 9,
      "slow_avail": 9,
      "slow_percent": 100.0,
      "fast_total": 0,
      "fast_avail": 0,
      "fast_percent": 0.0,
      "latest_update": "20260714084758"
    },
    {
      "station_id": "CGA00233",
      "name": "양천 목동아파트11단지_B지구",
      "address": "서울특별시 양천구 목동동로 10",
      "lat": "37.5084767",
      "lng": "126.8610084",
      "total_count": 8,
      "available_count": 7,
      "total_percent": 87.5,
      "slow_total": 8,
      "slow_avail": 7,
      "slow_percent": 87.5,
      "fast_total": 0,
      "fast_avail": 0,
      "fast_percent": 0.0,
      "latest_update": "20260714124512"
    },
    {
      "station_id": "CU201004",
      "name": "목동로데오",
      "address": "서울특별시 양천구 목동로25길 26",
      "lat": "37.5283292",
      "lng": "126.8612423",
      "total_count": 8,
      "available_count": 0,
      "total_percent": 0.0,
      "slow_total": 8,
      "slow_avail": 0,
      "slow_percent": 0.0,
      "fast_total": 0,
      "fast_avail": 0,
      "fast_percent": 0.0,
      "latest_update": "20260324151401"
    },
    {
      "station_id": "CV001286",
      "name": "서남병원",
      "address": "서울특별시 양천구 신정이펜1로 20",
      "lat": "37.512187",
      "lng": "126.833078",
      "total_count": 8,
      "available_count": 6,
      "total_percent": 75.0,
      "slow_total": 6,
      "slow_avail": 4,
      "slow_percent": 66.7,
      "fast_total": 2,
      "fast_avail": 2,
      "fast_percent": 100.0,
      "latest_update": "20260714140523"
    },
    {
      "station_id": "EC001045",
      "name": "한국방송회관",
      "address": "서울특별시 양천구 목동동로 233",
      "lat": "37.5269343",
      "lng": "126.8714529",
      "total_count": 8,
      "available_count": 7,
      "total_percent": 87.5,
      "slow_total": 8,
      "slow_avail": 7,
      "slow_percent": 87.5,
      "fast_total": 0,
      "fast_avail": 0,
      "fast_percent": 0.0,
      "latest_update": "20260714085001"
    },
    {
      "station_id": "EO000121",
      "name": "E1 복지신정 전기차 충전소",
      "address": "서울특별시 양천구 안양천로 669",
      "lat": "37.508120",
      "lng": "126.871297",
      "total_count": 8,
      "available_count": 4,
      "total_percent": 50.0,
      "slow_total": 0,
      "slow_avail": 0,
      "slow_percent": 0.0,
      "fast_total": 8,
      "fast_avail": 4,
      "fast_percent": 50.0,
      "latest_update": "20260714140406"
    },
    {
      "station_id": "EV003473",
      "name": "서울양천_삼성쉐르빌",
      "address": "서울특별시 양천구 목동동로 189",
      "lat": "37.5229413",
      "lng": "126.8701236",
      "total_count": 8,
      "available_count": 7,
      "total_percent": 87.5,
      "slow_total": 8,
      "slow_avail": 7,
      "slow_percent": 87.5,
      "fast_total": 0,
      "fast_avail": 0,
      "fast_percent": 0.0,
      "latest_update": "20260714125741"
    },
    {
      "station_id": "HM110135",
      "name": "센트럴프라자",
      "address": "서울특별시 양천구 목동서로 349",
      "lat": "37.517406535",
      "lng": "126.86530684",
      "total_count": 8,
      "available_count": 7,
      "total_percent": 87.5,
      "slow_total": 8,
      "slow_avail": 7,
      "slow_percent": 87.5,
      "fast_total": 0,
      "fast_avail": 0,
      "fast_percent": 0.0,
      "latest_update": "20260714134820"
    },
    {
      "station_id": "HY001714",
      "name": "목동 금호어울림",
      "address": "서울특별시 양천구 목동중앙서로 37",
      "lat": "37.53357925",
      "lng": "126.8690813",
      "total_count": 8,
      "available_count": 8,
      "total_percent": 100.0,
      "slow_total": 8,
      "slow_avail": 8,
      "slow_percent": 100.0,
      "fast_total": 0,
      "fast_avail": 0,
      "fast_percent": 0.0,
      "latest_update": "20260714085705"
    },
    {
      "station_id": "NT100066",
      "name": "목동 현대드림타워",
      "address": "서울특별시 양천구 목동동로 233-1",
      "lat": "37.52746499",
      "lng": "126.871642",
      "total_count": 8,
      "available_count": 7,
      "total_percent": 87.5,
      "slow_total": 8,
      "slow_avail": 7,
      "slow_percent": 87.5,
      "fast_total": 0,
      "fast_avail": 0,
      "fast_percent": 0.0,
      "latest_update": "20260714103350"
    },
    {
      "station_id": "PI204174",
      "name": "서울시 양천구 신안파크아파트",
      "address": "서울특별시 양천구 지양로15길 20",
      "lat": "37.5239737",
      "lng": "126.82925",
      "total_count": 8,
      "available_count": 8,
      "total_percent": 100.0,
      "slow_total": 8,
      "slow_avail": 8,
      "slow_percent": 100.0,
      "fast_total": 0,
      "fast_avail": 0,
      "fast_percent": 0.0,
      "latest_update": "20260714093143"
    },
    {
      "station_id": "PIH01737",
      "name": "신월대성유니드아파트",
      "address": "서울특별시 양천구 신월로15길 21",
      "lat": "37.520169056",
      "lng": "126.84112893",
      "total_count": 8,
      "available_count": 8,
      "total_percent": 100.0,
      "slow_total": 8,
      "slow_avail": 8,
      "slow_percent": 100.0,
      "fast_total": 0,
      "fast_avail": 0,
      "fast_percent": 0.0,
      "latest_update": "20260714080705"
    },
    {
      "station_id": "PK000295",
      "name": "양천본사차고지",
      "address": "서울특별시 양천구 신정로7길 17(신정동)",
      "lat": "37.5085600",
      "lng": "126.8374100",
      "total_count": 8,
      "available_count": 6,
      "total_percent": 75.0,
      "slow_total": 0,
      "slow_avail": 0,
      "slow_percent": 0.0,
      "fast_total": 8,
      "fast_avail": 6,
      "fast_percent": 75.0,
      "latest_update": "20260714140700"
    },
    {
      "station_id": "PWE06335",
      "name": "신정동세양청마루아파트",
      "address": "서울특별시 양천구 목동남로2길 60-30",
      "lat": "37.507842",
      "lng": "126.8637674",
      "total_count": 8,
      "available_count": 7,
      "total_percent": 87.5,
      "slow_total": 8,
      "slow_avail": 7,
      "slow_percent": 87.5,
      "fast_total": 0,
      "fast_avail": 0,
      "fast_percent": 0.0,
      "latest_update": "20260714140011"
    },
    {
      "station_id": "UN000019",
      "name": "신월동 레미앙아파트",
      "address": "서울특별시 양천구 신월로 120",
      "lat": "37.5161335",
      "lng": "126.8372729",
      "total_count": 8,
      "available_count": 7,
      "total_percent": 87.5,
      "slow_total": 8,
      "slow_avail": 7,
      "slow_percent": 87.5,
      "fast_total": 0,
      "fast_avail": 0,
      "fast_percent": 0.0,
      "latest_update": "20260714122008"
    },
    {
      "station_id": "CGA00232",
      "name": "양천 목동아파트11단지_A지구",
      "address": "서울특별시 양천구 목동동로 10",
      "lat": "37.5119334",
      "lng": "126.8584119",
      "total_count": 7,
      "available_count": 3,
      "total_percent": 42.9,
      "slow_total": 7,
      "slow_avail": 3,
      "slow_percent": 42.9,
      "fast_total": 0,
      "fast_avail": 0,
      "fast_percent": 0.0,
      "latest_update": "20260714140012"
    },
    {
      "station_id": "EV011639",
      "name": "서울양천 신트리2단지아파트",
      "address": "서울특별시 양천구 신정로 275 (신정동, 신트리2단지아파트)",
      "lat": "37.5130276",
      "lng": "126.8531262",
      "total_count": 7,
      "available_count": 6,
      "total_percent": 85.7,
      "slow_total": 7,
      "slow_avail": 6,
      "slow_percent": 85.7,
      "fast_total": 0,
      "fast_avail": 0,
      "fast_percent": 0.0,
      "latest_update": "20260714140020"
    },
    {
      "station_id": "HM110226",
      "name": "이대목동병원",
      "address": "서울특별시 양천구 안양천로 1071",
      "lat": "37.5361666",
      "lng": "126.8866472",
      "total_count": 7,
      "available_count": 5,
      "total_percent": 71.4,
      "slow_total": 7,
      "slow_avail": 5,
      "slow_percent": 71.4,
      "fast_total": 0,
      "fast_avail": 0,
      "fast_percent": 0.0,
      "latest_update": "20260714140022"
    },
    {
      "station_id": "KP000017",
      "name": "강서양천지사",
      "address": "서울특별시 양천구 목동서로 313",
      "lat": "37.52007602",
      "lng": "126.8687447",
      "total_count": 7,
      "available_count": 5,
      "total_percent": 71.4,
      "slow_total": 7,
      "slow_avail": 5,
      "slow_percent": 71.4,
      "fast_total": 0,
      "fast_avail": 0,
      "fast_percent": 0.0,
      "latest_update": "20260714141016"
    },
    {
      "station_id": "LU000230",
      "name": "신동아파밀리에1단지",
      "address": "서울특별시 양천구 화곡로 25",
      "lat": "37.540228",
      "lng": "126.824679",
      "total_count": 7,
      "available_count": 7,
      "total_percent": 100.0,
      "slow_total": 7,
      "slow_avail": 7,
      "slow_percent": 100.0,
      "fast_total": 0,
      "fast_avail": 0,
      "fast_percent": 0.0,
      "latest_update": "20260713090810"
    },
    {
      "station_id": "LU100480",
      "name": "목동센트럴푸르지오",
      "address": "서울특별시 양천구 오목로 354",
      "lat": "37.52398126",
      "lng": "126.8767960",
      "total_count": 7,
      "available_count": 6,
      "total_percent": 85.7,
      "slow_total": 7,
      "slow_avail": 6,
      "slow_percent": 85.7,
      "fast_total": 0,
      "fast_avail": 0,
      "fast_percent": 0.0,
      "latest_update": "20260714123032"
    },
    {
      "station_id": "NT101212",
      "name": "신정 대우미래사랑5차아파트",
      "address": "서울특별시 양천구 신정로13길 3",
      "lat": "37.5098133",
      "lng": "126.8432514",
      "total_count": 7,
      "available_count": 6,
      "total_percent": 85.7,
      "slow_total": 7,
      "slow_avail": 6,
      "slow_percent": 85.7,
      "fast_total": 0,
      "fast_avail": 0,
      "fast_percent": 0.0,
      "latest_update": "20260714115750"
    },
    {
      "station_id": "NT102190",
      "name": "신월 신정뉴타운두산위브아파트",
      "address": "서울특별시 양천구 신월로20길 7",
      "lat": "37.51928",
      "lng": "126.84607",
      "total_count": 7,
      "available_count": 7,
      "total_percent": 100.0,
      "slow_total": 7,
      "slow_avail": 7,
      "slow_percent": 100.0,
      "fast_total": 0,
      "fast_avail": 0,
      "fast_percent": 0.0,
      "latest_update": "20260714065150"
    },
    {
      "station_id": "NT102210",
      "name": "목동 성원2차아파트",
      "address": "서울특별시 양천구 목동중앙남로 100",
      "lat": "37.54278",
      "lng": "126.86374",
      "total_count": 7,
      "available_count": 6,
      "total_percent": 85.7,
      "slow_total": 7,
      "slow_avail": 6,
      "slow_percent": 85.7,
      "fast_total": 0,
      "fast_avail": 0,
      "fast_percent": 0.0,
      "latest_update": "20260714121650"
    },
    {
      "station_id": "PI795441",
      "name": "서울 양천구 명지해드는터아파트",
      "address": "서울특별시 양천구 신목로 43",
      "lat": "37.5191666",
      "lng": "126.8726634",
      "total_count": 7,
      "available_count": 6,
      "total_percent": 85.7,
      "slow_total": 7,
      "slow_avail": 6,
      "slow_percent": 85.7,
      "fast_total": 0,
      "fast_avail": 0,
      "fast_percent": 0.0,
      "latest_update": "20260713213911"
    },
    {
      "station_id": "PI805094",
      "name": "서울 양천구 신정이펜하우스1단지아파트",
      "address": "서울특별시 양천구 신정이펜1로 99",
      "lat": "37.5146600",
      "lng": "126.8258500",
      "total_count": 7,
      "available_count": 5,
      "total_percent": 71.4,
      "slow_total": 7,
      "slow_avail": 5,
      "slow_percent": 71.4,
      "fast_total": 0,
      "fast_avail": 0,
      "fast_percent": 0.0,
      "latest_update": "20260714085302"
    },
    {
      "station_id": "PL032506",
      "name": "목동삼익아파트",
      "address": "서울 양천구 목동동로12길 45",
      "lat": "37.5225865",
      "lng": "126.8763661",
      "total_count": 7,
      "available_count": 7,
      "total_percent": 100.0,
      "slow_total": 7,
      "slow_avail": 7,
      "slow_percent": 100.0,
      "fast_total": 0,
      "fast_avail": 0,
      "fast_percent": 0.0,
      "latest_update": "20260714130601"
    },
    {
      "station_id": "TDA00001",
      "name": "대원칸타빌2차3차아파트",
      "address": "서울특별시 양천구 목동중앙로 11",
      "lat": "37.531845",
      "lng": "126.8676091",
      "total_count": 7,
      "available_count": 6,
      "total_percent": 85.7,
      "slow_total": 7,
      "slow_avail": 6,
      "slow_percent": 85.7,
      "fast_total": 0,
      "fast_avail": 0,
      "fast_percent": 0.0,
      "latest_update": "20260714084500"
    },
    {
      "station_id": "IN120023",
      "name": "이마트목동점",
      "address": "서울특별시 양천구 오목로 299",
      "lat": "37.526",
      "lng": "126.8704",
      "total_count": 6,
      "available_count": 1,
      "total_percent": 16.7,
      "slow_total": 6,
      "slow_avail": 1,
      "slow_percent": 16.7,
      "fast_total": 0,
      "fast_avail": 0,
      "fast_percent": 0.0,
      "latest_update": "20260615122836"
    },
    {
      "station_id": "IN120095",
      "name": "이마트목동점E",
      "address": "서울특별시 양천구 오목로 299",
      "lat": "37.5258",
      "lng": "126.8702",
      "total_count": 6,
      "available_count": 6,
      "total_percent": 100.0,
      "slow_total": 6,
      "slow_avail": 6,
      "slow_percent": 100.0,
      "fast_total": 0,
      "fast_avail": 0,
      "fast_percent": 0.0,
      "latest_update": "20260714130145"
    },
    {
      "station_id": "NT100154",
      "name": "목동 7단지아파트",
      "address": "서울특별시 양천구 목동로 212",
      "lat": "37.52924",
      "lng": "126.86709",
      "total_count": 6,
      "available_count": 4,
      "total_percent": 66.7,
      "slow_total": 6,
      "slow_avail": 4,
      "slow_percent": 66.7,
      "fast_total": 0,
      "fast_avail": 0,
      "fast_percent": 0.0,
      "latest_update": "20260714131650"
    },
    {
      "station_id": "NT100523",
      "name": "신정 이편한세상",
      "address": "서울특별시 양천구 신정로13길 38",
      "lat": "37.512714663",
      "lng": "126.84234454",
      "total_count": 6,
      "available_count": 5,
      "total_percent": 83.3,
      "slow_total": 6,
      "slow_avail": 5,
      "slow_percent": 83.3,
      "fast_total": 0,
      "fast_avail": 0,
      "fast_percent": 0.0,
      "latest_update": "20260714120850"
    },
    {
      "station_id": "NT100546",
      "name": "목동 굿모닝탑오피스텔",
      "address": "서울특별시 양천구 목동서로 221",
      "lat": "37.527591018",
      "lng": "126.87076350",
      "total_count": 6,
      "available_count": 3,
      "total_percent": 50.0,
      "slow_total": 6,
      "slow_avail": 3,
      "slow_percent": 50.0,
      "fast_total": 0,
      "fast_avail": 0,
      "fast_percent": 0.0,
      "latest_update": "20260714133550"
    },
    {
      "station_id": "NT102052",
      "name": "신월 수명산에스케이뷰아파트",
      "address": "서울특별시 양천구 월정로 306",
      "lat": "37.54406",
      "lng": "126.82934",
      "total_count": 6,
      "available_count": 6,
      "total_percent": 100.0,
      "slow_total": 6,
      "slow_avail": 6,
      "slow_percent": 100.0,
      "fast_total": 0,
      "fast_avail": 0,
      "fast_percent": 0.0,
      "latest_update": "20260713074850"
    },
    {
      "station_id": "PI001333",
      "name": "목동2차아크로텔",
      "address": "서울특별시 양천구 목동서로 411",
      "lat": "37.5152054",
      "lng": "126.859099",
      "total_count": 6,
      "available_count": 6,
      "total_percent": 100.0,
      "slow_total": 6,
      "slow_avail": 6,
      "slow_percent": 100.0,
      "fast_total": 0,
      "fast_avail": 0,
      "fast_percent": 0.0,
      "latest_update": "20260714140648"
    },
    {
      "station_id": "PI710744",
      "name": "목동이편한세상아파트",
      "address": "서울특별시 양천구 목동중앙로7길 32",
      "lat": "37.53935",
      "lng": "126.871262",
      "total_count": 6,
      "available_count": 5,
      "total_percent": 83.3,
      "slow_total": 6,
      "slow_avail": 5,
      "slow_percent": 83.3,
      "fast_total": 0,
      "fast_avail": 0,
      "fast_percent": 0.0,
      "latest_update": "20260714135023"
    },
    {
      "station_id": "PI767542",
      "name": "대원칸타빌1차아파트",
      "address": "서울특별시 양천구 목동로 224",
      "lat": "37.5283968",
      "lng": "126.864612",
      "total_count": 6,
      "available_count": 6,
      "total_percent": 100.0,
      "slow_total": 6,
      "slow_avail": 6,
      "slow_percent": 100.0,
      "fast_total": 0,
      "fast_avail": 0,
      "fast_percent": 0.0,
      "latest_update": "20260714075549"
    },
    {
      "station_id": "PI772327",
      "name": "신정숲속마을아파트",
      "address": "서울특별시 양천구 신정로 110",
      "lat": "37.5061238",
      "lng": "126.8339307",
      "total_count": 6,
      "available_count": 5,
      "total_percent": 83.3,
      "slow_total": 6,
      "slow_avail": 5,
      "slow_percent": 83.3,
      "fast_total": 0,
      "fast_avail": 0,
      "fast_percent": 0.0,
      "latest_update": "20260714125234"
    },
    {
      "station_id": "PIH00085",
      "name": "해태아파트",
      "address": "서울특별시 양천구 월정로 21",
      "lat": "37.5214824",
      "lng": "126.8432062",
      "total_count": 6,
      "available_count": 6,
      "total_percent": 100.0,
      "slow_total": 6,
      "slow_avail": 6,
      "slow_percent": 100.0,
      "fast_total": 0,
      "fast_avail": 0,
      "fast_percent": 0.0,
      "latest_update": "20260714061723"
    },
    {
      "station_id": "PIS00022",
      "name": "서울 양천구 이마트목동점",
      "address": "서울특별시 양천구 오목로 299",
      "lat": "37.5260000",
      "lng": "126.8704000",
      "total_count": 6,
      "available_count": 6,
      "total_percent": 100.0,
      "slow_total": 6,
      "slow_avail": 6,
      "slow_percent": 100.0,
      "fast_total": 0,
      "fast_avail": 0,
      "fast_percent": 0.0,
      "latest_update": "20260713180822"
    },
    {
      "station_id": "PK000019",
      "name": "양천운수",
      "address": "서울특별시 양천구 신정로7길 17",
      "lat": "37.508559",
      "lng": "126.8374098",
      "total_count": 6,
      "available_count": 2,
      "total_percent": 33.3,
      "slow_total": 0,
      "slow_avail": 0,
      "slow_percent": 0.0,
      "fast_total": 6,
      "fast_avail": 2,
      "fast_percent": 33.3,
      "latest_update": "20260714141040"
    },
    {
      "station_id": "PL031737",
      "name": "서울 신정동명지해드는터아파트",
      "address": "서울 양천구 신목로 43",
      "lat": "37.5191666",
      "lng": "126.8726634",
      "total_count": 6,
      "available_count": 6,
      "total_percent": 100.0,
      "slow_total": 6,
      "slow_avail": 6,
      "slow_percent": 100.0,
      "fast_total": 0,
      "fast_avail": 0,
      "fast_percent": 0.0,
      "latest_update": "20260713215836"
    },
    {
      "station_id": "PMP00516",
      "name": "관악교통",
      "address": "서울특별시 양천구 신정로7길 17",
      "lat": "37.5070595",
      "lng": "126.8362769",
      "total_count": 6,
      "available_count": 2,
      "total_percent": 33.3,
      "slow_total": 0,
      "slow_avail": 0,
      "slow_percent": 0.0,
      "fast_total": 6,
      "fast_avail": 2,
      "fast_percent": 33.3,
      "latest_update": "20260714141004"
    },
    {
      "station_id": "SN000029",
      "name": "양천 솔라스테이션",
      "address": "서울특별시 양천구 목동서로 20",
      "lat": "37.5394957",
      "lng": "126.8846959",
      "total_count": 6,
      "available_count": 2,
      "total_percent": 33.3,
      "slow_total": 6,
      "slow_avail": 2,
      "slow_percent": 33.3,
      "fast_total": 0,
      "fast_avail": 0,
      "fast_percent": 0.0,
      "latest_update": "20260714140921"
    },
    {
      "station_id": "ST114705",
      "name": "중소기업유통센터(행복한백화점)",
      "address": "서울특별시 양천구 목동동로 309",
      "lat": "37.5291435",
      "lng": "126.8760086",
      "total_count": 6,
      "available_count": 4,
      "total_percent": 66.7,
      "slow_total": 6,
      "slow_avail": 4,
      "slow_percent": 66.7,
      "fast_total": 0,
      "fast_avail": 0,
      "fast_percent": 0.0,
      "latest_update": "20260714130355"
    },
    {
      "station_id": "ST600071",
      "name": "가로공원 공영주차장",
      "address": "서울특별시 양천구 가로공원로 116-1",
      "lat": "37.536213",
      "lng": "126.8305956",
      "total_count": 6,
      "available_count": 6,
      "total_percent": 100.0,
      "slow_total": 4,
      "slow_avail": 4,
      "slow_percent": 100.0,
      "fast_total": 2,
      "fast_avail": 2,
      "fast_percent": 100.0,
      "latest_update": "20260714121002"
    },
    {
      "station_id": "CV004159",
      "name": "채비스테이 신월",
      "address": "서울특별시 양천구 국회대로 36",
      "lat": "37.525799",
      "lng": "126.838912",
      "total_count": 5,
      "available_count": 5,
      "total_percent": 100.0,
      "slow_total": 0,
      "slow_avail": 0,
      "slow_percent": 0.0,
      "fast_total": 5,
      "fast_avail": 5,
      "fast_percent": 100.0,
      "latest_update": "20260714130046"
    },
    {
      "station_id": "EV003856",
      "name": "서울양천 신정뉴타운롯데캐슬",
      "address": "서울특별시 양천구 중앙로29길 61",
      "lat": "37.519542",
      "lng": "126.848125",
      "total_count": 5,
      "available_count": 2,
      "total_percent": 40.0,
      "slow_total": 5,
      "slow_avail": 2,
      "slow_percent": 40.0,
      "fast_total": 0,
      "fast_avail": 0,
      "fast_percent": 0.0,
      "latest_update": "20260713032035"
    },
    {
      "station_id": "EV004518",
      "name": "서울양천 신정경남아너스빌 1501동",
      "address": "서울특별시 양천구 목동동로10길 16-6",
      "lat": "37.5175708",
      "lng": "126.8712779",
      "total_count": 5,
      "available_count": 5,
      "total_percent": 100.0,
      "slow_total": 5,
      "slow_avail": 5,
      "slow_percent": 100.0,
      "fast_total": 0,
      "fast_avail": 0,
      "fast_percent": 0.0,
      "latest_update": "20260713195051"
    },
    {
      "station_id": "EV008906",
      "name": "서울양천 목동트라팰리스1",
      "address": "서울특별시 양천구 오목로 299",
      "lat": "37.526040889",
      "lng": "126.87017893",
      "total_count": 5,
      "available_count": 3,
      "total_percent": 60.0,
      "slow_total": 5,
      "slow_avail": 3,
      "slow_percent": 60.0,
      "fast_total": 0,
      "fast_avail": 0,
      "fast_percent": 0.0,
      "latest_update": "20260714101326"
    },
    {
      "station_id": "EV008907",
      "name": "서울양천 목동트라팰리스2",
      "address": "서울특별시 양천구 오목로 299",
      "lat": "37.5260837",
      "lng": "126.8703553",
      "total_count": 5,
      "available_count": 4,
      "total_percent": 80.0,
      "slow_total": 5,
      "slow_avail": 4,
      "slow_percent": 80.0,
      "fast_total": 0,
      "fast_avail": 0,
      "fast_percent": 0.0,
      "latest_update": "20260714085036"
    },
    {
      "station_id": "EV013873",
      "name": "서울양천 목동현대하이페리온2차아파트",
      "address": "서울특별시 양천구 오목로 300",
      "lat": "37.5248304",
      "lng": "126.8700225",
      "total_count": 5,
      "available_count": 4,
      "total_percent": 80.0,
      "slow_total": 5,
      "slow_avail": 4,
      "slow_percent": 80.0,
      "fast_total": 0,
      "fast_avail": 0,
      "fast_percent": 0.0,
      "latest_update": "20260714112243"
    },
    {
      "station_id": "EV020118",
      "name": "서울양천 목동현대하이페리온2 1",
      "address": "서울특별시 양천구 오목로 300",
      "lat": "37.5238943",
      "lng": "126.8702449",
      "total_count": 5,
      "available_count": 5,
      "total_percent": 100.0,
      "slow_total": 5,
      "slow_avail": 5,
      "slow_percent": 100.0,
      "fast_total": 0,
      "fast_avail": 0,
      "fast_percent": 0.0,
      "latest_update": "20260714055050"
    },
    {
      "station_id": "EV020266",
      "name": "서울양천 신정동일하이빌1단지 1",
      "address": "서울 양천구 신정로11길 20",
      "lat": "37.5118702",
      "lng": "126.8391186",
      "total_count": 5,
      "available_count": 4,
      "total_percent": 80.0,
      "slow_total": 5,
      "slow_avail": 4,
      "slow_percent": 80.0,
      "fast_total": 0,
      "fast_avail": 0,
      "fast_percent": 0.0,
      "latest_update": "20260714110432"
    },
    {
      "station_id": "EZ100043",
      "name": "학마을3단지",
      "address": "서울특별시 양천구 신정로 225-12",
      "lat": "37.511668",
      "lng": "126.8467632",
      "total_count": 5,
      "available_count": 0,
      "total_percent": 0.0,
      "slow_total": 5,
      "slow_avail": 0,
      "slow_percent": 0.0,
      "fast_total": 0,
      "fast_avail": 0,
      "fast_percent": 0.0,
      "latest_update": "20260601113310"
    },
    {
      "station_id": "HE001015",
      "name": "가로공원로 지상주차장",
      "address": "서울특별시 양천구 가로공원로 116-1",
      "lat": "37.536438",
      "lng": "126.831858",
      "total_count": 5,
      "available_count": 5,
      "total_percent": 100.0,
      "slow_total": 0,
      "slow_avail": 0,
      "slow_percent": 0.0,
      "fast_total": 5,
      "fast_avail": 5,
      "fast_percent": 100.0,
      "latest_update": "20260714122720"
    },
    {
      "station_id": "HE240434",
      "name": "경남아너스빌",
      "address": "서울특별시 양천구 목동동로10길 16-6",
      "lat": "37.5177376",
      "lng": "126.8716949",
      "total_count": 5,
      "available_count": 5,
      "total_percent": 100.0,
      "slow_total": 5,
      "slow_avail": 5,
      "slow_percent": 100.0,
      "fast_total": 0,
      "fast_avail": 0,
      "fast_percent": 0.0,
      "latest_update": "20260714125000"
    },
    {
      "station_id": "HY001054",
      "name": "양천아파트",
      "address": "서울특별시 양천구 목동로3길 57",
      "lat": "37.5094543",
      "lng": "126.8621623",
      "total_count": 5,
      "available_count": 4,
      "total_percent": 80.0,
      "slow_total": 5,
      "slow_avail": 4,
      "slow_percent": 80.0,
      "fast_total": 0,
      "fast_avail": 0,
      "fast_percent": 0.0,
      "latest_update": "20260714105004"
    },
    {
      "station_id": "JA110103",
      "name": "서울시 목동 CBS기독교방송국",
      "address": "서울특별시 양천구 목동서로 159-1",
      "lat": "37.5284784",
      "lng": "126.874618",
      "total_count": 5,
      "available_count": 1,
      "total_percent": 20.0,
      "slow_total": 5,
      "slow_avail": 1,
      "slow_percent": 20.0,
      "fast_total": 0,
      "fast_avail": 0,
      "fast_percent": 0.0,
      "latest_update": "20260714104009"
    },
    {
      "station_id": "JA110138",
      "name": "서울시 양천구 벽산블루밍아파트2단지",
      "address": "서울특별시 양천구 신정로13길 51",
      "lat": "37.5138221",
      "lng": "126.841487",
      "total_count": 5,
      "available_count": 4,
      "total_percent": 80.0,
      "slow_total": 5,
      "slow_avail": 4,
      "slow_percent": 80.0,
      "fast_total": 0,
      "fast_avail": 0,
      "fast_percent": 0.0,
      "latest_update": "20260714120010"
    },
    {
      "station_id": "KE001199",
      "name": "서울양천목동금호1차(지상)",
      "address": "서울특별시 양천구 목동동로 258",
      "lat": "37.5251639",
      "lng": "126.8748542",
      "total_count": 5,
      "available_count": 4,
      "total_percent": 80.0,
      "slow_total": 5,
      "slow_avail": 4,
      "slow_percent": 80.0,
      "fast_total": 0,
      "fast_avail": 0,
      "fast_percent": 0.0,
      "latest_update": "20260714140110"
    },
    {
      "station_id": "KL001980",
      "name": "목동e-편한세상아파트",
      "address": "서울특별시 양천구 목동중앙로7길 32",
      "lat": "37.5392754",
      "lng": "126.8715345",
      "total_count": 5,
      "available_count": 4,
      "total_percent": 80.0,
      "slow_total": 5,
      "slow_avail": 4,
      "slow_percent": 80.0,
      "fast_total": 0,
      "fast_avail": 0,
      "fast_percent": 0.0,
      "latest_update": "20260714122601"
    },
    {
      "station_id": "KL002172",
      "name": "동문굿모닝탑관리단",
      "address": "서울특별시 양천구 목동동로 53",
      "lat": "37.5150233",
      "lng": "126.8608635",
      "total_count": 5,
      "available_count": 5,
      "total_percent": 100.0,
      "slow_total": 5,
      "slow_avail": 5,
      "slow_percent": 100.0,
      "fast_total": 0,
      "fast_avail": 0,
      "fast_percent": 0.0,
      "latest_update": "20260713041101"
    },
    {
      "station_id": "NT101177",
      "name": "목동 삼성화재서비스빌딩",
      "address": "서울특별시 양천구 목동동로 233-3",
      "lat": "37.5278465",
      "lng": "126.8716543",
      "total_count": 5,
      "available_count": 3,
      "total_percent": 60.0,
      "slow_total": 5,
      "slow_avail": 3,
      "slow_percent": 60.0,
      "fast_total": 0,
      "fast_avail": 0,
      "fast_percent": 0.0,
      "latest_update": "20260714115250"
    },
    {
      "station_id": "PC001169",
      "name": "신월주차장(양천)",
      "address": "서울특별시 양천구 월정로 257",
      "lat": "37.540549586",
      "lng": "126.83124690",
      "total_count": 5,
      "available_count": 5,
      "total_percent": 100.0,
      "slow_total": 5,
      "slow_avail": 5,
      "slow_percent": 100.0,
      "fast_total": 0,
      "fast_avail": 0,
      "fast_percent": 0.0,
      "latest_update": "20260713205657"
    },
    {
      "station_id": "PI200856",
      "name": "서울시 양천구 삼성쉐르빌2",
      "address": "서울특별시 양천구 목동동로 177",
      "lat": "37.521624559",
      "lng": "126.87044416",
      "total_count": 5,
      "available_count": 4,
      "total_percent": 80.0,
      "slow_total": 5,
      "slow_avail": 4,
      "slow_percent": 80.0,
      "fast_total": 0,
      "fast_avail": 0,
      "fast_percent": 0.0,
      "latest_update": "20260714101130"
    },
    {
      "station_id": "PI202433",
      "name": "수명산롯데캐슬아파트",
      "address": "서울특별시 양천구 월정로 303",
      "lat": "37.544",
      "lng": "126.828",
      "total_count": 5,
      "available_count": 5,
      "total_percent": 100.0,
      "slow_total": 5,
      "slow_avail": 5,
      "slow_percent": 100.0,
      "fast_total": 0,
      "fast_avail": 0,
      "fast_percent": 0.0,
      "latest_update": "20260714071606"
    },
    {
      "station_id": "PI750011",
      "name": "목동현대하이페리온",
      "address": "서울특별시 양천구 목동동로 257",
      "lat": "37.5268253",
      "lng": "126.8749782",
      "total_count": 5,
      "available_count": 5,
      "total_percent": 100.0,
      "slow_total": 5,
      "slow_avail": 5,
      "slow_percent": 100.0,
      "fast_total": 0,
      "fast_avail": 0,
      "fast_percent": 0.0,
      "latest_update": "20260714095028"
    },
    {
      "station_id": "PIH00481",
      "name": "삼정그린뷰아파트",
      "address": "서울특별시 양천구 오목로3길 17",
      "lat": "37.5228374",
      "lng": "126.8382871",
      "total_count": 5,
      "available_count": 5,
      "total_percent": 100.0,
      "slow_total": 5,
      "slow_avail": 5,
      "slow_percent": 100.0,
      "fast_total": 0,
      "fast_avail": 0,
      "fast_percent": 0.0,
      "latest_update": "20260714135713"
    },
    {
      "station_id": "PL031706",
      "name": "서울 신월대림아파트",
      "address": "서울 양천구 오목로13길 7",
      "lat": "37.5231888",
      "lng": "126.8451466",
      "total_count": 5,
      "available_count": 4,
      "total_percent": 80.0,
      "slow_total": 5,
      "slow_avail": 4,
      "slow_percent": 80.0,
      "fast_total": 0,
      "fast_avail": 0,
      "fast_percent": 0.0,
      "latest_update": "20260714122113"
    },
    {
      "station_id": "PW012050",
      "name": "목동현대아파트입주자대표회의-1(SP)",
      "address": "서울특별시 양천구 목동동로12길 60",
      "lat": "37.5221333",
      "lng": "126.8777896",
      "total_count": 5,
      "available_count": 3,
      "total_percent": 60.0,
      "slow_total": 5,
      "slow_avail": 3,
      "slow_percent": 60.0,
      "fast_total": 0,
      "fast_avail": 0,
      "fast_percent": 0.0,
      "latest_update": "20260714085709"
    },
    {
      "station_id": "PW012593",
      "name": "신정이펜하우스3단지입주자대표회의",
      "address": "서울특별시 양천구 신정이펜1로 50",
      "lat": "37.513351057",
      "lng": "126.82935747",
      "total_count": 5,
      "available_count": 5,
      "total_percent": 100.0,
      "slow_total": 5,
      "slow_avail": 5,
      "slow_percent": 100.0,
      "fast_total": 0,
      "fast_avail": 0,
      "fast_percent": 0.0,
      "latest_update": "20260714102912"
    },
    {
      "station_id": "PW012717",
      "name": "롯데캐슬아파트 입주자대표회의",
      "address": "서울특별시 양천구 신목로12길 22",
      "lat": "37.519972882",
      "lng": "126.87457148",
      "total_count": 5,
      "available_count": 4,
      "total_percent": 80.0,
      "slow_total": 5,
      "slow_avail": 4,
      "slow_percent": 80.0,
      "fast_total": 0,
      "fast_avail": 0,
      "fast_percent": 0.0,
      "latest_update": "20260714134814"
    },
    {
      "station_id": "PW012720",
      "name": "목동롯데캐슬 마에스트로",
      "address": "서울특별시 양천구 목동중앙북로8길 71",
      "lat": "37.545589166",
      "lng": "126.86558838",
      "total_count": 5,
      "available_count": 3,
      "total_percent": 60.0,
      "slow_total": 5,
      "slow_avail": 3,
      "slow_percent": 60.0,
      "fast_total": 0,
      "fast_avail": 0,
      "fast_percent": 0.0,
      "latest_update": "20260714134813"
    },
    {
      "station_id": "PW013727",
      "name": "목동롯데캐슬 마에스트로22",
      "address": "서울특별시 양천구 목동중앙북로8길 71",
      "lat": "37.5455892",
      "lng": "126.8655884",
      "total_count": 5,
      "available_count": 4,
      "total_percent": 80.0,
      "slow_total": 5,
      "slow_avail": 4,
      "slow_percent": 80.0,
      "fast_total": 0,
      "fast_avail": 0,
      "fast_percent": 0.0,
      "latest_update": "20260714122535"
    },
    {
      "station_id": "SF003521",
      "name": "학마을3단지아파트 (완속충전기)",
      "address": "서울특별시 양천구 신정로 225-12",
      "lat": "37.511485025",
      "lng": "126.84624642",
      "total_count": 5,
      "available_count": 5,
      "total_percent": 100.0,
      "slow_total": 5,
      "slow_avail": 5,
      "slow_percent": 100.0,
      "fast_total": 0,
      "fast_avail": 0,
      "fast_percent": 0.0,
      "latest_update": "20260712001231"
    },
    {
      "station_id": "BNBN0990",
      "name": "서울 양천구 보건소",
      "address": "서울특별시 양천구 중앙로29가길 12",
      "lat": "37.517997",
      "lng": "126.850500",
      "total_count": 4,
      "available_count": 4,
      "total_percent": 100.0,
      "slow_total": 0,
      "slow_avail": 0,
      "slow_percent": 0.0,
      "fast_total": 4,
      "fast_avail": 4,
      "fast_percent": 100.0,
      "latest_update": "20260714132129"
    },
    {
      "station_id": "BNBN1148",
      "name": "서울 양천구 양천보육타운",
      "address": "서울 양천구 신정동 330-13",
      "lat": "37.5109748",
      "lng": "126.8689609",
      "total_count": 4,
      "available_count": 4,
      "total_percent": 100.0,
      "slow_total": 0,
      "slow_avail": 0,
      "slow_percent": 0.0,
      "fast_total": 4,
      "fast_avail": 4,
      "fast_percent": 100.0,
      "latest_update": "20260714133620"
    },
    {
      "station_id": "CGA00085",
      "name": "서울교통공사 신정차량기지",
      "address": "서울특별시 양천구 목동로3길 41",
      "lat": "37.511973889",
      "lng": "126.86605791",
      "total_count": 4,
      "available_count": 3,
      "total_percent": 75.0,
      "slow_total": 4,
      "slow_avail": 3,
      "slow_percent": 75.0,
      "fast_total": 0,
      "fast_avail": 0,
      "fast_percent": 0.0,
      "latest_update": "20260714064514"
    },
    {
      "station_id": "CGA00215",
      "name": "양천 신정동청구아파트",
      "address": "서울특별시 양천구 신목로2길 11",
      "lat": "37.5192663",
      "lng": "126.8754758",
      "total_count": 4,
      "available_count": 4,
      "total_percent": 100.0,
      "slow_total": 4,
      "slow_avail": 4,
      "slow_percent": 100.0,
      "fast_total": 0,
      "fast_avail": 0,
      "fast_percent": 0.0,
      "latest_update": "20260713113016"
    },
    {
      "station_id": "ER000458",
      "name": "현대1차아파트",
      "address": "서울 양천구 목동동로 240",
      "lat": "37.5261442",
      "lng": "126.8727860",
      "total_count": 4,
      "available_count": 4,
      "total_percent": 100.0,
      "slow_total": 4,
      "slow_avail": 4,
      "slow_percent": 100.0,
      "fast_total": 0,
      "fast_avail": 0,
      "fast_percent": 0.0,
      "latest_update": "20260714075720"
    },
    {
      "station_id": "EV003123",
      "name": "서울양천 양천롯데캐슬아파트 1",
      "address": "서울특별시 양천구 오목로5길 19",
      "lat": "37.5230829",
      "lng": "126.8403927",
      "total_count": 4,
      "available_count": 3,
      "total_percent": 75.0,
      "slow_total": 4,
      "slow_avail": 3,
      "slow_percent": 75.0,
      "fast_total": 0,
      "fast_avail": 0,
      "fast_percent": 0.0,
      "latest_update": "20260714102130"
    },
    {
      "station_id": "EV003683",
      "name": "신정현대아파트",
      "address": "서울특별시 양천구 신목로 23",
      "lat": "37.5175575",
      "lng": "126.8743107",
      "total_count": 4,
      "available_count": 3,
      "total_percent": 75.0,
      "slow_total": 4,
      "slow_avail": 3,
      "slow_percent": 75.0,
      "fast_total": 0,
      "fast_avail": 0,
      "fast_percent": 0.0,
      "latest_update": "20260714083023"
    },
    {
      "station_id": "EV004024",
      "name": "서울양천 서울가든아파트",
      "address": "서울특별시 양천구 중앙로53길 5",
      "lat": "37.5258113",
      "lng": "126.8490877",
      "total_count": 4,
      "available_count": 3,
      "total_percent": 75.0,
      "slow_total": 4,
      "slow_avail": 3,
      "slow_percent": 75.0,
      "fast_total": 0,
      "fast_avail": 0,
      "fast_percent": 0.0,
      "latest_update": "20260714081816"
    },
    {
      "station_id": "EV011513",
      "name": "서울양천 신정삼성임대아파트",
      "address": "서울특별시 양천구 신목로 5",
      "lat": "37.517225560",
      "lng": "126.87646748",
      "total_count": 4,
      "available_count": 4,
      "total_percent": 100.0,
      "slow_total": 4,
      "slow_avail": 4,
      "slow_percent": 100.0,
      "fast_total": 0,
      "fast_avail": 0,
      "fast_percent": 0.0,
      "latest_update": "20260714050225"
    },
    {
      "station_id": "EV011514",
      "name": "서울양천 목동현대B임대아파트",
      "address": "서울특별시 양천구 신목로 10",
      "lat": "37.613304593",
      "lng": "127.01417597",
      "total_count": 4,
      "available_count": 4,
      "total_percent": 100.0,
      "slow_total": 4,
      "slow_avail": 4,
      "slow_percent": 100.0,
      "fast_total": 0,
      "fast_avail": 0,
      "fast_percent": 0.0,
      "latest_update": "20260713075113"
    },
    {
      "station_id": "EV011583",
      "name": "서울양천 학마을2단지아파트",
      "address": "서울특별시 양천구 신정로14길 1",
      "lat": "37.508990287",
      "lng": "126.84483854",
      "total_count": 4,
      "available_count": 3,
      "total_percent": 75.0,
      "slow_total": 4,
      "slow_avail": 3,
      "slow_percent": 75.0,
      "fast_total": 0,
      "fast_avail": 0,
      "fast_percent": 0.0,
      "latest_update": "20260714091451"
    },
    {
      "station_id": "EV011771",
      "name": "서울양천 신정푸른마을1단지",
      "address": "서울특별시 양천구 신정로7길 70 (신정동, 푸른마을 1단지아파트)",
      "lat": "37.5130261",
      "lng": "126.8365660",
      "total_count": 4,
      "available_count": 4,
      "total_percent": 100.0,
      "slow_total": 4,
      "slow_avail": 4,
      "slow_percent": 100.0,
      "fast_total": 0,
      "fast_avail": 0,
      "fast_percent": 0.0,
      "latest_update": "20260714044013"
    },
    {
      "station_id": "EV014671",
      "name": "서울양천 신정양천아파트 1",
      "address": "서울특별시 양천구 목동로3길 57 (신정동, 양천아파트)",
      "lat": "37.5094543",
      "lng": "126.8621623",
      "total_count": 4,
      "available_count": 2,
      "total_percent": 50.0,
      "slow_total": 4,
      "slow_avail": 2,
      "slow_percent": 50.0,
      "fast_total": 0,
      "fast_avail": 0,
      "fast_percent": 0.0,
      "latest_update": "20260714135818"
    },
    {
      "station_id": "EV014675",
      "name": "서울양천 신정양천아파트 5",
      "address": "서울특별시 양천구 목동로3길 57 (신정동, 양천아파트)",
      "lat": "37.5094543",
      "lng": "126.8621623",
      "total_count": 4,
      "available_count": 4,
      "total_percent": 100.0,
      "slow_total": 4,
      "slow_avail": 4,
      "slow_percent": 100.0,
      "fast_total": 0,
      "fast_avail": 0,
      "fast_percent": 0.0,
      "latest_update": "20260714133002"
    },
    {
      "station_id": "EV015467",
      "name": "서울양천 목동건영아파트 1",
      "address": "서울특별시 양천구 목동중앙본로22길 63 (목동, 건영아파트)",
      "lat": "37.5414898",
      "lng": "126.8729624",
      "total_count": 4,
      "available_count": 4,
      "total_percent": 100.0,
      "slow_total": 4,
      "slow_avail": 4,
      "slow_percent": 100.0,
      "fast_total": 0,
      "fast_avail": 0,
      "fast_percent": 0.0,
      "latest_update": "20260714062710"
    },
    {
      "station_id": "EV017638",
      "name": "서울양천 목동현대A 재개발임대주택 1",
      "address": "서울특별시 양천구 목동동로12길 59",
      "lat": "37.5234951",
      "lng": "126.8778179",
      "total_count": 4,
      "available_count": 3,
      "total_percent": 75.0,
      "slow_total": 4,
      "slow_avail": 3,
      "slow_percent": 75.0,
      "fast_total": 0,
      "fast_avail": 0,
      "fast_percent": 0.0,
      "latest_update": "20260714135006"
    },
    {
      "station_id": "EV020264",
      "name": "서울양천 신정동일하이빌1단지 1",
      "address": "서울 양천구 신정로11길 20",
      "lat": "37.5118702",
      "lng": "126.8391186",
      "total_count": 4,
      "available_count": 4,
      "total_percent": 100.0,
      "slow_total": 4,
      "slow_avail": 4,
      "slow_percent": 100.0,
      "fast_total": 0,
      "fast_avail": 0,
      "fast_percent": 0.0,
      "latest_update": "20260714105430"
    },
    {
      "station_id": "EV020265",
      "name": "서울양천 신정동일하이빌2단지 1",
      "address": "서울 양천구 신정로11길 20",
      "lat": "37.5118702",
      "lng": "126.8391186",
      "total_count": 4,
      "available_count": 4,
      "total_percent": 100.0,
      "slow_total": 4,
      "slow_avail": 4,
      "slow_percent": 100.0,
      "fast_total": 0,
      "fast_avail": 0,
      "fast_percent": 0.0,
      "latest_update": "20260714135416"
    },
    {
      "station_id": "HY001055",
      "name": "양천 목동부영그린타운2차",
      "address": "서울특별시 양천구 목동동로 401",
      "lat": "37.5362",
      "lng": "126.881",
      "total_count": 4,
      "available_count": 2,
      "total_percent": 50.0,
      "slow_total": 4,
      "slow_avail": 2,
      "slow_percent": 50.0,
      "fast_total": 0,
      "fast_avail": 0,
      "fast_percent": 0.0,
      "latest_update": "20260714135404"
    },
    {
      "station_id": "IN120061",
      "name": "목동트라팰리스웨스턴에비뉴",
      "address": "서울특별시 양천구 오목로 299",
      "lat": "37.526",
      "lng": "126.8702",
      "total_count": 4,
      "available_count": 0,
      "total_percent": 0.0,
      "slow_total": 4,
      "slow_avail": 0,
      "slow_percent": 0.0,
      "fast_total": 0,
      "fast_avail": 0,
      "fast_percent": 0.0,
      "latest_update": "20260615122839"
    },
    {
      "station_id": "JA110134",
      "name": "서울시 양천구 신월벽산블루밍아파트1단지",
      "address": "서울특별시 양천구 신정로13길 50",
      "lat": "37.5136808",
      "lng": "126.8419567",
      "total_count": 4,
      "available_count": 3,
      "total_percent": 75.0,
      "slow_total": 4,
      "slow_avail": 3,
      "slow_percent": 75.0,
      "fast_total": 0,
      "fast_avail": 0,
      "fast_percent": 0.0,
      "latest_update": "20260714091009"
    },
    {
      "station_id": "KE000123",
      "name": "서울양천목동금호1차(지하)",
      "address": "서울특별시 양천구 목동동로 258",
      "lat": "37.5251092",
      "lng": "126.8744362",
      "total_count": 4,
      "available_count": 4,
      "total_percent": 100.0,
      "slow_total": 4,
      "slow_avail": 4,
      "slow_percent": 100.0,
      "fast_total": 0,
      "fast_avail": 0,
      "fast_percent": 0.0,
      "latest_update": "20260714032510"
    },
    {
      "station_id": "KE000253",
      "name": "서울양천이든채",
      "address": "서울특별시 양천구 신정로7길 75",
      "lat": "37.5130488",
      "lng": "126.8340792",
      "total_count": 4,
      "available_count": 4,
      "total_percent": 100.0,
      "slow_total": 4,
      "slow_avail": 4,
      "slow_percent": 100.0,
      "fast_total": 0,
      "fast_avail": 0,
      "fast_percent": 0.0,
      "latest_update": "20260714020609"
    },
    {
      "station_id": "KP002883",
      "name": "목동 현대하이페리온2아파트",
      "address": "서울특별시 양천구 목동 961",
      "lat": "37.52438967643",
      "lng": "126.8700630152",
      "total_count": 4,
      "available_count": 4,
      "total_percent": 100.0,
      "slow_total": 4,
      "slow_avail": 4,
      "slow_percent": 100.0,
      "fast_total": 0,
      "fast_avail": 0,
      "fast_percent": 0.0,
      "latest_update": "20260714060014"
    },
    {
      "station_id": "LU001379",
      "name": "푸른마을3단지아파트",
      "address": "서울특별시 양천구 신정로11길 63",
      "lat": "37.510948",
      "lng": "126.836696",
      "total_count": 4,
      "available_count": 4,
      "total_percent": 100.0,
      "slow_total": 4,
      "slow_avail": 4,
      "slow_percent": 100.0,
      "fast_total": 0,
      "fast_avail": 0,
      "fast_percent": 0.0,
      "latest_update": "20260714082822"
    },
    {
      "station_id": "LU001448",
      "name": "신정대성유니드2차",
      "address": "서울특별시 양천구 중앙로29길 108",
      "lat": "37.521099",
      "lng": "126.848593",
      "total_count": 4,
      "available_count": 4,
      "total_percent": 100.0,
      "slow_total": 4,
      "slow_avail": 4,
      "slow_percent": 100.0,
      "fast_total": 0,
      "fast_avail": 0,
      "fast_percent": 0.0,
      "latest_update": "20260710071546"
    },
    {
      "station_id": "LU002091",
      "name": "목동이스타빌",
      "address": "서울특별시 양천구 목동서로 377",
      "lat": "37.516115",
      "lng": "126.862314",
      "total_count": 4,
      "available_count": 2,
      "total_percent": 50.0,
      "slow_total": 4,
      "slow_avail": 2,
      "slow_percent": 50.0,
      "fast_total": 0,
      "fast_avail": 0,
      "fast_percent": 0.0,
      "latest_update": "20260714132538"
    },
    {
      "station_id": "LU002462",
      "name": "신월1차보람쉬움아파트",
      "address": "서울특별시 양천구 남부순환로67길 15",
      "lat": "37.524799",
      "lng": "126.837655",
      "total_count": 4,
      "available_count": 3,
      "total_percent": 75.0,
      "slow_total": 4,
      "slow_avail": 3,
      "slow_percent": 75.0,
      "fast_total": 0,
      "fast_avail": 0,
      "fast_percent": 0.0,
      "latest_update": "20260714132040"
    },
    {
      "station_id": "LU002541",
      "name": "복합메디컬타운",
      "address": "서울특별시 양천구 중앙로 181",
      "lat": "37.512819",
      "lng": "126.855685",
      "total_count": 4,
      "available_count": 2,
      "total_percent": 50.0,
      "slow_total": 4,
      "slow_avail": 2,
      "slow_percent": 50.0,
      "fast_total": 0,
      "fast_avail": 0,
      "fast_percent": 0.0,
      "latest_update": "20260714133626"
    },
    {
      "station_id": "LU003053",
      "name": "목동트윈빌상가",
      "address": "서울특별시 양천구 목동동로 339",
      "lat": "37.532175",
      "lng": "126.876744",
      "total_count": 4,
      "available_count": 3,
      "total_percent": 75.0,
      "slow_total": 4,
      "slow_avail": 3,
      "slow_percent": 75.0,
      "fast_total": 0,
      "fast_avail": 0,
      "fast_percent": 0.0,
      "latest_update": "20260714133637"
    },
    {
      "station_id": "LU003677",
      "name": "목동현대아이파크",
      "address": "서울특별시 양천구 목동로 230",
      "lat": "37.528959",
      "lng": "126.864511",
      "total_count": 4,
      "available_count": 4,
      "total_percent": 100.0,
      "slow_total": 4,
      "slow_avail": 4,
      "slow_percent": 100.0,
      "fast_total": 0,
      "fast_avail": 0,
      "fast_percent": 0.0,
      "latest_update": "20260714081706"
    },
    {
      "station_id": "LU003760",
      "name": "신정대림아파트",
      "address": "서울특별시 양천구 신목로5길 9",
      "lat": "37.517882",
      "lng": "126.873676",
      "total_count": 4,
      "available_count": 4,
      "total_percent": 100.0,
      "slow_total": 4,
      "slow_avail": 4,
      "slow_percent": 100.0,
      "fast_total": 0,
      "fast_avail": 0,
      "fast_percent": 0.0,
      "latest_update": "20260714110215"
    },
    {
      "station_id": "LU100218",
      "name": "양천푸른마을3단지",
      "address": "서울특별시 양천구 신정로11길 63",
      "lat": "37.51094791",
      "lng": "126.83669561",
      "total_count": 4,
      "available_count": 3,
      "total_percent": 75.0,
      "slow_total": 4,
      "slow_avail": 3,
      "slow_percent": 75.0,
      "fast_total": 0,
      "fast_avail": 0,
      "fast_percent": 0.0,
      "latest_update": "20260714084155"
    },
    {
      "station_id": "LU100800",
      "name": "신정쌍용아파트",
      "address": "서울특별시 양천구 신목로 9",
      "lat": "37.5180648",
      "lng": "126.8759765",
      "total_count": 4,
      "available_count": 3,
      "total_percent": 75.0,
      "slow_total": 4,
      "slow_avail": 3,
      "slow_percent": 75.0,
      "fast_total": 0,
      "fast_avail": 0,
      "fast_percent": 0.0,
      "latest_update": "20260714140606"
    },
    {
      "station_id": "LU101403",
      "name": "목동금호어울림",
      "address": "서울특별시 양천구 목동중앙서로 37",
      "lat": "37.5335793",
      "lng": "126.8690813",
      "total_count": 4,
      "available_count": 4,
      "total_percent": 100.0,
      "slow_total": 4,
      "slow_avail": 4,
      "slow_percent": 100.0,
      "fast_total": 0,
      "fast_avail": 0,
      "fast_percent": 0.0,
      "latest_update": "20260714080352"
    },
    {
      "station_id": "NT101950",
      "name": "양천 신월금하뜨라네아파트",
      "address": "서울특별시 양천구 가로공원로56길 10",
      "lat": "37.53452",
      "lng": "126.82343",
      "total_count": 4,
      "available_count": 4,
      "total_percent": 100.0,
      "slow_total": 4,
      "slow_avail": 4,
      "slow_percent": 100.0,
      "fast_total": 0,
      "fast_avail": 0,
      "fast_percent": 0.0,
      "latest_update": "20260714063250"
    },
    {
      "station_id": "PI200325",
      "name": "서울시 양천구 신정5차현대아파트",
      "address": "서울특별시 양천구 신정로 300",
      "lat": "37.5130281",
      "lng": "126.8546546",
      "total_count": 4,
      "available_count": 4,
      "total_percent": 100.0,
      "slow_total": 4,
      "slow_avail": 4,
      "slow_percent": 100.0,
      "fast_total": 0,
      "fast_avail": 0,
      "fast_percent": 0.0,
      "latest_update": "20260713165109"
    },
    {
      "station_id": "PI645011",
      "name": "서울시 양천구 목동진도아파트",
      "address": "서울특별시 양천구 목동서로 264",
      "lat": "37.5243142",
      "lng": "126.8682801",
      "total_count": 4,
      "available_count": 3,
      "total_percent": 75.0,
      "slow_total": 4,
      "slow_avail": 3,
      "slow_percent": 75.0,
      "fast_total": 0,
      "fast_avail": 0,
      "fast_percent": 0.0,
      "latest_update": "20260714102245"
    },
    {
      "station_id": "PI718622",
      "name": "신도신월1차아파트",
      "address": "서울특별시 양천구 신월로20길 33",
      "lat": "37.5181884",
      "lng": "126.8461235",
      "total_count": 4,
      "available_count": 4,
      "total_percent": 100.0,
      "slow_total": 4,
      "slow_avail": 4,
      "slow_percent": 100.0,
      "fast_total": 0,
      "fast_avail": 0,
      "fast_percent": 0.0,
      "latest_update": "20260713190112"
    },
    {
      "station_id": "PIH00427",
      "name": "신한이모르젠아파트",
      "address": "서울특별시 양천구 목동중앙북로 7",
      "lat": "37.5490238",
      "lng": "126.8644798",
      "total_count": 4,
      "available_count": 3,
      "total_percent": 75.0,
      "slow_total": 4,
      "slow_avail": 3,
      "slow_percent": 75.0,
      "fast_total": 0,
      "fast_avail": 0,
      "fast_percent": 0.0,
      "latest_update": "20260714102219"
    },
    {
      "station_id": "PIS00055",
      "name": "서울 양천구 목동트라팰리스웨스턴에비뉴",
      "address": "서울특별시 양천구 오목로 299",
      "lat": "37.5260000",
      "lng": "126.8702000",
      "total_count": 4,
      "available_count": 3,
      "total_percent": 75.0,
      "slow_total": 4,
      "slow_avail": 3,
      "slow_percent": 75.0,
      "fast_total": 0,
      "fast_avail": 0,
      "fast_percent": 0.0,
      "latest_update": "20260714122815"
    },
    {
      "station_id": "PL000220",
      "name": "목동성원아파트",
      "address": "서울특별시 양천구 목동서로 234",
      "lat": "37.5264932",
      "lng": "126.8689978",
      "total_count": 4,
      "available_count": 3,
      "total_percent": 75.0,
      "slow_total": 4,
      "slow_avail": 3,
      "slow_percent": 75.0,
      "fast_total": 0,
      "fast_avail": 0,
      "fast_percent": 0.0,
      "latest_update": "20260714104159"
    },
    {
      "station_id": "PL002196",
      "name": "목동에버하임",
      "address": "서울특별시 양천구 목동중앙북로 68",
      "lat": "37.5465700",
      "lng": "126.8706840",
      "total_count": 4,
      "available_count": 3,
      "total_percent": 75.0,
      "slow_total": 4,
      "slow_avail": 3,
      "slow_percent": 75.0,
      "fast_total": 0,
      "fast_avail": 0,
      "fast_percent": 0.0,
      "latest_update": "20260714132507"
    },
    {
      "station_id": "PL002338",
      "name": "양천벽산블루밍2단지",
      "address": "서울특별시 양천구 월정로9길 20",
      "lat": "37.5252664",
      "lng": "126.8381632",
      "total_count": 4,
      "available_count": 3,
      "total_percent": 75.0,
      "slow_total": 4,
      "slow_avail": 3,
      "slow_percent": 75.0,
      "fast_total": 0,
      "fast_avail": 0,
      "fast_percent": 0.0,
      "latest_update": "20260714084915"
    },
    {
      "station_id": "PL031465",
      "name": "서울 신월대주파크빌",
      "address": "서울 양천구 남부순환로85길 16",
      "lat": "37.5145756",
      "lng": "126.8428472",
      "total_count": 4,
      "available_count": 4,
      "total_percent": 100.0,
      "slow_total": 4,
      "slow_avail": 4,
      "slow_percent": 100.0,
      "fast_total": 0,
      "fast_avail": 0,
      "fast_percent": 0.0,
      "latest_update": "20260714102654"
    },
    {
      "station_id": "PL033005",
      "name": "신월대방샤인힐",
      "address": "서울 양천구 신월로9길 37",
      "lat": "37.5204419",
      "lng": "126.8387887",
      "total_count": 4,
      "available_count": 4,
      "total_percent": 100.0,
      "slow_total": 4,
      "slow_avail": 4,
      "slow_percent": 100.0,
      "fast_total": 0,
      "fast_avail": 0,
      "fast_percent": 0.0,
      "latest_update": "20260714071225"
    },
    {
      "station_id": "PMP00514",
      "name": "도원교통 양천",
      "address": "서울특별시 양천구 신정로7길 17",
      "lat": "37.5077132",
      "lng": "126.8365041",
      "total_count": 4,
      "available_count": 2,
      "total_percent": 50.0,
      "slow_total": 0,
      "slow_avail": 0,
      "slow_percent": 0.0,
      "fast_total": 4,
      "fast_avail": 2,
      "fast_percent": 50.0,
      "latest_update": "20260714141004"
    },
    {
      "station_id": "PW012551",
      "name": "신정숲속마을아파트",
      "address": "서울특별시 양천구 신정로 110",
      "lat": "37.506123778",
      "lng": "126.83393067",
      "total_count": 4,
      "available_count": 4,
      "total_percent": 100.0,
      "slow_total": 4,
      "slow_avail": 4,
      "slow_percent": 100.0,
      "fast_total": 0,
      "fast_avail": 0,
      "fast_percent": 0.0,
      "latest_update": "20260616082022"
    },
    {
      "station_id": "SF001862",
      "name": "목동현대1차아파트",
      "address": "서울특별시 양천구 목동동로 240",
      "lat": "37.526144188",
      "lng": "126.87278604",
      "total_count": 4,
      "available_count": 4,
      "total_percent": 100.0,
      "slow_total": 4,
      "slow_avail": 4,
      "slow_percent": 100.0,
      "fast_total": 0,
      "fast_avail": 0,
      "fast_percent": 0.0,
      "latest_update": "20260707170014"
    },
    {
      "station_id": "SF003522",
      "name": "목동진도2차아파트 (완속충전기)",
      "address": "서울특별시 양천구 목동동로 250",
      "lat": "37.525708849",
      "lng": "126.87381760",
      "total_count": 4,
      "available_count": 4,
      "total_percent": 100.0,
      "slow_total": 4,
      "slow_avail": 4,
      "slow_percent": 100.0,
      "fast_total": 0,
      "fast_avail": 0,
      "fast_percent": 0.0,
      "latest_update": "20260714010445"
    },
    {
      "station_id": "ST114704",
      "name": "포창운수(24시간이용가능)",
      "address": "서울특별시 양천구 오목로1길 15",
      "lat": "37.5224657",
      "lng": "126.8375846",
      "total_count": 4,
      "available_count": 4,
      "total_percent": 100.0,
      "slow_total": 0,
      "slow_avail": 0,
      "slow_percent": 0.0,
      "fast_total": 4,
      "fast_avail": 4,
      "fast_percent": 100.0,
      "latest_update": "20260714135744"
    },
    {
      "station_id": "ST600082",
      "name": "신월3동 공영주차장",
      "address": "서울특별시 양천구 남부순환로 380-1",
      "lat": "37.532714103",
      "lng": "126.82859810",
      "total_count": 4,
      "available_count": 4,
      "total_percent": 100.0,
      "slow_total": 0,
      "slow_avail": 0,
      "slow_percent": 0.0,
      "fast_total": 4,
      "fast_avail": 4,
      "fast_percent": 100.0,
      "latest_update": "20260714135801"
    },
    {
      "station_id": "TS114701",
      "name": "서울목동효성아파트",
      "address": "서울특별시 양천구 목동중앙북로24길 65",
      "lat": "37.544049",
      "lng": "126.876572",
      "total_count": 4,
      "available_count": 3,
      "total_percent": 75.0,
      "slow_total": 4,
      "slow_avail": 3,
      "slow_percent": 75.0,
      "fast_total": 0,
      "fast_avail": 0,
      "fast_percent": 0.0,
      "latest_update": "20260714132532"
    },
    {
      "station_id": "ME20A301",
      "name": "현대백화점 목동점",
      "address": "서울특별시 양천구 목동동로 257",
      "lat": "37.526755",
      "lng": "126.875324",
      "total_count": 3,
      "available_count": 1,
      "total_percent": 33.3,
      "slow_total": 0,
      "slow_avail": 0,
      "slow_percent": 0.0,
      "fast_total": 3,
      "fast_avail": 1,
      "fast_percent": 33.3,
      "latest_update": "20260714140550"
    },
    {
      "station_id": "CV004034",
      "name": "목동SBS",
      "address": "서울특별시 양천구 목동서로 161",
      "lat": "37.52916",
      "lng": "126.873548",
      "total_count": 3,
      "available_count": 3,
      "total_percent": 100.0,
      "slow_total": 3,
      "slow_avail": 3,
      "slow_percent": 100.0,
      "fast_total": 0,
      "fast_avail": 0,
      "fast_percent": 0.0,
      "latest_update": "20260713043032"
    },
    {
      "station_id": "EC002649",
      "name": "신도브래뉴신월2차 102동 B1",
      "address": "서울특별시 양천구 화곡로3길 34",
      "lat": "37.5424039",
      "lng": "126.8277704",
      "total_count": 3,
      "available_count": 0,
      "total_percent": 0.0,
      "slow_total": 3,
      "slow_avail": 0,
      "slow_percent": 0.0,
      "fast_total": 0,
      "fast_avail": 0,
      "fast_percent": 0.0,
      "latest_update": "20260604142002"
    },
    {
      "station_id": "EP190061",
      "name": "목동현대파크빌1(지하2_3층",
      "address": "서울특별시 양천구 목동동로 391",
      "lat": "37.5358738",
      "lng": "126.8802712",
      "total_count": 3,
      "available_count": 0,
      "total_percent": 0.0,
      "slow_total": 3,
      "slow_avail": 0,
      "slow_percent": 0.0,
      "fast_total": 0,
      "fast_avail": 0,
      "fast_percent": 0.0,
      "latest_update": "20260324150039"
    },
    {
      "station_id": "EV001279",
      "name": "서울양천 목동현대월드타워 1",
      "address": "서울특별시 양천구 목동서로 77",
      "lat": "37.5359869",
      "lng": "126.8780399",
      "total_count": 3,
      "available_count": 2,
      "total_percent": 66.7,
      "slow_total": 3,
      "slow_avail": 2,
      "slow_percent": 66.7,
      "fast_total": 0,
      "fast_avail": 0,
      "fast_percent": 0.0,
      "latest_update": "20260714140220"
    },
    {
      "station_id": "EV003124",
      "name": "서울양천 양천롯데캐슬아파트 2",
      "address": "서울특별시 양천구 오목로5길 19",
      "lat": "37.5233539",
      "lng": "126.8409464",
      "total_count": 3,
      "available_count": 3,
      "total_percent": 100.0,
      "slow_total": 3,
      "slow_avail": 3,
      "slow_percent": 100.0,
      "fast_total": 0,
      "fast_avail": 0,
      "fast_percent": 0.0,
      "latest_update": "20260714081816"
    },
    {
      "station_id": "EV008432",
      "name": "국민은행 목동서로종합금융센터",
      "address": "서울특별시 양천구 목동서로 283",
      "lat": "37.5220926",
      "lng": "126.8696361",
      "total_count": 3,
      "available_count": 3,
      "total_percent": 100.0,
      "slow_total": 3,
      "slow_avail": 3,
      "slow_percent": 100.0,
      "fast_total": 0,
      "fast_avail": 0,
      "fast_percent": 0.0,
      "latest_update": "20260609191505"
    },
    {
      "station_id": "EV008491",
      "name": "서울양천 보람쉬움아파트1",
      "address": "서울특별시 양천구 오목로1길 46",
      "lat": "37.525052211",
      "lng": "126.83754907",
      "total_count": 3,
      "available_count": 2,
      "total_percent": 66.7,
      "slow_total": 3,
      "slow_avail": 2,
      "slow_percent": 66.7,
      "fast_total": 0,
      "fast_avail": 0,
      "fast_percent": 0.0,
      "latest_update": "20260714130546"
    },
    {
      "station_id": "EV008739",
      "name": "서울양천 신정동일하이빌2단지아파트1",
      "address": "서울특별시 양천구 신정로11길 20",
      "lat": "37.5119634",
      "lng": "126.8387028",
      "total_count": 3,
      "available_count": 3,
      "total_percent": 100.0,
      "slow_total": 3,
      "slow_avail": 3,
      "slow_percent": 100.0,
      "fast_total": 0,
      "fast_avail": 0,
      "fast_percent": 0.0,
      "latest_update": "20260714060900"
    },
    {
      "station_id": "EV010981",
      "name": "서울양천 목동파라곤오피스텔",
      "address": "서울특별시 양천구 목동서로 155",
      "lat": "37.5299956",
      "lng": "126.875072",
      "total_count": 3,
      "available_count": 2,
      "total_percent": 66.7,
      "slow_total": 3,
      "slow_avail": 2,
      "slow_percent": 66.7,
      "fast_total": 0,
      "fast_avail": 0,
      "fast_percent": 0.0,
      "latest_update": "20260714130143"
    },
    {
      "station_id": "EV011770",
      "name": "서울양천 신정파크샤인아파트",
      "address": "서울특별시 양천구 목동남로4길 100 (신정동, 파크샤인)",
      "lat": "37.5102622",
      "lng": "126.8698630",
      "total_count": 3,
      "available_count": 3,
      "total_percent": 100.0,
      "slow_total": 3,
      "slow_avail": 3,
      "slow_percent": 100.0,
      "fast_total": 0,
      "fast_avail": 0,
      "fast_percent": 0.0,
      "latest_update": "20260710155943"
    },
    {
      "station_id": "EV012565",
      "name": "서울양천 중앙하이츠 1",
      "address": "서울특별시 양천구 목동남로2길 60-7",
      "lat": "37.50539761",
      "lng": "126.8646868",
      "total_count": 3,
      "available_count": 3,
      "total_percent": 100.0,
      "slow_total": 3,
      "slow_avail": 3,
      "slow_percent": 100.0,
      "fast_total": 0,
      "fast_avail": 0,
      "fast_percent": 0.0,
      "latest_update": "20260714084009"
    },
    {
      "station_id": "EV012566",
      "name": "서울양천 중앙하이츠 2",
      "address": "서울특별시 양천구 목동남로2길 60-7",
      "lat": "37.50539761",
      "lng": "126.8646868",
      "total_count": 3,
      "available_count": 2,
      "total_percent": 66.7,
      "slow_total": 3,
      "slow_avail": 2,
      "slow_percent": 66.7,
      "fast_total": 0,
      "fast_avail": 0,
      "fast_percent": 0.0,
      "latest_update": "20260714135416"
    },
    {
      "station_id": "EV013098",
      "name": "서울양천 목동2차우성아파트 2",
      "address": "서울특별시 양천구 목동남로4길 6-46 (신정동, 목동2차우성아파트)",
      "lat": "37.5067310",
      "lng": "126.8647966",
      "total_count": 3,
      "available_count": 2,
      "total_percent": 66.7,
      "slow_total": 3,
      "slow_avail": 2,
      "slow_percent": 66.7,
      "fast_total": 0,
      "fast_avail": 0,
      "fast_percent": 0.0,
      "latest_update": "20260714095313"
    },
    {
      "station_id": "EV013434",
      "name": "서울양천 신정뉴타운롯데캐슬아파트 2",
      "address": "서울특별시 양천구 중앙로29길 61",
      "lat": "37.5177852",
      "lng": "126.8473833",
      "total_count": 3,
      "available_count": 3,
      "total_percent": 100.0,
      "slow_total": 3,
      "slow_avail": 3,
      "slow_percent": 100.0,
      "fast_total": 0,
      "fast_avail": 0,
      "fast_percent": 0.0,
      "latest_update": "20260714123728"
    },
    {
      "station_id": "EV014672",
      "name": "서울양천 신정양천아파트 2",
      "address": "서울특별시 양천구 목동로3길 57 (신정동, 양천아파트)",
      "lat": "37.5094543",
      "lng": "126.8621623",
      "total_count": 3,
      "available_count": 2,
      "total_percent": 66.7,
      "slow_total": 3,
      "slow_avail": 2,
      "slow_percent": 66.7,
      "fast_total": 0,
      "fast_avail": 0,
      "fast_percent": 0.0,
      "latest_update": "20260714051430"
    },
    {
      "station_id": "EV014674",
      "name": "서울양천 신정양천아파트 4",
      "address": "서울특별시 양천구 목동로3길 57",
      "lat": "37.509454256",
      "lng": "126.86216225",
      "total_count": 3,
      "available_count": 1,
      "total_percent": 33.3,
      "slow_total": 3,
      "slow_avail": 1,
      "slow_percent": 33.3,
      "fast_total": 0,
      "fast_avail": 0,
      "fast_percent": 0.0,
      "latest_update": "20260714121717"
    },
    {
      "station_id": "EV014677",
      "name": "서울양천 신정양천아파트 7",
      "address": "서울특별시 양천구 목동로3길 57 (신정동, 양천아파트)",
      "lat": "37.5094543",
      "lng": "126.8621623",
      "total_count": 3,
      "available_count": 2,
      "total_percent": 66.7,
      "slow_total": 3,
      "slow_avail": 2,
      "slow_percent": 66.7,
      "fast_total": 0,
      "fast_avail": 0,
      "fast_percent": 0.0,
      "latest_update": "20260714091048"
    },
    {
      "station_id": "EV015651",
      "name": "서울양천 경남아너스빌",
      "address": "서울특별시 양천구 목동동로10길 16-6 (신정동, 경남아너스빌)",
      "lat": "37.5175708",
      "lng": "126.8712779",
      "total_count": 3,
      "available_count": 3,
      "total_percent": 100.0,
      "slow_total": 3,
      "slow_avail": 3,
      "slow_percent": 100.0,
      "fast_total": 0,
      "fast_avail": 0,
      "fast_percent": 0.0,
      "latest_update": "20260714063112"
    },
    {
      "station_id": "EV020407",
      "name": "서울양천 목동현대월드타워 2",
      "address": "서울 양천구 목동서로 77",
      "lat": "37.5359862",
      "lng": "126.8780417",
      "total_count": 3,
      "available_count": 2,
      "total_percent": 66.7,
      "slow_total": 3,
      "slow_avail": 2,
      "slow_percent": 66.7,
      "fast_total": 0,
      "fast_avail": 0,
      "fast_percent": 0.0,
      "latest_update": "20260714141025"
    },
    {
      "station_id": "EV020439",
      "name": "서울양천 목동신시가지아파트9단지 3",
      "address": "서울 양천구 목동서로 340",
      "lat": "37.5190983",
      "lng": "126.8638846",
      "total_count": 3,
      "available_count": 3,
      "total_percent": 100.0,
      "slow_total": 3,
      "slow_avail": 3,
      "slow_percent": 100.0,
      "fast_total": 0,
      "fast_avail": 0,
      "fast_percent": 0.0,
      "latest_update": "20260714094910"
    },
    {
      "station_id": "HE202625",
      "name": "목동신시가지아파트7단지",
      "address": "서울특별시 양천구 목동로 212",
      "lat": "37.527966",
      "lng": "126.867536",
      "total_count": 3,
      "available_count": 3,
      "total_percent": 100.0,
      "slow_total": 3,
      "slow_avail": 3,
      "slow_percent": 100.0,
      "fast_total": 0,
      "fast_avail": 0,
      "fast_percent": 0.0,
      "latest_update": "20260714064600"
    },
    {
      "station_id": "HE240306",
      "name": "신정푸른마을1단지아파트",
      "address": "서울특별시 양천구 신정로7길 70",
      "lat": "37.5130261",
      "lng": "126.836566",
      "total_count": 3,
      "available_count": 2,
      "total_percent": 66.7,
      "slow_total": 3,
      "slow_avail": 2,
      "slow_percent": 66.7,
      "fast_total": 0,
      "fast_avail": 0,
      "fast_percent": 0.0,
      "latest_update": "20260714125320"
    },
    {
      "station_id": "HE240401",
      "name": "유원목동",
      "address": "서울특별시 양천구 신목로 77",
      "lat": "37.522076379",
      "lng": "126.87340516",
      "total_count": 3,
      "available_count": 2,
      "total_percent": 66.7,
      "slow_total": 3,
      "slow_avail": 2,
      "slow_percent": 66.7,
      "fast_total": 0,
      "fast_avail": 0,
      "fast_percent": 0.0,
      "latest_update": "20260714140000"
    },
    {
      "station_id": "HM000090",
      "name": "대방샤인힐",
      "address": "서울특별시 양천구 신월로9길 37",
      "lat": "37.520631815",
      "lng": "126.83868146",
      "total_count": 3,
      "available_count": 3,
      "total_percent": 100.0,
      "slow_total": 3,
      "slow_avail": 3,
      "slow_percent": 100.0,
      "fast_total": 0,
      "fast_avail": 0,
      "fast_percent": 0.0,
      "latest_update": "20260708105601"
    },
    {
      "station_id": "KE000544",
      "name": "서울양천신정뉴타운롯데캐슬101동1",
      "address": "서울특별시 양천구 중앙로29길 61",
      "lat": "37.5190154",
      "lng": "126.8474213",
      "total_count": 3,
      "available_count": 3,
      "total_percent": 100.0,
      "slow_total": 3,
      "slow_avail": 3,
      "slow_percent": 100.0,
      "fast_total": 0,
      "fast_avail": 0,
      "fast_percent": 0.0,
      "latest_update": "20260714073009"
    },
    {
      "station_id": "KE000902",
      "name": "서울양천신정뉴타운롯데캐슬109동",
      "address": "서울특별시 양천구 중앙로29길 61",
      "lat": "37.5195038",
      "lng": "126.8481957",
      "total_count": 3,
      "available_count": 3,
      "total_percent": 100.0,
      "slow_total": 3,
      "slow_avail": 3,
      "slow_percent": 100.0,
      "fast_total": 0,
      "fast_avail": 0,
      "fast_percent": 0.0,
      "latest_update": "20260714063009"
    },
    {
      "station_id": "KL200176",
      "name": "양천구청_신정1 3 노상주차장",
      "address": "서울특별시 양천구 중앙로 221",
      "lat": "37.5163082",
      "lng": "126.8541785",
      "total_count": 3,
      "available_count": 3,
      "total_percent": 100.0,
      "slow_total": 0,
      "slow_avail": 0,
      "slow_percent": 0.0,
      "fast_total": 3,
      "fast_avail": 3,
      "fast_percent": 100.0,
      "latest_update": "20260714125442"
    },
    {
      "station_id": "KP000700",
      "name": "목동트윈빌",
      "address": "서울특별시 양천구 목동 목동동로 339",
      "lat": "37.5321760813",
      "lng": "126.8767427591",
      "total_count": 3,
      "available_count": 3,
      "total_percent": 100.0,
      "slow_total": 2,
      "slow_avail": 2,
      "slow_percent": 100.0,
      "fast_total": 1,
      "fast_avail": 1,
      "fast_percent": 100.0,
      "latest_update": "20260714055012"
    },
    {
      "station_id": "KP000930",
      "name": "양천벽산블루밍 아파트",
      "address": "서울특별시 양천구 신월동 월정로9길 17",
      "lat": "37.5245986953",
      "lng": "126.8392967298",
      "total_count": 3,
      "available_count": 3,
      "total_percent": 100.0,
      "slow_total": 2,
      "slow_avail": 2,
      "slow_percent": 100.0,
      "fast_total": 1,
      "fast_avail": 1,
      "fast_percent": 100.0,
      "latest_update": "20260714055006"
    },
    {
      "station_id": "KP003182",
      "name": "신정이펜하우스 2단지",
      "address": "서울특별시 양천구 신정이펜2로 55",
      "lat": "37.515688",
      "lng": "126.830737",
      "total_count": 3,
      "available_count": 3,
      "total_percent": 100.0,
      "slow_total": 3,
      "slow_avail": 3,
      "slow_percent": 100.0,
      "fast_total": 0,
      "fast_avail": 0,
      "fast_percent": 0.0,
      "latest_update": "20260713094019"
    },
    {
      "station_id": "KP003324",
      "name": "신월코아루1단지아파트",
      "address": "서울특별시 양천구 신월동 남부순환로56길 9",
      "lat": "37.531844",
      "lng": "126.82983",
      "total_count": 3,
      "available_count": 2,
      "total_percent": 66.7,
      "slow_total": 3,
      "slow_avail": 2,
      "slow_percent": 66.7,
      "fast_total": 0,
      "fast_avail": 0,
      "fast_percent": 0.0,
      "latest_update": "20260714135009"
    },
    {
      "station_id": "LU000596",
      "name": "양천구목동7단지아파트",
      "address": "서울특별시 양천구 목동로 212",
      "lat": "37.5292499",
      "lng": "126.8670932",
      "total_count": 3,
      "available_count": 3,
      "total_percent": 100.0,
      "slow_total": 3,
      "slow_avail": 3,
      "slow_percent": 100.0,
      "fast_total": 0,
      "fast_avail": 0,
      "fast_percent": 0.0,
      "latest_update": "20260714071341"
    },
    {
      "station_id": "LU001402",
      "name": "청학빌딩",
      "address": "서울특별시 양천구 오목로 344",
      "lat": "37.523753",
      "lng": "126.875143",
      "total_count": 3,
      "available_count": 3,
      "total_percent": 100.0,
      "slow_total": 3,
      "slow_avail": 3,
      "slow_percent": 100.0,
      "fast_total": 0,
      "fast_avail": 0,
      "fast_percent": 0.0,
      "latest_update": "20260714121950"
    },
    {
      "station_id": "LU001583",
      "name": "신월성원아파트",
      "address": "서울특별시 양천구 곰달래로2길 16",
      "lat": "37.527947",
      "lng": "126.834317",
      "total_count": 3,
      "available_count": 3,
      "total_percent": 100.0,
      "slow_total": 3,
      "slow_avail": 3,
      "slow_percent": 100.0,
      "fast_total": 0,
      "fast_avail": 0,
      "fast_percent": 0.0,
      "latest_update": "20260713184850"
    },
    {
      "station_id": "LU003207",
      "name": "목동3차우성아파트",
      "address": "서울특별시 양천구 목동남로4길 20",
      "lat": "37.508323",
      "lng": "126.865408",
      "total_count": 3,
      "available_count": 3,
      "total_percent": 100.0,
      "slow_total": 3,
      "slow_avail": 3,
      "slow_percent": 100.0,
      "fast_total": 0,
      "fast_avail": 0,
      "fast_percent": 0.0,
      "latest_update": "20260714104713"
    },
    {
      "station_id": "LU003613",
      "name": "목동3차월드메르디앙",
      "address": "서울특별시 양천구 목동동로 270",
      "lat": "37.525171",
      "lng": "126.875953",
      "total_count": 3,
      "available_count": 2,
      "total_percent": 66.7,
      "slow_total": 3,
      "slow_avail": 2,
      "slow_percent": 66.7,
      "fast_total": 0,
      "fast_avail": 0,
      "fast_percent": 0.0,
      "latest_update": "20260714140050"
    },