{
  "district": "서대문구",
  "zscode": "11410",
  "summary": {
    "total_count": 2351,
    "available_count": 1681,
    "total_percent": 71.5,
    "slow_total": 2180,
    "slow_avail": 1549,
    "slow_percent": 71.1,
    "fast_total": 171,
    "fast_avail": 132,
    "fast_percent": 77.2,
    "station_count": 411
  },
  "stations": [
    {
      "station_id": "PI769581",
      "name": "DMC파크뷰자이 1단지 지하 3층",
      "address": "서울특별시 서대문구 가재울미래로 2",
      "lat": "37.573293045",
      "lng": "126.91687698",
      "total_count": 73,
      "available_count": 57,
      "total_percent": 78.1,
      "slow_total": 73,
      "slow_avail": 57,
      "slow_percent": 78.1,
      "fast_total": 0,
      "fast_avail": 0,
      "fast_percent": 0.0,
      "latest_update": "20260713232058"
    },
    {
      "station_id": "PI769482",
      "name": "DMC파크뷰자이 1단지 지하 2층",
      "address": "서울특별시 서대문구 가재울미래로 2",
      "lat": "37.5714719",
      "lng": "126.9185374",
      "total_count": 63,
      "available_count": 45,
      "total_percent": 71.4,
      "slow_total": 63,
      "slow_avail": 45,
      "slow_percent": 71.4,
      "fast_total": 0,
      "fast_avail": 0,
      "fast_percent": 0.0,
      "latest_update": "20260713231557"
    },
    {
      "station_id": "PI711827",
      "name": "e편한세상신촌아파트B",
      "address": "서울특별시 서대문구 북아현로1가길 20, (북아현동, 이편한세상신촌)",
      "lat": "37.558192557",
      "lng": "126.95445171",
      "total_count": 51,
      "available_count": 42,
      "total_percent": 82.4,
      "slow_total": 51,
      "slow_avail": 42,
      "slow_percent": 82.4,
      "fast_total": 0,
      "fast_avail": 0,
      "fast_percent": 0.0,
      "latest_update": "20260713213027"
    },
    {
      "station_id": "NT101594",
      "name": "서대문 푸르지오센트럴파크",
      "address": "서울특별시 서대문구 통일로 339",
      "lat": "37.5816",
      "lng": "126.9503",
      "total_count": 50,
      "available_count": 38,
      "total_percent": 76.0,
      "slow_total": 50,
      "slow_avail": 38,
      "slow_percent": 76.0,
      "fast_total": 0,
      "fast_avail": 0,
      "fast_percent": 0.0,
      "latest_update": "20260713235350"
    },
    {
      "station_id": "SF003451",
      "name": "서대문센트럴아이파크",
      "address": "서울특별시 서대문구 홍은중앙로11길 31",
      "lat": "37.600594832",
      "lng": "126.94723966",
      "total_count": 48,
      "available_count": 40,
      "total_percent": 83.3,
      "slow_total": 48,
      "slow_avail": 40,
      "slow_percent": 83.3,
      "fast_total": 0,
      "fast_avail": 0,
      "fast_percent": 0.0,
      "latest_update": "20260713232126"
    },
    {
      "station_id": "PI769680",
      "name": "DMC파크뷰자이 2단지 지하 2층",
      "address": "서울특별시 서대문구 가재울미래로 2",
      "lat": "37.574253774",
      "lng": "126.91535335",
      "total_count": 44,
      "available_count": 36,
      "total_percent": 81.8,
      "slow_total": 44,
      "slow_avail": 36,
      "slow_percent": 81.8,
      "fast_total": 0,
      "fast_avail": 0,
      "fast_percent": 0.0,
      "latest_update": "20260713214102"
    },
    {
      "station_id": "SF001236",
      "name": "DMC에코자이",
      "address": "서울특별시 서대문구 거북골로 84",
      "lat": "37.578229630",
      "lng": "126.91848131",
      "total_count": 40,
      "available_count": 39,
      "total_percent": 97.5,
      "slow_total": 40,
      "slow_avail": 39,
      "slow_percent": 97.5,
      "fast_total": 0,
      "fast_avail": 0,
      "fast_percent": 0.0,
      "latest_update": "20260707170102"
    },
    {
      "station_id": "PI769618",
      "name": "DMC파크뷰자이 2단지 지하 3층",
      "address": "서울특별시 서대문구 가재울미래로 2",
      "lat": "37.573505196",
      "lng": "126.91430992",
      "total_count": 35,
      "available_count": 30,
      "total_percent": 85.7,
      "slow_total": 35,
      "slow_avail": 30,
      "slow_percent": 85.7,
      "fast_total": 0,
      "fast_avail": 0,
      "fast_percent": 0.0,
      "latest_update": "20260713225101"
    },
    {
      "station_id": "PIH00634",
      "name": "서울 북아현동 이편한세상신촌1단지아파트",
      "address": "서울특별시 서대문구 북아현로1가길 20",
      "lat": "37.558056254",
      "lng": "126.95155445",
      "total_count": 32,
      "available_count": 32,
      "total_percent": 100.0,
      "slow_total": 32,
      "slow_avail": 32,
      "slow_percent": 100.0,
      "fast_total": 0,
      "fast_avail": 0,
      "fast_percent": 0.0,
      "latest_update": "20260713224230"
    },
    {
      "station_id": "PIH00544",
      "name": "이편한세상신촌2단지아파트",
      "address": "서울특별시 서대문구 북아현로1길 17",
      "lat": "37.558667713",
      "lng": "126.95345047",
      "total_count": 31,
      "available_count": 28,
      "total_percent": 90.3,
      "slow_total": 31,
      "slow_avail": 28,
      "slow_percent": 90.3,
      "fast_total": 0,
      "fast_avail": 0,
      "fast_percent": 0.0,
      "latest_update": "20260713223230"
    },
    {
      "station_id": "NT102003",
      "name": "독립문 극동아파트",
      "address": "서울특별시 서대문구 독립문공원길 17",
      "lat": "37.57238",
      "lng": "126.95519",
      "total_count": 27,
      "available_count": 23,
      "total_percent": 85.2,
      "slow_total": 27,
      "slow_avail": 23,
      "slow_percent": 85.2,
      "fast_total": 0,
      "fast_avail": 0,
      "fast_percent": 0.0,
      "latest_update": "20260713223850"
    },
    {
      "station_id": "JA110171",
      "name": "서울시 홍은벽산아파트",
      "address": "서울특별시 서대문구 세검정로1길 95",
      "lat": "37.5953657",
      "lng": "126.9448325",
      "total_count": 25,
      "available_count": 10,
      "total_percent": 40.0,
      "slow_total": 24,
      "slow_avail": 9,
      "slow_percent": 37.5,
      "fast_total": 1,
      "fast_avail": 1,
      "fast_percent": 100.0,
      "latest_update": "20260713234913"
    },
    {
      "station_id": "NT101895",
      "name": "서대문 DMC래미안이편한세상1단지",
      "address": "서울특별시 서대문구 수색로 100",
      "lat": "37.573091",
      "lng": "126.910276",
      "total_count": 25,
      "available_count": 17,
      "total_percent": 68.0,
      "slow_total": 25,
      "slow_avail": 17,
      "slow_percent": 68.0,
      "fast_total": 0,
      "fast_avail": 0,
      "fast_percent": 0.0,
      "latest_update": "20260713232250"
    },
    {
      "station_id": "PWE06381",
      "name": "dmc래미안e편한세상1단지",
      "address": "서울특별시 서대문구 수색로 100",
      "lat": "37.574727187",
      "lng": "126.90781488",
      "total_count": 24,
      "available_count": 20,
      "total_percent": 83.3,
      "slow_total": 24,
      "slow_avail": 20,
      "slow_percent": 83.3,
      "fast_total": 0,
      "fast_avail": 0,
      "fast_percent": 0.0,
      "latest_update": "20260713235010"
    },
    {
      "station_id": "NT100032",
      "name": "디엠씨 래미안클라시스",
      "address": "서울특별시 서대문구 증가로 191",
      "lat": "37.57849",
      "lng": "126.91739",
      "total_count": 23,
      "available_count": 8,
      "total_percent": 34.8,
      "slow_total": 23,
      "slow_avail": 8,
      "slow_percent": 34.8,
      "fast_total": 0,
      "fast_avail": 0,
      "fast_percent": 0.0,
      "latest_update": "20260713230950"
    },
    {
      "station_id": "PWE05825",
      "name": "dmc래미안e편한세상2단지",
      "address": "서울특별시 서대문구 수색로 100",
      "lat": "37.57245",
      "lng": "126.910575",
      "total_count": 23,
      "available_count": 23,
      "total_percent": 100.0,
      "slow_total": 23,
      "slow_avail": 23,
      "slow_percent": 100.0,
      "fast_total": 0,
      "fast_avail": 0,
      "fast_percent": 0.0,
      "latest_update": "20260711091111"
    },
    {
      "station_id": "NT101897",
      "name": "서대문 DMC래미안이편한세상3단지",
      "address": "서울특별시 서대문구 수색로 100",
      "lat": "37.57473",
      "lng": "126.90791",
      "total_count": 22,
      "available_count": 14,
      "total_percent": 63.6,
      "slow_total": 22,
      "slow_avail": 14,
      "slow_percent": 63.6,
      "fast_total": 0,
      "fast_avail": 0,
      "fast_percent": 0.0,
      "latest_update": "20260713224950"
    },
    {
      "station_id": "NT101896",
      "name": "서대문 DMC래미안이편한세상2단지",
      "address": "서울특별시 서대문구 수색로 100",
      "lat": "37.574199",
      "lng": "126.911984",
      "total_count": 21,
      "available_count": 12,
      "total_percent": 57.1,
      "slow_total": 21,
      "slow_avail": 12,
      "slow_percent": 57.1,
      "fast_total": 0,
      "fast_avail": 0,
      "fast_percent": 0.0,
      "latest_update": "20260714000150"
    },
    {
      "station_id": "PI001489",
      "name": "홍제한양아파트",
      "address": "서울특별시 서대문구 통일로25길 30",
      "lat": "37.5831504",
      "lng": "126.947096",
      "total_count": 21,
      "available_count": 20,
      "total_percent": 95.2,
      "slow_total": 21,
      "slow_avail": 20,
      "slow_percent": 95.2,
      "fast_total": 0,
      "fast_avail": 0,
      "fast_percent": 0.0,
      "latest_update": "20260714000632"
    },
    {
      "station_id": "PL031249",
      "name": "서울 상암DMC센트럴아이파크",
      "address": "서울 서대문구 증가로 150",
      "lat": "37.5780548",
      "lng": "126.9210192",
      "total_count": 21,
      "available_count": 8,
      "total_percent": 38.1,
      "slow_total": 20,
      "slow_avail": 7,
      "slow_percent": 35.0,
      "fast_total": 1,
      "fast_avail": 1,
      "fast_percent": 100.0,
      "latest_update": "20260713231726"
    },
    {
      "station_id": "NT102268",
      "name": "서대문 래미안루센티아아파트",
      "address": "서울특별시 서대문구 거북골로 100",
      "lat": "37.57572",
      "lng": "126.91835",
      "total_count": 20,
      "available_count": 7,
      "total_percent": 35.0,
      "slow_total": 20,
      "slow_avail": 7,
      "slow_percent": 35.0,
      "fast_total": 0,
      "fast_avail": 0,
      "fast_percent": 0.0,
      "latest_update": "20260713235750"
    },
    {
      "station_id": "PL032452",
      "name": "홍제원현대아파트",
      "address": "서울 서대문구 통일로34길 43",
      "lat": "37.5883337",
      "lng": "126.9488077",
      "total_count": 20,
      "available_count": 14,
      "total_percent": 70.0,
      "slow_total": 20,
      "slow_avail": 14,
      "slow_percent": 70.0,
      "fast_total": 0,
      "fast_avail": 0,
      "fast_percent": 0.0,
      "latest_update": "20260714000900"
    },
    {
      "station_id": "PW801481",
      "name": "DMC래미안e편한세상 입주자대표회의(SPB)",
      "address": "서울특별시 서대문구 수색로 100",
      "lat": "37.574733483",
      "lng": "126.90791608",
      "total_count": 20,
      "available_count": 0,
      "total_percent": 0.0,
      "slow_total": 20,
      "slow_avail": 0,
      "slow_percent": 0.0,
      "fast_total": 0,
      "fast_avail": 0,
      "fast_percent": 0.0,
      "latest_update": "20260616134310"
    },
    {
      "station_id": "SF000909",
      "name": "독립문극동아파트",
      "address": "서울특별시 서대문구 독립문공원길 17",
      "lat": "37.5723812",
      "lng": "126.9551984",
      "total_count": 20,
      "available_count": 17,
      "total_percent": 85.0,
      "slow_total": 20,
      "slow_avail": 17,
      "slow_percent": 85.0,
      "fast_total": 0,
      "fast_avail": 0,
      "fast_percent": 0.0,
      "latest_update": "20260713221527"
    },
    {
      "station_id": "HY001524",
      "name": "서대문 남가좌아이파크",
      "address": "서울특별시 서대문구 가재울로 45",
      "lat": "37.574916",
      "lng": "126.920405",
      "total_count": 17,
      "available_count": 6,
      "total_percent": 35.3,
      "slow_total": 16,
      "slow_avail": 5,
      "slow_percent": 31.2,
      "fast_total": 1,
      "fast_avail": 1,
      "fast_percent": 100.0,
      "latest_update": "20260713214706"
    },
    {
      "station_id": "LU101410",
      "name": "래미안루센티아",
      "address": "서울특별시 서대문구 거북골로 100",
      "lat": "37.5757257",
      "lng": "126.9183536",
      "total_count": 17,
      "available_count": 12,
      "total_percent": 70.6,
      "slow_total": 17,
      "slow_avail": 12,
      "slow_percent": 70.6,
      "fast_total": 0,
      "fast_avail": 0,
      "fast_percent": 0.0,
      "latest_update": "20260713224031"
    },
    {
      "station_id": "NT102374",
      "name": "서대문 홍제센트럴아이파크",
      "address": "서울특별시 서대문구 통일로 395",
      "lat": "37.58461",
      "lng": "126.94449",
      "total_count": 16,
      "available_count": 9,
      "total_percent": 56.2,
      "slow_total": 16,
      "slow_avail": 9,
      "slow_percent": 56.2,
      "fast_total": 0,
      "fast_avail": 0,
      "fast_percent": 0.0,
      "latest_update": "20260713231350"
    },
    {
      "station_id": "PIH00677",
      "name": "이편한세상신촌3단지아파트",
      "address": "서울특별시 서대문구 북아현로 29",
      "lat": "37.560206715",
      "lng": "126.95606104",
      "total_count": 16,
      "available_count": 16,
      "total_percent": 100.0,
      "slow_total": 16,
      "slow_avail": 16,
      "slow_percent": 100.0,
      "fast_total": 0,
      "fast_avail": 0,
      "fast_percent": 0.0,
      "latest_update": "20260703040741"
    },
    {
      "station_id": "PK000322",
      "name": "홍은동차고지",
      "address": "서울특별시 서대문구 모래내로 289 (홍은동)",
      "lat": "37.5782300",
      "lng": "126.9297100",
      "total_count": 16,
      "available_count": 7,
      "total_percent": 43.8,
      "slow_total": 0,
      "slow_avail": 0,
      "slow_percent": 0.0,
      "fast_total": 16,
      "fast_avail": 7,
      "fast_percent": 43.8,
      "latest_update": "20260713235147"
    },
    {
      "station_id": "PWE01713",
      "name": "dmc래미안e편한세상3단지",
      "address": "서울특별시 서대문구 수색로 100",
      "lat": "37.57473",
      "lng": "126.90782",
      "total_count": 16,
      "available_count": 14,
      "total_percent": 87.5,
      "slow_total": 16,
      "slow_avail": 14,
      "slow_percent": 87.5,
      "fast_total": 0,
      "fast_avail": 0,
      "fast_percent": 0.0,
      "latest_update": "20260713235010"
    },
    {
      "station_id": "ER000462",
      "name": "독립문삼호아파트",
      "address": "서울 서대문구 독립문로 12",
      "lat": "37.5703574",
      "lng": "126.9596510",
      "total_count": 15,
      "available_count": 12,
      "total_percent": 80.0,
      "slow_total": 15,
      "slow_avail": 12,
      "slow_percent": 80.0,
      "fast_total": 0,
      "fast_avail": 0,
      "fast_percent": 0.0,
      "latest_update": "20260713221449"
    },
    {
      "station_id": "HM000854",
      "name": "힐스테이트신촌",
      "address": "서울특별시 서대문구 이화여대8길 123",
      "lat": "37.5612234",
      "lng": "126.9518596",
      "total_count": 15,
      "available_count": 8,
      "total_percent": 53.3,
      "slow_total": 15,
      "slow_avail": 8,
      "slow_percent": 53.3,
      "fast_total": 0,
      "fast_avail": 0,
      "fast_percent": 0.0,
      "latest_update": "20260714000410"
    },
    {
      "station_id": "PL001775",
      "name": "두산아파트",
      "address": "서울 서대문구 이화여대8길 62",
      "lat": "37.5597235",
      "lng": "126.9507324",
      "total_count": 15,
      "available_count": 13,
      "total_percent": 86.7,
      "slow_total": 15,
      "slow_avail": 13,
      "slow_percent": 86.7,
      "fast_total": 0,
      "fast_avail": 0,
      "fast_percent": 0.0,
      "latest_update": "20260713212008"
    },
    {
      "station_id": "HU200036",
      "name": "명지대학교 인문캠퍼스",
      "address": "서울특별시 서대문구 거북골로 34",
      "lat": "37.579724108",
      "lng": "126.92388574",
      "total_count": 14,
      "available_count": 0,
      "total_percent": 0.0,
      "slow_total": 14,
      "slow_avail": 0,
      "slow_percent": 0.0,
      "fast_total": 0,
      "fast_avail": 0,
      "fast_percent": 0.0,
      "latest_update": "20260714000324"
    },
    {
      "station_id": "PI012645",
      "name": "e편한세상신촌아파트",
      "address": "서울특별시 서대문구 북아현로1가길 20, (북아현동, 이편한세상신촌)",
      "lat": "37.559754231",
      "lng": "126.95629559",
      "total_count": 14,
      "available_count": 10,
      "total_percent": 71.4,
      "slow_total": 14,
      "slow_avail": 10,
      "slow_percent": 71.4,
      "fast_total": 0,
      "fast_avail": 0,
      "fast_percent": 0.0,
      "latest_update": "20260713195121"
    },
    {
      "station_id": "PI769697",
      "name": "DMC파크뷰자이 3단지 지하 2층",
      "address": "서울특별시 서대문구 가재울미래로 2",
      "lat": "37.573339139",
      "lng": "126.92169926",
      "total_count": 14,
      "available_count": 12,
      "total_percent": 85.7,
      "slow_total": 14,
      "slow_avail": 12,
      "slow_percent": 85.7,
      "fast_total": 0,
      "fast_avail": 0,
      "fast_percent": 0.0,
      "latest_update": "20260713202102"
    },
    {
      "station_id": "EZ210025",
      "name": "무악청구아파트 입주자대표회의",
      "address": "서울특별시 서대문구 통일로 348",
      "lat": "37.5821174",
      "lng": "126.9517497",
      "total_count": 12,
      "available_count": 0,
      "total_percent": 0.0,
      "slow_total": 12,
      "slow_avail": 0,
      "slow_percent": 0.0,
      "fast_total": 0,
      "fast_avail": 0,
      "fast_percent": 0.0,
      "latest_update": "20260601113310"
    },
    {
      "station_id": "LU101642",
      "name": "디엠씨에코자이",
      "address": "서울특별시 서대문구 거북골로 84(남가좌동, DMC에코자이)",
      "lat": "37.5782296",
      "lng": "126.9184813",
      "total_count": 12,
      "available_count": 4,
      "total_percent": 33.3,
      "slow_total": 12,
      "slow_avail": 4,
      "slow_percent": 33.3,
      "fast_total": 0,
      "fast_avail": 0,
      "fast_percent": 0.0,
      "latest_update": "20260713232718"
    },
    {
      "station_id": "NT102841",
      "name": "서대문 DMC에코자이",
      "address": "서울특별시 서대문구 거북골로 84",
      "lat": "37.57822",
      "lng": "126.91848",
      "total_count": 12,
      "available_count": 10,
      "total_percent": 83.3,
      "slow_total": 12,
      "slow_avail": 10,
      "slow_percent": 83.3,
      "fast_total": 0,
      "fast_avail": 0,
      "fast_percent": 0.0,
      "latest_update": "20260713230550"
    },
    {
      "station_id": "PIH00611",
      "name": "이편한세상신촌4단지아파트",
      "address": "서울특별시 서대문구 신촌로35길 10",
      "lat": "37.5586216",
      "lng": "126.95586040",
      "total_count": 12,
      "available_count": 10,
      "total_percent": 83.3,
      "slow_total": 12,
      "slow_avail": 10,
      "slow_percent": 83.3,
      "fast_total": 0,
      "fast_avail": 0,
      "fast_percent": 0.0,
      "latest_update": "20260713215224"
    },
    {
      "station_id": "PK000014",
      "name": "서부운수",
      "address": "서울특별시 서대문구 응암로1길 17",
      "lat": "37.5816258",
      "lng": "126.9101883",
      "total_count": 12,
      "available_count": 9,
      "total_percent": 75.0,
      "slow_total": 0,
      "slow_avail": 0,
      "slow_percent": 0.0,
      "fast_total": 12,
      "fast_avail": 9,
      "fast_percent": 75.0,
      "latest_update": "20260713235041"
    },
    {
      "station_id": "PL031884",
      "name": "서울 서대문구천연뜨란채아파트",
      "address": "서울 서대문구 독립문로8길 54",
      "lat": "37.5687909",
      "lng": "126.9584744",
      "total_count": 12,
      "available_count": 9,
      "total_percent": 75.0,
      "slow_total": 12,
      "slow_avail": 9,
      "slow_percent": 75.0,
      "fast_total": 0,
      "fast_avail": 0,
      "fast_percent": 0.0,
      "latest_update": "20260713221237"
    },
    {
      "station_id": "SF002097",
      "name": "북가좌신일해피트리아파트",
      "address": "서울특별시 서대문구 수색로 147-1",
      "lat": "37.5752125",
      "lng": "126.9044184",
      "total_count": 12,
      "available_count": 9,
      "total_percent": 75.0,
      "slow_total": 12,
      "slow_avail": 9,
      "slow_percent": 75.0,
      "fast_total": 0,
      "fast_avail": 0,
      "fast_percent": 0.0,
      "latest_update": "20260711225021"
    },
    {
      "station_id": "SF002754",
      "name": "연희대우아파트",
      "address": "서울특별시 서대문구 연희로 38-20",
      "lat": "37.562093219",
      "lng": "126.92857640",
      "total_count": 12,
      "available_count": 9,
      "total_percent": 75.0,
      "slow_total": 12,
      "slow_avail": 9,
      "slow_percent": 75.0,
      "fast_total": 0,
      "fast_avail": 0,
      "fast_percent": 0.0,
      "latest_update": "20260713225927"
    },
    {
      "station_id": "EC002659",
      "name": "인왕산힐스테이트 지상주차장",
      "address": "서울특별시 서대문구 통일로34길 46",
      "lat": "37.5859013",
      "lng": "126.9511628",
      "total_count": 11,
      "available_count": 7,
      "total_percent": 63.6,
      "slow_total": 11,
      "slow_avail": 7,
      "slow_percent": 63.6,
      "fast_total": 0,
      "fast_avail": 0,
      "fast_percent": 0.0,
      "latest_update": "20260713201401"
    },
    {
      "station_id": "LU000653",
      "name": "인왕산어울림아파트",
      "address": "서울특별시 서대문구 통일로26길 17",
      "lat": "37.5837564",
      "lng": "126.9509141",
      "total_count": 11,
      "available_count": 11,
      "total_percent": 100.0,
      "slow_total": 11,
      "slow_avail": 11,
      "slow_percent": 100.0,
      "fast_total": 0,
      "fast_avail": 0,
      "fast_percent": 0.0,
      "latest_update": "20260713043711"
    },
    {
      "station_id": "PIH00171",
      "name": "디엠씨이랜드해가든아파트",
      "address": "서울특별시 서대문구 수색로 157",
      "lat": "37.576115600",
      "lng": "126.90294880",
      "total_count": 11,
      "available_count": 9,
      "total_percent": 81.8,
      "slow_total": 11,
      "slow_avail": 9,
      "slow_percent": 81.8,
      "fast_total": 0,
      "fast_avail": 0,
      "fast_percent": 0.0,
      "latest_update": "20260713223230"
    },
    {
      "station_id": "PL030552",
      "name": "힐스테이트 신촌",
      "address": "서울특별시 서대문구 이화여대8길 123",
      "lat": "37.5632227",
      "lng": "126.9502977",
      "total_count": 11,
      "available_count": 6,
      "total_percent": 54.5,
      "slow_total": 11,
      "slow_avail": 6,
      "slow_percent": 54.5,
      "fast_total": 0,
      "fast_avail": 0,
      "fast_percent": 0.0,
      "latest_update": "20260713195703"
    },
    {
      "station_id": "PL031398",
      "name": "서울 홍은풍림아이원",
      "address": "서울 서대문구 홍은중앙로 149",
      "lat": "37.6038943",
      "lng": "126.9473160",
      "total_count": 11,
      "available_count": 9,
      "total_percent": 81.8,
      "slow_total": 10,
      "slow_avail": 8,
      "slow_percent": 80.0,
      "fast_total": 1,
      "fast_avail": 1,
      "fast_percent": 100.0,
      "latest_update": "20260713234902"
    },
    {
      "station_id": "PC000648",
      "name": "신촌럭키아파트(서대문)",
      "address": "서울특별시 서대문구 이화여대길 50-12",
      "lat": "37.5595165",
      "lng": "126.9479600",
      "total_count": 10,
      "available_count": 6,
      "total_percent": 60.0,
      "slow_total": 9,
      "slow_avail": 5,
      "slow_percent": 55.6,
      "fast_total": 1,
      "fast_avail": 1,
      "fast_percent": 100.0,
      "latest_update": "20260713221631"
    },
    {
      "station_id": "PC000650",
      "name": "DMC센트레빌(서대문)",
      "address": "서울특별시 서대문구 거북골로 120",
      "lat": "37.5754833",
      "lng": "126.9160975",
      "total_count": 10,
      "available_count": 10,
      "total_percent": 100.0,
      "slow_total": 9,
      "slow_avail": 9,
      "slow_percent": 100.0,
      "fast_total": 1,
      "fast_avail": 1,
      "fast_percent": 100.0,
      "latest_update": "20260713103415"
    },
    {
      "station_id": "PI200784",
      "name": "서울시 서대문구 인왕산벽산아파트",
      "address": "서울특별시 서대문구 세무서길 106-12",
      "lat": "37.5922066",
      "lng": "126.9484283",
      "total_count": 10,
      "available_count": 6,
      "total_percent": 60.0,
      "slow_total": 10,
      "slow_avail": 6,
      "slow_percent": 60.0,
      "fast_total": 0,
      "fast_avail": 0,
      "fast_percent": 0.0,
      "latest_update": "20260713221637"
    },
    {
      "station_id": "PL033272",
      "name": "홍제현대아파트",
      "address": "서울 서대문구 통일로39가길 57",
      "lat": "37.5899001",
      "lng": "126.9409853",
      "total_count": 10,
      "available_count": 4,
      "total_percent": 40.0,
      "slow_total": 10,
      "slow_avail": 4,
      "slow_percent": 40.0,
      "fast_total": 0,
      "fast_avail": 0,
      "fast_percent": 0.0,
      "latest_update": "20260714000005"
    },
    {
      "station_id": "PWE06097",
      "name": "sk리쳄블오피스텔",
      "address": "서울특별시 서대문구 서소문로 45",
      "lat": "37.561287929",
      "lng": "126.96624816",
      "total_count": 10,
      "available_count": 10,
      "total_percent": 100.0,
      "slow_total": 10,
      "slow_avail": 10,
      "slow_percent": 100.0,
      "fast_total": 0,
      "fast_avail": 0,
      "fast_percent": 0.0,
      "latest_update": "20260519112731"
    },
    {
      "station_id": "EV006963",
      "name": "연세대학교 공학관1",
      "address": "서울특별시 서대문구 연세로 50",
      "lat": "37.5638064",
      "lng": "126.9429309",
      "total_count": 9,
      "available_count": 9,
      "total_percent": 100.0,
      "slow_total": 9,
      "slow_avail": 9,
      "slow_percent": 100.0,
      "fast_total": 0,
      "fast_avail": 0,
      "fast_percent": 0.0,
      "latest_update": "20260713195252"
    },
    {
      "station_id": "EV006969",
      "name": "연세대학교 대우관본관1",
      "address": "서울특별시 서대문구 연세로 50",
      "lat": "37.5638064",
      "lng": "126.9429309",
      "total_count": 9,
      "available_count": 9,
      "total_percent": 100.0,
      "slow_total": 9,
      "slow_avail": 9,
      "slow_percent": 100.0,
      "fast_total": 0,
      "fast_avail": 0,
      "fast_percent": 0.0,
      "latest_update": "20260710155942"
    },
    {
      "station_id": "EV014107",
      "name": "서울서대문 홍제역 해링턴플레이스아파트 4",
      "address": "서울특별시 서대문구 세무서8길 30",
      "lat": "37.590601176",
      "lng": "126.94695210",
      "total_count": 9,
      "available_count": 6,
      "total_percent": 66.7,
      "slow_total": 9,
      "slow_avail": 6,
      "slow_percent": 66.7,
      "fast_total": 0,
      "fast_avail": 0,
      "fast_percent": 0.0,
      "latest_update": "20260713200502"
    },
    {
      "station_id": "NT102609",
      "name": "서대문 북한산더샵",
      "address": "서울특별시 서대문구 통일로 510",
      "lat": "37.59457",
      "lng": "126.94116",
      "total_count": 9,
      "available_count": 6,
      "total_percent": 66.7,
      "slow_total": 9,
      "slow_avail": 6,
      "slow_percent": 66.7,
      "fast_total": 0,
      "fast_avail": 0,
      "fast_percent": 0.0,
      "latest_update": "20260713231550"
    },
    {
      "station_id": "PW801512",
      "name": "홍제금호어울림아파트입주자대표회의(SPB)",
      "address": "서울특별시 서대문구 모래내로 411",
      "lat": "37.585057291",
      "lng": "126.94090860",
      "total_count": 9,
      "available_count": 5,
      "total_percent": 55.6,
      "slow_total": 9,
      "slow_avail": 5,
      "slow_percent": 55.6,
      "fast_total": 0,
      "fast_avail": 0,
      "fast_percent": 0.0,
      "latest_update": "20260713211951"
    },
    {
      "station_id": "EC004797",
      "name": "신촌푸르지오 102동 B5",
      "address": "서울특별시 서대문구 북아현동 1011 신촌푸르지오",
      "lat": "37.5601358",
      "lng": "126.9526906",
      "total_count": 8,
      "available_count": 6,
      "total_percent": 75.0,
      "slow_total": 8,
      "slow_avail": 6,
      "slow_percent": 75.0,
      "fast_total": 0,
      "fast_avail": 0,
      "fast_percent": 0.0,
      "latest_update": "20260713231602"
    },
    {
      "station_id": "EV002219",
      "name": "연세대학교",
      "address": "서울특별시 서대문구 연세로 50",
      "lat": "37.5638048",
      "lng": "126.9429316",
      "total_count": 8,
      "available_count": 8,
      "total_percent": 100.0,
      "slow_total": 8,
      "slow_avail": 8,
      "slow_percent": 100.0,
      "fast_total": 0,
      "fast_avail": 0,
      "fast_percent": 0.0,
      "latest_update": "20260713222031"
    },
    {
      "station_id": "EV006970",
      "name": "연세대학교 대우관본관2",
      "address": "서울특별시 서대문구 연세로 50",
      "lat": "37.5638064",
      "lng": "126.9429309",
      "total_count": 8,
      "available_count": 8,
      "total_percent": 100.0,
      "slow_total": 8,
      "slow_avail": 8,
      "slow_percent": 100.0,
      "fast_total": 0,
      "fast_avail": 0,
      "fast_percent": 0.0,
      "latest_update": "20260713164040"
    },
    {
      "station_id": "NT101182",
      "name": "북가좌 삼호아파트",
      "address": "서울특별시 서대문구 거북골로 154",
      "lat": "37.575752760",
      "lng": "126.91275321",
      "total_count": 8,
      "available_count": 5,
      "total_percent": 62.5,
      "slow_total": 8,
      "slow_avail": 5,
      "slow_percent": 62.5,
      "fast_total": 0,
      "fast_avail": 0,
      "fast_percent": 0.0,
      "latest_update": "20260713204650"
    },
    {
      "station_id": "PI200786",
      "name": "서울시 서대문구 북한산더샵",
      "address": "서울특별시 서대문구 통일로 510",
      "lat": "37.5945702",
      "lng": "126.9411674",
      "total_count": 8,
      "available_count": 8,
      "total_percent": 100.0,
      "slow_total": 8,
      "slow_avail": 8,
      "slow_percent": 100.0,
      "fast_total": 0,
      "fast_avail": 0,
      "fast_percent": 0.0,
      "latest_update": "20260713214718"
    },
    {
      "station_id": "PI690037",
      "name": "BMW차징스테이션 연세대학교 by도이치모터스",
      "address": "서울특별시 서대문구 연세로 50",
      "lat": "37.5624101",
      "lng": "126.9326952",
      "total_count": 8,
      "available_count": 8,
      "total_percent": 100.0,
      "slow_total": 2,
      "slow_avail": 2,
      "slow_percent": 100.0,
      "fast_total": 6,
      "fast_avail": 6,
      "fast_percent": 100.0,
      "latest_update": "20260713134813"
    },
    {
      "station_id": "PK000020",
      "name": "연일교통",
      "address": "서울특별시 서대문구 모래내로 327",
      "lat": "37.5799498",
      "lng": "126.9332523",
      "total_count": 8,
      "available_count": 6,
      "total_percent": 75.0,
      "slow_total": 0,
      "slow_avail": 0,
      "slow_percent": 0.0,
      "fast_total": 8,
      "fast_avail": 6,
      "fast_percent": 75.0,
      "latest_update": "20260713234042"
    },
    {
      "station_id": "PK000077",
      "name": "현대교통 홍은동차고지",
      "address": "서울특별시 서대문구 모래내로 289",
      "lat": "37.5782258",
      "lng": "126.9296981",
      "total_count": 8,
      "available_count": 4,
      "total_percent": 50.0,
      "slow_total": 0,
      "slow_avail": 0,
      "slow_percent": 0.0,
      "fast_total": 8,
      "fast_avail": 4,
      "fast_percent": 50.0,
      "latest_update": "20260713235147"
    },
    {
      "station_id": "PL000603",
      "name": "추계예술대학교",
      "address": "서울특별시 서대문구 북아현로11가길 7",
      "lat": "37.5631767",
      "lng": "126.9540593",
      "total_count": 8,
      "available_count": 8,
      "total_percent": 100.0,
      "slow_total": 8,
      "slow_avail": 8,
      "slow_percent": 100.0,
      "fast_total": 0,
      "fast_avail": 0,
      "fast_percent": 0.0,
      "latest_update": "20260713215605"
    },
    {
      "station_id": "PW100661",
      "name": "DMC래미안E편한세상2단지",
      "address": "서울특별시 서대문구 수색로 100",
      "lat": "37.574727187",
      "lng": "126.90781488",
      "total_count": 8,
      "available_count": 0,
      "total_percent": 0.0,
      "slow_total": 8,
      "slow_avail": 0,
      "slow_percent": 0.0,
      "fast_total": 0,
      "fast_avail": 0,
      "fast_percent": 0.0,
      "latest_update": "20260519112153"
    },
    {
      "station_id": "EV000475",
      "name": "이화여자대학교",
      "address": "서울특별시 서대문구 이화여대길 52",
      "lat": "37.5602003",
      "lng": "126.9455601",
      "total_count": 7,
      "available_count": 5,
      "total_percent": 71.4,
      "slow_total": 7,
      "slow_avail": 5,
      "slow_percent": 71.4,
      "fast_total": 0,
      "fast_avail": 0,
      "fast_percent": 0.0,
      "latest_update": "20260713222235"
    },
    {
      "station_id": "EV006972",
      "name": "연세대학교 SK국제학사",
      "address": "서울특별시 서대문구 연세로 50",
      "lat": "37.5638064",
      "lng": "126.9429309",
      "total_count": 7,
      "available_count": 7,
      "total_percent": 100.0,
      "slow_total": 7,
      "slow_avail": 7,
      "slow_percent": 100.0,
      "fast_total": 0,
      "fast_avail": 0,
      "fast_percent": 0.0,
      "latest_update": "20260713174121"
    },
    {
      "station_id": "EV014495",
      "name": "서울서대문 이화여대 신촌캠퍼스 2",
      "address": "서울특별시 서대문구 이화여대길 52",
      "lat": "37.5610926",
      "lng": "126.9462839",
      "total_count": 7,
      "available_count": 5,
      "total_percent": 71.4,
      "slow_total": 7,
      "slow_avail": 5,
      "slow_percent": 71.4,
      "fast_total": 0,
      "fast_avail": 0,
      "fast_percent": 0.0,
      "latest_update": "20260713191227"
    },
    {
      "station_id": "EV016166",
      "name": "서울서대문 디엠씨금호리첸시아 5",
      "address": "서울특별시 서대문구 수색로2길 39 (남가좌동, DMC금호리첸시아)",
      "lat": "37.5713139",
      "lng": "126.9159047",
      "total_count": 7,
      "available_count": 6,
      "total_percent": 85.7,
      "slow_total": 7,
      "slow_avail": 6,
      "slow_percent": 85.7,
      "fast_total": 0,
      "fast_avail": 0,
      "fast_percent": 0.0,
      "latest_update": "20260713180135"
    },
    {
      "station_id": "EZ210046",
      "name": "문화촌현대아파트 입주자대표회의(콘센트)",
      "address": "서울특별시 서대문구 문화촌길 6-24",
      "lat": "37.5929261",
      "lng": "126.9494069",
      "total_count": 7,
      "available_count": 0,
      "total_percent": 0.0,
      "slow_total": 7,
      "slow_avail": 0,
      "slow_percent": 0.0,
      "fast_total": 0,
      "fast_avail": 0,
      "fast_percent": 0.0,
      "latest_update": "20260601113310"
    },
    {
      "station_id": "HY001526",
      "name": "서대문 DMC한양아파트",
      "address": "서울특별시 서대문구 응암로 28",
      "lat": "37.5758934",
      "lng": "126.9090972",
      "total_count": 7,
      "available_count": 2,
      "total_percent": 28.6,
      "slow_total": 7,
      "slow_avail": 2,
      "slow_percent": 28.6,
      "fast_total": 0,
      "fast_avail": 0,
      "fast_percent": 0.0,
      "latest_update": "20260713220604"
    },
    {
      "station_id": "KL002374",
      "name": "북한산두산위브아파트1",
      "address": "서울특별시 서대문구 홍은중앙로3길 9",
      "lat": "37.599",
      "lng": "126.94465",
      "total_count": 7,
      "available_count": 4,
      "total_percent": 57.1,
      "slow_total": 7,
      "slow_avail": 4,
      "slow_percent": 57.1,
      "fast_total": 0,
      "fast_avail": 0,
      "fast_percent": 0.0,
      "latest_update": "20260713233501"
    },
    {
      "station_id": "PC000177",
      "name": "DMC에코자이(서대문)",
      "address": "서울특별시 서대문구 거북골로 84",
      "lat": "37.577439",
      "lng": "126.919147",
      "total_count": 7,
      "available_count": 4,
      "total_percent": 57.1,
      "slow_total": 6,
      "slow_avail": 3,
      "slow_percent": 50.0,
      "fast_total": 1,
      "fast_avail": 1,
      "fast_percent": 100.0,
      "latest_update": "20260713225656"
    },
    {
      "station_id": "SF002962",
      "name": "아현성결교회 (완속충전기)",
      "address": "서울특별시 서대문구 신촌로 331",
      "lat": "37.559842230",
      "lng": "126.96165936",
      "total_count": 7,
      "available_count": 7,
      "total_percent": 100.0,
      "slow_total": 7,
      "slow_avail": 7,
      "slow_percent": 100.0,
      "fast_total": 0,
      "fast_avail": 0,
      "fast_percent": 0.0,
      "latest_update": "20260712134444"
    },
    {
      "station_id": "BNBN0847",
      "name": "서대문구 북성초등학교 공영주차장",
      "address": "서울특별시 서대문구 북아현로1나길 22",
      "lat": "37.5588696",
      "lng": "126.9519444",
      "total_count": 6,
      "available_count": 5,
      "total_percent": 83.3,
      "slow_total": 2,
      "slow_avail": 2,
      "slow_percent": 100.0,
      "fast_total": 4,
      "fast_avail": 3,
      "fast_percent": 75.0,
      "latest_update": "20260713082718"
    },
    {
      "station_id": "ER000620",
      "name": "디엠씨두산위브",
      "address": "서울 서대문구 증가로 200-8",
      "lat": "37.5798835",
      "lng": "126.9171554",
      "total_count": 6,
      "available_count": 5,
      "total_percent": 83.3,
      "slow_total": 6,
      "slow_avail": 5,
      "slow_percent": 83.3,
      "fast_total": 0,
      "fast_avail": 0,
      "fast_percent": 0.0,
      "latest_update": "20260713193027"
    },
    {
      "station_id": "EV001917",
      "name": "남가좌현대아파트C",
      "address": "서울특별시 서대문구 가재울로 45",
      "lat": "37.57439",
      "lng": "126.920402",
      "total_count": 6,
      "available_count": 0,
      "total_percent": 0.0,
      "slow_total": 6,
      "slow_avail": 0,
      "slow_percent": 0.0,
      "fast_total": 0,
      "fast_avail": 0,
      "fast_percent": 0.0,
      "latest_update": "20260712213810"
    },
    {
      "station_id": "EV006967",
      "name": "연세대학교 백양누리1",
      "address": "서울특별시 서대문구 연세로 50",
      "lat": "37.5638064",
      "lng": "126.9429309",
      "total_count": 6,
      "available_count": 3,
      "total_percent": 50.0,
      "slow_total": 6,
      "slow_avail": 3,
      "slow_percent": 50.0,
      "fast_total": 0,
      "fast_avail": 0,
      "fast_percent": 0.0,
      "latest_update": "20260713201308"
    },
    {
      "station_id": "EV006968",
      "name": "연세대학교 백양누리2",
      "address": "서울특별시 서대문구 연세로 50",
      "lat": "37.563667858",
      "lng": "126.94292040",
      "total_count": 6,
      "available_count": 5,
      "total_percent": 83.3,
      "slow_total": 6,
      "slow_avail": 5,
      "slow_percent": 83.3,
      "fast_total": 0,
      "fast_avail": 0,
      "fast_percent": 0.0,
      "latest_update": "20260713215012"
    },
    {
      "station_id": "EV014106",
      "name": "서울서대문 홍제역 해링턴플레이스아파트 3",
      "address": "서울특별시 서대문구 세무서8길 30",
      "lat": "37.590601176",
      "lng": "126.94695210",
      "total_count": 6,
      "available_count": 4,
      "total_percent": 66.7,
      "slow_total": 6,
      "slow_avail": 4,
      "slow_percent": 66.7,
      "fast_total": 0,
      "fast_avail": 0,
      "fast_percent": 0.0,
      "latest_update": "20260714000334"
    },
    {
      "station_id": "EV014108",
      "name": "서울서대문 홍제역 해링턴플레이스아파트 5",
      "address": "서울특별시 서대문구 세무서8길 30",
      "lat": "37.590601176",
      "lng": "126.94695210",
      "total_count": 6,
      "available_count": 6,
      "total_percent": 100.0,
      "slow_total": 6,
      "slow_avail": 6,
      "slow_percent": 100.0,
      "fast_total": 0,
      "fast_avail": 0,
      "fast_percent": 0.0,
      "latest_update": "20260713102626"
    },
    {
      "station_id": "EV014496",
      "name": "서울서대문 이화여대 신촌캠퍼스 3",
      "address": "서울특별시 서대문구 이화여대길 52",
      "lat": "37.5644100",
      "lng": "126.9502657",
      "total_count": 6,
      "available_count": 6,
      "total_percent": 100.0,
      "slow_total": 6,
      "slow_avail": 6,
      "slow_percent": 100.0,
      "fast_total": 0,
      "fast_avail": 0,
      "fast_percent": 0.0,
      "latest_update": "20260713193403"
    },
    {
      "station_id": "EV014556",
      "name": "서울서대문 스위스그랜드호텔 1",
      "address": "서울특별시 서대문구 연희로 353",
      "lat": "37.5897832",
      "lng": "126.9342840",
      "total_count": 6,
      "available_count": 5,
      "total_percent": 83.3,
      "slow_total": 6,
      "slow_avail": 5,
      "slow_percent": 83.3,
      "fast_total": 0,
      "fast_avail": 0,
      "fast_percent": 0.0,
      "latest_update": "20260713195654"
    },
    {
      "station_id": "EV016167",
      "name": "서울서대문 디엠씨금호리첸시아 6",
      "address": "서울특별시 서대문구 수색로2길 39 (남가좌동, DMC금호리첸시아)",
      "lat": "37.5713139",
      "lng": "126.9159047",
      "total_count": 6,
      "available_count": 5,
      "total_percent": 83.3,
      "slow_total": 6,
      "slow_avail": 5,
      "slow_percent": 83.3,
      "fast_total": 0,
      "fast_avail": 0,
      "fast_percent": 0.0,
      "latest_update": "20260713173316"
    },
    {
      "station_id": "HM001069",
      "name": "_풍산빌딩",
      "address": "서울특별시 서대문구 충정로 23",
      "lat": "37.5611531",
      "lng": "126.9629504",
      "total_count": 6,
      "available_count": 6,
      "total_percent": 100.0,
      "slow_total": 6,
      "slow_avail": 6,
      "slow_percent": 100.0,
      "fast_total": 0,
      "fast_avail": 0,
      "fast_percent": 0.0,
      "latest_update": "20260713231014"
    },
    {
      "station_id": "HM110020",
      "name": "_KT&G서대문타워",
      "address": "서울특별시 서대문구 충정로 60",
      "lat": "37.5638626",
      "lng": "126.9661549",
      "total_count": 6,
      "available_count": 6,
      "total_percent": 100.0,
      "slow_total": 6,
      "slow_avail": 6,
      "slow_percent": 100.0,
      "fast_total": 0,
      "fast_avail": 0,
      "fast_percent": 0.0,
      "latest_update": "20260713210618"
    },
    {
      "station_id": "HY000721",
      "name": "현대백화점 신촌점",
      "address": "서울특별시 서대문구 신촌로 83",
      "lat": "37.5560831",
      "lng": "126.9358449",
      "total_count": 6,
      "available_count": 6,
      "total_percent": 100.0,
      "slow_total": 6,
      "slow_avail": 6,
      "slow_percent": 100.0,
      "fast_total": 0,
      "fast_avail": 0,
      "fast_percent": 0.0,
      "latest_update": "20260712205103"
    },
    {
      "station_id": "KL001820",
      "name": "명지전문대학_01",
      "address": "서울특별시 서대문구 가좌로 134",
      "lat": "37.5846502",
      "lng": "126.9254007",
      "total_count": 6,
      "available_count": 6,
      "total_percent": 100.0,
      "slow_total": 6,
      "slow_avail": 6,
      "slow_percent": 100.0,
      "fast_total": 0,
      "fast_avail": 0,
      "fast_percent": 0.0,
      "latest_update": "20260713114701"
    },
    {
      "station_id": "KL002279",
      "name": "솔베이스페셜",
      "address": "서울특별시 서대문구 북아현로 150",
      "lat": "37.56848",
      "lng": "126.95066",
      "total_count": 6,
      "available_count": 6,
      "total_percent": 100.0,
      "slow_total": 6,
      "slow_avail": 6,
      "slow_percent": 100.0,
      "fast_total": 0,
      "fast_avail": 0,
      "fast_percent": 0.0,
      "latest_update": "20260713154201"
    },
    {
      "station_id": "KP003601",
      "name": "DMC센트럴아이파크아파트",
      "address": "서울특별시 서대문구 남가좌동 388",
      "lat": "37.57936243404",
      "lng": "126.9208402685",
      "total_count": 6,
      "available_count": 0,
      "total_percent": 0.0,
      "slow_total": 6,
      "slow_avail": 0,
      "slow_percent": 0.0,
      "fast_total": 0,
      "fast_avail": 0,
      "fast_percent": 0.0,
      "latest_update": "20260324153346"
    },
    {
      "station_id": "NT101943",
      "name": "서대문 홍제삼성래미안아파트",
      "address": "서울특별시 서대문구 통일로 319",
      "lat": "37.57818",
      "lng": "126.95195",
      "total_count": 6,
      "available_count": 2,
      "total_percent": 33.3,
      "slow_total": 6,
      "slow_avail": 2,
      "slow_percent": 33.3,
      "fast_total": 0,
      "fast_avail": 0,
      "fast_percent": 0.0,
      "latest_update": "20260713220950"
    },
    {
      "station_id": "NT102565",
      "name": "서대문 DMC센트럴아이파크",
      "address": "서울특별시 서대문구 증가로 150",
      "lat": "37.57805",
      "lng": "126.92101",
      "total_count": 6,
      "available_count": 1,
      "total_percent": 16.7,
      "slow_total": 6,
      "slow_avail": 1,
      "slow_percent": 16.7,
      "fast_total": 0,
      "fast_avail": 0,
      "fast_percent": 0.0,
      "latest_update": "20260713211950"
    },
    {
      "station_id": "PI122359",
      "name": "북가좌삼호아파트",
      "address": "서울특별시 서대문구 거북골로 154 (북가좌동, 북가좌삼호아파트) 101동~105동",
      "lat": "37.576671",
      "lng": "126.912948",
      "total_count": 6,
      "available_count": 4,
      "total_percent": 66.7,
      "slow_total": 6,
      "slow_avail": 4,
      "slow_percent": 66.7,
      "fast_total": 0,
      "fast_avail": 0,
      "fast_percent": 0.0,
      "latest_update": "20260713200813"
    },
    {
      "station_id": "PI200375",
      "name": "서울시 서대문구 홍제청구3차아파트",
      "address": "서울특별시 서대문구 통일로 332",
      "lat": "37.5804773",
      "lng": "126.9525194",
      "total_count": 6,
      "available_count": 5,
      "total_percent": 83.3,
      "slow_total": 6,
      "slow_avail": 5,
      "slow_percent": 83.3,
      "fast_total": 0,
      "fast_avail": 0,
      "fast_percent": 0.0,
      "latest_update": "20260711075559"
    },
    {
      "station_id": "PI200999",
      "name": "서울시 서대문구 동부센트레빌",
      "address": "서울특별시 서대문구 독립문로14길 74",
      "lat": "37.566382489",
      "lng": "126.95981056",
      "total_count": 6,
      "available_count": 3,
      "total_percent": 50.0,
      "slow_total": 6,
      "slow_avail": 3,
      "slow_percent": 50.0,
      "fast_total": 0,
      "fast_avail": 0,
      "fast_percent": 0.0,
      "latest_update": "20260713222123"
    },
    {
      "station_id": "PI708221",
      "name": "디엠씨센트럴아이파크아파트",
      "address": "서울특별시 서대문구 증가로 150",
      "lat": "37.5780548",
      "lng": "126.9210192",
      "total_count": 6,
      "available_count": 0,
      "total_percent": 0.0,
      "slow_total": 6,
      "slow_avail": 0,
      "slow_percent": 0.0,
      "fast_total": 0,
      "fast_avail": 0,
      "fast_percent": 0.0,
      "latest_update": "20260713212010"
    },
    {
      "station_id": "PI718548",
      "name": "감리교신학대학교",
      "address": "서울특별시 서대문구 독립문로 56",
      "lat": "37.5679168",
      "lng": "126.9618924",
      "total_count": 6,
      "available_count": 6,
      "total_percent": 100.0,
      "slow_total": 6,
      "slow_avail": 6,
      "slow_percent": 100.0,
      "fast_total": 0,
      "fast_avail": 0,
      "fast_percent": 0.0,
      "latest_update": "20260711225701"
    },
    {
      "station_id": "PI755202",
      "name": "예스택시",
      "address": "서울특별시 서대문구 응암로 127-4",
      "lat": "37.5840268",
      "lng": "126.9141155",
      "total_count": 6,
      "available_count": 6,
      "total_percent": 100.0,
      "slow_total": 2,
      "slow_avail": 2,
      "slow_percent": 100.0,
      "fast_total": 4,
      "fast_avail": 4,
      "fast_percent": 100.0,
      "latest_update": "20260713133541"
    },
    {
      "station_id": "PI769711",
      "name": "DMC파크뷰자이 4단지 지하 2층",
      "address": "서울특별시 서대문구 가재울미래로 2",
      "lat": "37.571654038",
      "lng": "126.91484407",
      "total_count": 6,
      "available_count": 4,
      "total_percent": 66.7,
      "slow_total": 6,
      "slow_avail": 4,
      "slow_percent": 66.7,
      "fast_total": 0,
      "fast_avail": 0,
      "fast_percent": 0.0,
      "latest_update": "20260713232654"
    },
    {
      "station_id": "PIH00203",
      "name": "비버리힐아파트",
      "address": "서울특별시 서대문구 북아현로22나길 67",
      "lat": "37.565659800",
      "lng": "126.95630100",
      "total_count": 6,
      "available_count": 6,
      "total_percent": 100.0,
      "slow_total": 6,
      "slow_avail": 6,
      "slow_percent": 100.0,
      "fast_total": 0,
      "fast_avail": 0,
      "fast_percent": 0.0,
      "latest_update": "20260630081456"
    },
    {
      "station_id": "PIH00482",
      "name": "디엠씨쌍용스윗닷홈아파트",
      "address": "서울특별시 서대문구 거북골로 91-6",
      "lat": "37.5754684",
      "lng": "126.9195484",
      "total_count": 6,
      "available_count": 6,
      "total_percent": 100.0,
      "slow_total": 6,
      "slow_avail": 6,
      "slow_percent": 100.0,
      "fast_total": 0,
      "fast_avail": 0,
      "fast_percent": 0.0,
      "latest_update": "20260711085201"
    },
    {
      "station_id": "PL033054",
      "name": "북가좌삼호아파트",
      "address": "서울 서대문구 거북골로 154",
      "lat": "37.5765626",
      "lng": "126.9137835",
      "total_count": 6,
      "available_count": 3,
      "total_percent": 50.0,
      "slow_total": 6,
      "slow_avail": 3,
      "slow_percent": 50.0,
      "fast_total": 0,
      "fast_avail": 0,
      "fast_percent": 0.0,
      "latest_update": "20260713220007"
    },
    {
      "station_id": "PW010505",
      "name": "인왕산힐스테이트아파트",
      "address": "서울특별시 서대문구 통일로34길 46",
      "lat": "37.585857141522",
      "lng": "126.9499570347",
      "total_count": 6,
      "available_count": 6,
      "total_percent": 100.0,
      "slow_total": 6,
      "slow_avail": 6,
      "slow_percent": 100.0,
      "fast_total": 0,
      "fast_avail": 0,
      "fast_percent": 0.0,
      "latest_update": "20260713072810"
    },
    {
      "station_id": "PW100662",
      "name": "DMC래미안E편한세상3단지",
      "address": "서울특별시 서대문구 수색로 100",
      "lat": "37.574727187",
      "lng": "126.90781488",
      "total_count": 6,
      "available_count": 0,
      "total_percent": 0.0,
      "slow_total": 6,
      "slow_avail": 0,
      "slow_percent": 0.0,
      "fast_total": 0,
      "fast_avail": 0,
      "fast_percent": 0.0,
      "latest_update": "20260519112153"
    },
    {
      "station_id": "PW801384",
      "name": "홍제성원아파트입주자대표회의25",
      "address": "서울특별시 서대문구 모래내로 430",
      "lat": "37.583619522",
      "lng": "126.94225475",
      "total_count": 6,
      "available_count": 4,
      "total_percent": 66.7,
      "slow_total": 6,
      "slow_avail": 4,
      "slow_percent": 66.7,
      "fast_total": 0,
      "fast_avail": 0,
      "fast_percent": 0.0,
      "latest_update": "20260713235536"
    },
    {
      "station_id": "PWE05211",
      "name": "dmc래미안e편한세상4단지",
      "address": "서울특별시 서대문구 수색로 100",
      "lat": "37.577089",
      "lng": "126.910172",
      "total_count": 6,
      "available_count": 6,
      "total_percent": 100.0,
      "slow_total": 6,
      "slow_avail": 6,
      "slow_percent": 100.0,
      "fast_total": 0,
      "fast_avail": 0,
      "fast_percent": 0.0,
      "latest_update": "20260713055511"
    },
    {
      "station_id": "SE000201",
      "name": "독립문문화공원 지하공영주차장 ",
      "address": "서울특별시 서대문구 성산로 700",
      "lat": "37.571511221",
      "lng": "126.95979671",
      "total_count": 6,
      "available_count": 6,
      "total_percent": 100.0,
      "slow_total": 0,
      "slow_avail": 0,
      "slow_percent": 0.0,
      "fast_total": 6,
      "fast_avail": 6,
      "fast_percent": 100.0,
      "latest_update": "20260713230921"
    },
    {
      "station_id": "CGA00088",
      "name": "서대문 골든타워(옥외주차장)",
      "address": "서울특별시 서대문구 충정로 53",
      "lat": "37.5637512",
      "lng": "126.9646327",
      "total_count": 5,
      "available_count": 5,
      "total_percent": 100.0,
      "slow_total": 5,
      "slow_avail": 5,
      "slow_percent": 100.0,
      "fast_total": 0,
      "fast_avail": 0,
      "fast_percent": 0.0,
      "latest_update": "20260713184512"
    },
    {
      "station_id": "CV002836",
      "name": "래미안남가좌2차아파트",
      "address": "서울특별시 서대문구 수색로6길 43",
      "lat": "37.5715704",
      "lng": "126.9129973",
      "total_count": 5,
      "available_count": 3,
      "total_percent": 60.0,
      "slow_total": 5,
      "slow_avail": 3,
      "slow_percent": 60.0,
      "fast_total": 0,
      "fast_avail": 0,
      "fast_percent": 0.0,
      "latest_update": "20260714000537"
    },
    {
      "station_id": "EC004799",
      "name": "신촌푸르지오 202동 B4",
      "address": "서울특별시 서대문구 북아현로1길 50",
      "lat": "37.560073",
      "lng": "126.9534602",
      "total_count": 5,
      "available_count": 2,
      "total_percent": 40.0,
      "slow_total": 5,
      "slow_avail": 2,
      "slow_percent": 40.0,
      "fast_total": 0,
      "fast_avail": 0,
      "fast_percent": 0.0,
      "latest_update": "20260713232402"
    },
    {
      "station_id": "EC004800",
      "name": "신촌푸르지오 207동 B4",
      "address": "서울특별시 서대문구 북아현로1길 50",
      "lat": "37.5610146",
      "lng": "126.9536804",
      "total_count": 5,
      "available_count": 4,
      "total_percent": 80.0,
      "slow_total": 5,
      "slow_avail": 4,
      "slow_percent": 80.0,
      "fast_total": 0,
      "fast_avail": 0,
      "fast_percent": 0.0,
      "latest_update": "20260713185802"
    },
    {
      "station_id": "EC004904",
      "name": "래미안남가좌2차 B2 C02기둥",
      "address": "서울특별시 서대문구 수색로6길 43",
      "lat": "37.572213",
      "lng": "126.9135744",
      "total_count": 5,
      "available_count": 2,
      "total_percent": 40.0,
      "slow_total": 5,
      "slow_avail": 2,
      "slow_percent": 40.0,
      "fast_total": 0,
      "fast_avail": 0,
      "fast_percent": 0.0,
      "latest_update": "20260713223202"
    },
    {
      "station_id": "EV003844",
      "name": "서울서대문 월드컵현대아파트1",
      "address": "서울특별시 서대문구 수색로 154",
      "lat": "37.576526862",
      "lng": "126.90400761",
      "total_count": 5,
      "available_count": 3,
      "total_percent": 60.0,
      "slow_total": 5,
      "slow_avail": 3,
      "slow_percent": 60.0,
      "fast_total": 0,
      "fast_avail": 0,
      "fast_percent": 0.0,
      "latest_update": "20260713220019"
    },
    {
      "station_id": "EV006964",
      "name": "연세대학교 공학관2",
      "address": "서울특별시 서대문구 연세로 50",
      "lat": "37.5638064",
      "lng": "126.9429309",
      "total_count": 5,
      "available_count": 5,
      "total_percent": 100.0,
      "slow_total": 5,
      "slow_avail": 5,
      "slow_percent": 100.0,
      "fast_total": 0,
      "fast_avail": 0,
      "fast_percent": 0.0,
      "latest_update": "20260713192231"
    },
    {
      "station_id": "EV006966",
      "name": "연세대학교 공학관4",
      "address": "서울특별시 서대문구 연세로 50",
      "lat": "37.5638064",
      "lng": "126.9429309",
      "total_count": 5,
      "available_count": 5,
      "total_percent": 100.0,
      "slow_total": 5,
      "slow_avail": 5,
      "slow_percent": 100.0,
      "fast_total": 0,
      "fast_avail": 0,
      "fast_percent": 0.0,
      "latest_update": "20260710155741"
    },
    {
      "station_id": "EV007053",
      "name": "서울서대문 홍은두산아파트",
      "address": "서울특별시 서대문구 모래내로 309",
      "lat": "37.5788948",
      "lng": "126.9314903",
      "total_count": 5,
      "available_count": 4,
      "total_percent": 80.0,
      "slow_total": 5,
      "slow_avail": 4,
      "slow_percent": 80.0,
      "fast_total": 0,
      "fast_avail": 0,
      "fast_percent": 0.0,
      "latest_update": "20260713220019"
    },
    {
      "station_id": "EV014109",
      "name": "서울서대문 홍제역 해링턴플레이스아파트 6",
      "address": "서울특별시 서대문구 세무서8길 30",
      "lat": "37.590601176",
      "lng": "126.94695210",
      "total_count": 5,
      "available_count": 4,
      "total_percent": 80.0,
      "slow_total": 5,
      "slow_avail": 4,
      "slow_percent": 80.0,
      "fast_total": 0,
      "fast_avail": 0,
      "fast_percent": 0.0,
      "latest_update": "20260713221226"
    },
    {
      "station_id": "EV014110",
      "name": "서울서대문 홍제역 해링턴플레이스아파트 7",
      "address": "서울특별시 서대문구 세무서8길 30 (홍제동, 홍제역해링턴플레이스)",
      "lat": "37.5906012",
      "lng": "126.9469521",
      "total_count": 5,
      "available_count": 4,
      "total_percent": 80.0,
      "slow_total": 5,
      "slow_avail": 4,
      "slow_percent": 80.0,
      "fast_total": 0,
      "fast_avail": 0,
      "fast_percent": 0.0,
      "latest_update": "20260713215213"
    },
    {
      "station_id": "EV014557",
      "name": "서울서대문 스위스그랜드호텔 2",
      "address": "서울특별시 서대문구 연희로 353",
      "lat": "37.5897653",
      "lng": "126.9345105",
      "total_count": 5,
      "available_count": 4,
      "total_percent": 80.0,
      "slow_total": 5,
      "slow_avail": 4,
      "slow_percent": 80.0,
      "fast_total": 0,
      "fast_avail": 0,
      "fast_percent": 0.0,
      "latest_update": "20260713214007"
    },
    {
      "station_id": "EV018067",
      "name": "서울서대문 홍은동원베네스트아파트 1",
      "address": "서울 서대문구 홍은중앙로1길 65",
      "lat": "37.5984834",
      "lng": "126.9444566",
      "total_count": 5,
      "available_count": 3,
      "total_percent": 60.0,
      "slow_total": 5,
      "slow_avail": 3,
      "slow_percent": 60.0,
      "fast_total": 0,
      "fast_avail": 0,
      "fast_percent": 0.0,
      "latest_update": "20260713220823"
    },
    {
      "station_id": "HM000084",
      "name": "_테라운드빌딩_신촌",
      "address": "서울특별시 서대문구 신촌로 73",
      "lat": "37.5563071",
      "lng": "126.9345204",
      "total_count": 5,
      "available_count": 5,
      "total_percent": 100.0,
      "slow_total": 5,
      "slow_avail": 5,
      "slow_percent": 100.0,
      "fast_total": 0,
      "fast_avail": 0,
      "fast_percent": 0.0,
      "latest_update": "20260713230001"
    },
    {
      "station_id": "HM000648",
      "name": "_농협생명빌딩(서관)",
      "address": "서울특별시 서대문구 통일로39길 81",
      "lat": "37.5624753",
      "lng": "126.968894",
      "total_count": 5,
      "available_count": 5,
      "total_percent": 100.0,
      "slow_total": 3,
      "slow_avail": 3,
      "slow_percent": 100.0,
      "fast_total": 2,
      "fast_avail": 2,
      "fast_percent": 100.0,
      "latest_update": "20260713162611"
    },
    {
      "station_id": "HM000700",
      "name": "_농협생명빌딩(동관)",
      "address": "서울특별시 서대문구 통일로 87",
      "lat": "37.5627767",
      "lng": "126.9685128",
      "total_count": 5,
      "available_count": 2,
      "total_percent": 40.0,
      "slow_total": 3,
      "slow_avail": 2,
      "slow_percent": 66.7,
      "fast_total": 2,
      "fast_avail": 0,
      "fast_percent": 0.0,
      "latest_update": "20260713215809"
    },
    {
      "station_id": "HY001092",
      "name": "서대문 홍제남양아파트",
      "address": "서울특별시 서대문구 홍제내길 168",
      "lat": "37.5887177",
      "lng": "126.9378537",
      "total_count": 5,
      "available_count": 4,
      "total_percent": 80.0,
      "slow_total": 5,
      "slow_avail": 4,
      "slow_percent": 80.0,
      "fast_total": 0,
      "fast_avail": 0,
      "fast_percent": 0.0,
      "latest_update": "20260713140405"
    },
    {
      "station_id": "IN120006",
      "name": "유원하나아파트",
      "address": "서울특별시 서대문구 세검정로 134",
      "lat": "37.59495",
      "lng": "126.951849",
      "total_count": 5,
      "available_count": 0,
      "total_percent": 0.0,
      "slow_total": 5,
      "slow_avail": 0,
      "slow_percent": 0.0,
      "fast_total": 0,
      "fast_avail": 0,
      "fast_percent": 0.0,
      "latest_update": "20260615122834"
    },
    {
      "station_id": "JA110083",
      "name": "서울 서대문구 구세군빌딩 지하5층",
      "address": "서울특별시 서대문구 충정로 7",
      "lat": "37.5601212",
      "lng": "126.9622119",
      "total_count": 5,
      "available_count": 4,
      "total_percent": 80.0,
      "slow_total": 5,
      "slow_avail": 4,
      "slow_percent": 80.0,
      "fast_total": 0,
      "fast_avail": 0,
      "fast_percent": 0.0,
      "latest_update": "20260713171006"
    },
    {
      "station_id": "KL001925",
      "name": "북한산두산위브아파트",
      "address": "서울특별시 서대문구 홍은중앙로3길 9",
      "lat": "37.598222",
      "lng": "126.9452041",
      "total_count": 5,
      "available_count": 2,
      "total_percent": 40.0,
      "slow_total": 5,
      "slow_avail": 2,
      "slow_percent": 40.0,
      "fast_total": 0,
      "fast_avail": 0,
      "fast_percent": 0.0,
      "latest_update": "20260713234102"
    },
    {
      "station_id": "KL001957",
      "name": "래미안루센티아",
      "address": "서울특별시 서대문구 거북골로 100",
      "lat": "37.575726",
      "lng": "126.9183539",
      "total_count": 5,
      "available_count": 5,
      "total_percent": 100.0,
      "slow_total": 5,
      "slow_avail": 5,
      "slow_percent": 100.0,
      "fast_total": 0,
      "fast_avail": 0,
      "fast_percent": 0.0,
      "latest_update": "20260711045001"
    },
    {
      "station_id": "KL001967",
      "name": "디엠씨에코자이아파트",
      "address": "서울특별시 서대문구 거북골로 84",
      "lat": "37.5774713",
      "lng": "126.9191564",
      "total_count": 5,
      "available_count": 4,
      "total_percent": 80.0,
      "slow_total": 5,
      "slow_avail": 4,
      "slow_percent": 80.0,
      "fast_total": 0,
      "fast_avail": 0,
      "fast_percent": 0.0,
      "latest_update": "20260713232501"
    },
    {
      "station_id": "KP000808",
      "name": "DMC래미안e편한세상",
      "address": "서울특별시 서대문구 북가좌동 수색로 100",
      "lat": "37.5747279098",
      "lng": "126.9078169254",
      "total_count": 5,
      "available_count": 3,
      "total_percent": 60.0,
      "slow_total": 4,
      "slow_avail": 2,
      "slow_percent": 50.0,
      "fast_total": 1,
      "fast_avail": 1,
      "fast_percent": 100.0,
      "latest_update": "20260713223011"
    },
    {
      "station_id": "LU101692",
      "name": "홍은풍림아이원",
      "address": "서울특별시 서대문구 홍은중앙로 149",
      "lat": "37.6038943",
      "lng": "126.9473161",
      "total_count": 5,
      "available_count": 3,
      "total_percent": 60.0,
      "slow_total": 5,
      "slow_avail": 3,
      "slow_percent": 60.0,
      "fast_total": 0,
      "fast_avail": 0,
      "fast_percent": 0.0,
      "latest_update": "20260713222818"
    },
    {
      "station_id": "NT102892",
      "name": "서대문 신촌역사주차장",
      "address": "서울특별시 서대문구 신촌역로 30",
      "lat": "37.55982",
      "lng": "126.94238",
      "total_count": 5,
      "available_count": 5,
      "total_percent": 100.0,
      "slow_total": 5,
      "slow_avail": 5,
      "slow_percent": 100.0,
      "fast_total": 0,
      "fast_avail": 0,
      "fast_percent": 0.0,
      "latest_update": "20260713203950"
    },
    {
      "station_id": "PI200410",
      "name": "서울시 서대문구 홍제한양아파트",
      "address": "서울특별시 서대문구 통일로25길 30",
      "lat": "37.5832767",
      "lng": "126.9472325",
      "total_count": 5,
      "available_count": 4,
      "total_percent": 80.0,
      "slow_total": 5,
      "slow_avail": 4,
      "slow_percent": 80.0,
      "fast_total": 0,
      "fast_avail": 0,
      "fast_percent": 0.0,
      "latest_update": "20260713234612"
    },
    {
      "station_id": "PI200718",
      "name": "서울시 서대문구 홍제삼성래미안",
      "address": "서울특별시 서대문구 통일로 319",
      "lat": "37.5781825",
      "lng": "126.9519502",
      "total_count": 5,
      "available_count": 5,
      "total_percent": 100.0,
      "slow_total": 5,
      "slow_avail": 5,
      "slow_percent": 100.0,
      "fast_total": 0,
      "fast_avail": 0,
      "fast_percent": 0.0,
      "latest_update": "20260713170327"
    },
    {
      "station_id": "PI204179",
      "name": "서울시 서대문구 충정로대우디오빌",
      "address": "서울특별시 서대문구 서소문로 37",
      "lat": "37.560787",
      "lng": "126.965597",
      "total_count": 5,
      "available_count": 4,
      "total_percent": 80.0,
      "slow_total": 5,
      "slow_avail": 4,
      "slow_percent": 80.0,
      "fast_total": 0,
      "fast_avail": 0,
      "fast_percent": 0.0,
      "latest_update": "20260713230643"
    },
    {
      "station_id": "PI306263",
      "name": "홍제센트럴아이파크",
      "address": "서울특별시 서대문구 통일로 395",
      "lat": "37.584525",
      "lng": "126.946306",
      "total_count": 5,
      "available_count": 5,
      "total_percent": 100.0,
      "slow_total": 5,
      "slow_avail": 5,
      "slow_percent": 100.0,
      "fast_total": 0,
      "fast_avail": 0,
      "fast_percent": 0.0,
      "latest_update": "20260713015610"
    },
    {
      "station_id": "PI707103",
      "name": "연희파크푸르지오아파트",
      "address": "서울특별시 서대문구 홍제천로 136",
      "lat": "37.575422209",
      "lng": "126.92802233",
      "total_count": 5,
      "available_count": 0,
      "total_percent": 0.0,
      "slow_total": 5,
      "slow_avail": 0,
      "slow_percent": 0.0,
      "fast_total": 0,
      "fast_avail": 0,
      "fast_percent": 0.0,
      "latest_update": "20260713211734"
    },
    {
      "station_id": "PI709239",
      "name": "연희파크푸르지오아파트B",
      "address": "서울특별시 서대문구 홍제천로 136",
      "lat": "37.575787400",
      "lng": "126.92849744",
      "total_count": 5,
      "available_count": 1,
      "total_percent": 20.0,
      "slow_total": 5,
      "slow_avail": 1,
      "slow_percent": 20.0,
      "fast_total": 0,
      "fast_avail": 0,
      "fast_percent": 0.0,
      "latest_update": "20260713214015"
    },
    {
      "station_id": "PIS00004",
      "name": "서울 서대문구 유원하나아파트",
      "address": "서울특별시 서대문구 세검정로 134",
      "lat": "37.5949500",
      "lng": "126.9518490",
      "total_count": 5,
      "available_count": 2,
      "total_percent": 40.0,
      "slow_total": 5,
      "slow_avail": 2,
      "slow_percent": 40.0,
      "fast_total": 0,
      "fast_avail": 0,
      "fast_percent": 0.0,
      "latest_update": "20260713221814"
    },
    {
      "station_id": "PW012795",
      "name": "신촌푸르지오아파트입주자대표회의",
      "address": "서울특별시 서대문구 북아현로1길 50",
      "lat": "37.559690000",
      "lng": "126.95281116",
      "total_count": 5,
      "available_count": 4,
      "total_percent": 80.0,
      "slow_total": 5,
      "slow_avail": 4,
      "slow_percent": 80.0,
      "fast_total": 0,
      "fast_avail": 0,
      "fast_percent": 0.0,
      "latest_update": "20260713225612"
    },
    {
      "station_id": "PW014247",
      "name": "SK리쳄블 오피스텔 관리단",
      "address": "서울특별시 서대문구 서소문로 45",
      "lat": "37.5612879",
      "lng": "126.9662482",
      "total_count": 5,
      "available_count": 4,
      "total_percent": 80.0,
      "slow_total": 5,
      "slow_avail": 4,
      "slow_percent": 80.0,
      "fast_total": 0,
      "fast_avail": 0,
      "fast_percent": 0.0,
      "latest_update": "20260713211712"
    },
    {
      "station_id": "SF002048",
      "name": "서대문독립문파크빌아파트",
      "address": "서울특별시 서대문구 통일로 279-75",
      "lat": "37.574985447",
      "lng": "126.95116878",
      "total_count": 5,
      "available_count": 4,
      "total_percent": 80.0,
      "slow_total": 5,
      "slow_avail": 4,
      "slow_percent": 80.0,
      "fast_total": 0,
      "fast_avail": 0,
      "fast_percent": 0.0,
      "latest_update": "20260713183918"
    },
    {
      "station_id": "BNBN0844",
      "name": "서대문구 남가좌2동 제2공영주차장",
      "address": "서울특별시 서대문구 명지대5길 10-8",
      "lat": "37.5831428",
      "lng": "126.9229853",
      "total_count": 4,
      "available_count": 0,
      "total_percent": 0.0,
      "slow_total": 0,
      "slow_avail": 0,
      "slow_percent": 0.0,
      "fast_total": 4,
      "fast_avail": 0,
      "fast_percent": 0.0,
      "latest_update": "20260713025238"
    },
    {
      "station_id": "BNBN0845",
      "name": "서대문구 남가좌2동 제1공영주차장",
      "address": "서울특별시 서대문구 남가좌동 64-8",
      "lat": "37.5767967",
      "lng": "126.9219280",
      "total_count": 4,
      "available_count": 3,
      "total_percent": 75.0,
      "slow_total": 0,
      "slow_avail": 0,
      "slow_percent": 0.0,
      "fast_total": 4,
      "fast_avail": 3,
      "fast_percent": 75.0,
      "latest_update": "20260713230619"
    },
    {
      "station_id": "BNBN0846",
      "name": "서대문구 홍연초등학교 공영주차장",
      "address": "서울특별시 서대문구 백련사길 55",
      "lat": "37.5817267",
      "lng": "126.9314183",
      "total_count": 4,
      "available_count": 4,
      "total_percent": 100.0,
      "slow_total": 0,
      "slow_avail": 0,
      "slow_percent": 0.0,
      "fast_total": 4,
      "fast_avail": 4,
      "fast_percent": 100.0,
      "latest_update": "20260713210618"
    },
    {
      "station_id": "BNBN0848",
      "name": "서대문구 홍은1동 제1공영주차장",
      "address": "서울특별시 서대문구 포방터2길 10 (홍은동, 홍은1동 제1공영주차장)",
      "lat": "37.5985055",
      "lng": "126.9495392",
      "total_count": 4,
      "available_count": 4,
      "total_percent": 100.0,
      "slow_total": 0,
      "slow_avail": 0,
      "slow_percent": 0.0,
      "fast_total": 4,
      "fast_avail": 4,
      "fast_percent": 100.0,
      "latest_update": "20260713180618"
    },
    {
      "station_id": "BNBN0849",
      "name": "서대문구 홍은1동 제4공영주차장",
      "address": "서울특별시 서대문구 홍은동 11-24",
      "lat": "37.6013953",
      "lng": "126.9490803",
      "total_count": 4,
      "available_count": 4,
      "total_percent": 100.0,
      "slow_total": 0,
      "slow_avail": 0,
      "slow_percent": 0.0,
      "fast_total": 4,
      "fast_avail": 4,
      "fast_percent": 100.0,
      "latest_update": "20260713025238"
    },
    {
      "station_id": "CGA00263",
      "name": "서대문 쌍용스윗닷홈",
      "address": "서울특별시 서대문구 거북골로 91-6",
      "lat": "37.575529",
      "lng": "126.918997",
      "total_count": 4,
      "available_count": 2,
      "total_percent": 50.0,
      "slow_total": 4,
      "slow_avail": 2,
      "slow_percent": 50.0,
      "fast_total": 0,
      "fast_avail": 0,
      "fast_percent": 0.0,
      "latest_update": "20260713231511"
    },
    {
      "station_id": "CI0I0011",
      "name": "경찰청",
      "address": "서울특별시 서대문구 통일로 97",
      "lat": "37.5633647",
      "lng": "126.9674930",
      "total_count": 4,
      "available_count": 3,
      "total_percent": 75.0,
      "slow_total": 0,
      "slow_avail": 0,
      "slow_percent": 0.0,
      "fast_total": 4,
      "fast_avail": 3,
      "fast_percent": 75.0,
      "latest_update": "20260713133041"
    },
    {
      "station_id": "CV001425",
      "name": "성원상떼빌팰리스아파트 202동",
      "address": "서울특별시 서대문구 연희로28길 35-28",
      "lat": "34.93996",
      "lng": "127.699526",
      "total_count": 4,
      "available_count": 4,
      "total_percent": 100.0,
      "slow_total": 4,
      "slow_avail": 4,
      "slow_percent": 100.0,
      "fast_total": 0,
      "fast_avail": 0,
      "fast_percent": 0.0,
      "latest_update": "20260713235526"
    },
    {
      "station_id": "CV001909",
      "name": "홍은2동제3공영주차장",
      "address": "서울특별시 서대문구 연희로39길 12",
      "lat": "37.586712",
      "lng": "126.934149",
      "total_count": 4,
      "available_count": 4,
      "total_percent": 100.0,
      "slow_total": 2,
      "slow_avail": 2,
      "slow_percent": 100.0,
      "fast_total": 2,
      "fast_avail": 2,
      "fast_percent": 100.0,
      "latest_update": "20260713204027"
    },
    {
      "station_id": "EV001916",
      "name": "남가좌현대아파트A",
      "address": "서울특별시 서대문구 가재울로 45",
      "lat": "37.574709",
      "lng": "126.9201582",
      "total_count": 4,
      "available_count": 3,
      "total_percent": 75.0,
      "slow_total": 4,
      "slow_avail": 3,
      "slow_percent": 75.0,
      "fast_total": 0,
      "fast_avail": 0,
      "fast_percent": 0.0,
      "latest_update": "20260713190218"
    },
    {
      "station_id": "EV015587",
      "name": "서울서대문 DMC아이파크아파트",
      "address": "서울특별시 서대문구 거북골로14길 32 (북가좌동, DMC아이파크아파트)",
      "lat": "37.5769511",
      "lng": "126.9145953",
      "total_count": 4,
      "available_count": 3,
      "total_percent": 75.0,
      "slow_total": 4,
      "slow_avail": 3,
      "slow_percent": 75.0,
      "fast_total": 0,
      "fast_avail": 0,
      "fast_percent": 0.0,
      "latest_update": "20260713192836"
    },
    {
      "station_id": "EV016628",
      "name": "서울서대문 유원홍은아파트",
      "address": "서울특별시 서대문구 홍은중앙로1길 33 (홍은동, 유원홍은아파트)",
      "lat": "37.5971942",
      "lng": "126.9450847",
      "total_count": 4,
      "available_count": 3,
      "total_percent": 75.0,
      "slow_total": 4,
      "slow_avail": 3,
      "slow_percent": 75.0,
      "fast_total": 0,
      "fast_avail": 0,
      "fast_percent": 0.0,
      "latest_update": "20260712201415"
    },
    {
      "station_id": "EZ100049",
      "name": "유원하나아파트",
      "address": "서울특별시 서대문구 세검정로 134",
      "lat": "37.59507",
      "lng": "126.9519545",
      "total_count": 4,
      "available_count": 0,
      "total_percent": 0.0,
      "slow_total": 4,
      "slow_avail": 0,
      "slow_percent": 0.0,
      "fast_total": 0,
      "fast_avail": 0,
      "fast_percent": 0.0,
      "latest_update": "20260601113310"
    },
    {
      "station_id": "HY001187",
      "name": "서대문 무악청구1차",
      "address": "서울특별시 서대문구 통일로 348",
      "lat": "37.58206",
      "lng": "126.951818",
      "total_count": 4,
      "available_count": 3,
      "total_percent": 75.0,
      "slow_total": 4,
      "slow_avail": 3,
      "slow_percent": 75.0,
      "fast_total": 0,
      "fast_avail": 0,
      "fast_percent": 0.0,
      "latest_update": "20260713230607"
    },
    {
      "station_id": "HY001214",
      "name": "서대문 독립문극동",
      "address": "서울특별시 서대문구 독립문공원길 95",
      "lat": "37.572954",
      "lng": "126.9544849",
      "total_count": 4,
      "available_count": 4,
      "total_percent": 100.0,
      "slow_total": 4,
      "slow_avail": 4,
      "slow_percent": 100.0,
      "fast_total": 0,
      "fast_avail": 0,
      "fast_percent": 0.0,
      "latest_update": "20260713153107"
    },
    {
      "station_id": "KE000926",
      "name": "서울서대문독립문극동",
      "address": "서울특별시 서대문구 독립문공원길 17",
      "lat": "37.5722894",
      "lng": "126.9568617",
      "total_count": 4,
      "available_count": 4,
      "total_percent": 100.0,
      "slow_total": 4,
      "slow_avail": 4,
      "slow_percent": 100.0,
      "fast_total": 0,
      "fast_avail": 0,
      "fast_percent": 0.0,
      "latest_update": "20260703142909"
    },
    {
      "station_id": "LU000171",
      "name": "디엠씨현대아파트",
      "address": "서울특별시 서대문구 응암로 33",
      "lat": "37.576721",
      "lng": "126.908207",
      "total_count": 4,
      "available_count": 2,
      "total_percent": 50.0,
      "slow_total": 4,
      "slow_avail": 2,
      "slow_percent": 50.0,
      "fast_total": 0,
      "fast_avail": 0,
      "fast_percent": 0.0,
      "latest_update": "20260713233114"
    },
    {
      "station_id": "LU004212",
      "name": "서대문인왕산한신휴플러스",
      "address": "서울특별시 서대문구 통일로 397",
      "lat": "37.585168",
      "lng": "126.947398",
      "total_count": 4,
      "available_count": 3,
      "total_percent": 75.0,
      "slow_total": 4,
      "slow_avail": 3,
      "slow_percent": 75.0,
      "fast_total": 0,
      "fast_avail": 0,
      "fast_percent": 0.0,
      "latest_update": "20260713225028"
    },
    {
      "station_id": "NT101898",
      "name": "서대문 DMC래미안이편한세상4단지",
      "address": "서울특별시 서대문구 수색로 100",
      "lat": "37.577089",
      "lng": "126.910153",
      "total_count": 4,
      "available_count": 2,
      "total_percent": 50.0,
      "slow_total": 4,
      "slow_avail": 2,
      "slow_percent": 50.0,
      "fast_total": 0,
      "fast_avail": 0,
      "fast_percent": 0.0,
      "latest_update": "20260713200550"
    },
    {
      "station_id": "PI070247",
      "name": "서대문충정빌딩",
      "address": "서울특별시 서대문구 통일로 135",
      "lat": "37.5664281",
      "lng": "126.9654584",
      "total_count": 4,
      "available_count": 4,
      "total_percent": 100.0,
      "slow_total": 4,
      "slow_avail": 4,
      "slow_percent": 100.0,
      "fast_total": 0,
      "fast_avail": 0,
      "fast_percent": 0.0,
      "latest_update": "20260710203608"
    },
    {
      "station_id": "PI122301",
      "name": "북가좌두산위브아파트",
      "address": "서울특별시 서대문구 증가로 200-8 (북가좌동, 두산위브아파트)",
      "lat": "37.580171",
      "lng": "126.917003",
      "total_count": 4,
      "available_count": 3,
      "total_percent": 75.0,
      "slow_total": 4,
      "slow_avail": 3,
      "slow_percent": 75.0,
      "fast_total": 0,
      "fast_avail": 0,
      "fast_percent": 0.0,
      "latest_update": "20260713222621"
    },
    {
      "station_id": "PI200371",
      "name": "서울시 서대문구 연희대림아파트",
      "address": "서울특별시 서대문구 연희로32길 20",
      "lat": "37.575230456025",
      "lng": "126.9359611278",
      "total_count": 4,
      "available_count": 4,
      "total_percent": 100.0,
      "slow_total": 4,
      "slow_avail": 4,
      "slow_percent": 100.0,
      "fast_total": 0,
      "fast_avail": 0,
      "fast_percent": 0.0,
      "latest_update": "20260713060606"
    },
    {
      "station_id": "PI204004",
      "name": "서울시 서대문구 DMC아이파크",
      "address": "서울특별시 서대문구 거북골로14길 32",
      "lat": "37.576951075",
      "lng": "126.91459532",
      "total_count": 4,
      "available_count": 3,
      "total_percent": 75.0,
      "slow_total": 4,
      "slow_avail": 3,
      "slow_percent": 75.0,
      "fast_total": 0,
      "fast_avail": 0,
      "fast_percent": 0.0,
      "latest_update": "20260713171627"
    },
    {
      "station_id": "PI204074",
      "name": "서울시 서대문구 태영으뜸아파트",
      "address": "서울특별시 서대문구 세검정로3길 63",
      "lat": "37.5937451",
      "lng": "126.9468287",
      "total_count": 4,
      "available_count": 2,
      "total_percent": 50.0,
      "slow_total": 4,
      "slow_avail": 2,
      "slow_percent": 50.0,
      "fast_total": 0,
      "fast_avail": 0,
      "fast_percent": 0.0,
      "latest_update": "20260713220132"
    },
    {
      "station_id": "PI204130",
      "name": "서울시 서대문구 홍제원그린뷰",
      "address": "서울특별시 서대문구 모래내로 460",
      "lat": "37.585415598",
      "lng": "126.94594655",
      "total_count": 4,
      "available_count": 4,
      "total_percent": 100.0,
      "slow_total": 4,
      "slow_avail": 4,
      "slow_percent": 100.0,
      "fast_total": 0,
      "fast_avail": 0,
      "fast_percent": 0.0,
      "latest_update": "20260713122634"
    },
    {
      "station_id": "PI708623",
      "name": "신촌푸르지오시티오피스텔",
      "address": "서울특별시 서대문구 신촌역로 7",
      "lat": "37.5573527",
      "lng": "126.9425",
      "total_count": 4,
      "available_count": 1,
      "total_percent": 25.0,
      "slow_total": 4,
      "slow_avail": 1,
      "slow_percent": 25.0,
      "fast_total": 0,
      "fast_avail": 0,
      "fast_percent": 0.0,
      "latest_update": "20260713174510"
    },
    {
      "station_id": "PI708668",
      "name": "홍제원현대아파트",
      "address": "서울특별시 서대문구 통일로34길 43",
      "lat": "37.586617228",
      "lng": "126.95019145",
      "total_count": 4,
      "available_count": 3,
      "total_percent": 75.0,
      "slow_total": 4,
      "slow_avail": 3,
      "slow_percent": 75.0,
      "fast_total": 0,
      "fast_avail": 0,
      "fast_percent": 0.0,
      "latest_update": "20260713192011"
    },
    {
      "station_id": "PI716023",
      "name": "충정로skview아파트",
      "address": "서울특별시 서대문구 서소문로 43-8",
      "lat": "37.562095",
      "lng": "126.9655959",
      "total_count": 4,
      "available_count": 3,
      "total_percent": 75.0,
      "slow_total": 4,
      "slow_avail": 3,
      "slow_percent": 75.0,
      "fast_total": 0,
      "fast_avail": 0,
      "fast_percent": 0.0,
      "latest_update": "20260712135044"
    },
    {
      "station_id": "PIH00126",
      "name": "풍림2차아파트",
      "address": "서울특별시 서대문구 세검정로1길 35",
      "lat": "37.593290900",
      "lng": "126.94304600",
      "total_count": 4,
      "available_count": 4,
      "total_percent": 100.0,
      "slow_total": 4,
      "slow_avail": 4,
      "slow_percent": 100.0,
      "fast_total": 0,
      "fast_avail": 0,
      "fast_percent": 0.0,
      "latest_update": "20260713085730"
    },
    {
      "station_id": "PL000247",
      "name": "돈의문센트레빌",
      "address": "서울특별시 서대문구 독립문로14길 33",
      "lat": "37.5659199",
      "lng": "126.9592895",
      "total_count": 4,
      "available_count": 3,
      "total_percent": 75.0,
      "slow_total": 4,
      "slow_avail": 3,
      "slow_percent": 75.0,
      "fast_total": 0,
      "fast_avail": 0,
      "fast_percent": 0.0,
      "latest_update": "20260713171107"
    },
    {
      "station_id": "PL000498",
      "name": "충정타워빌딩",
      "address": "서울특별시 서대문구 서소문로 21",
      "lat": "37.5598943",
      "lng": "126.9640858",
      "total_count": 4,
      "available_count": 4,
      "total_percent": 100.0,
      "slow_total": 4,
      "slow_avail": 4,
      "slow_percent": 100.0,
      "fast_total": 0,
      "fast_avail": 0,
      "fast_percent": 0.0,
      "latest_update": "20260713174750"
    },
    {
      "station_id": "PL031197",
      "name": "서울 상암DMC에코자이",
      "address": "서울 서대문구 거북골로 84",
      "lat": "37.5782296",
      "lng": "126.9184813",
      "total_count": 4,
      "available_count": 0,
      "total_percent": 0.0,
      "slow_total": 4,
      "slow_avail": 0,
      "slow_percent": 0.0,
      "fast_total": 0,
      "fast_avail": 0,
      "fast_percent": 0.0,
      "latest_update": "20260713192816"
    },
    {
      "station_id": "RS000037",
      "name": "갈현운수",
      "address": "서울특별시 서대문구 가좌로4길 21",
      "lat": "37.6",
      "lng": "126.9",
      "total_count": 4,
      "available_count": 4,
      "total_percent": 100.0,
      "slow_total": 0,
      "slow_avail": 0,
      "slow_percent": 0.0,
      "fast_total": 4,
      "fast_avail": 4,
      "fast_percent": 100.0,
      "latest_update": "20260628040002"
    },
    {
      "station_id": "SF003085",
      "name": "웨스트게이트타워 (완속충전기)",
      "address": "서울특별시 서대문구 충정로 70",
      "lat": "37.565307621",
      "lng": "126.96377160",
      "total_count": 4,
      "available_count": 3,
      "total_percent": 75.0,
      "slow_total": 4,
      "slow_avail": 3,
      "slow_percent": 75.0,
      "fast_total": 0,
      "fast_avail": 0,
      "fast_percent": 0.0,
      "latest_update": "20260713211536"
    },
    {
      "station_id": "ST114101",
      "name": "래미안 루센티아(입주민 전용)",
      "address": "서울특별시 서대문구 거북골로 100",
      "lat": "37.5754488",
      "lng": "126.9181854",
      "total_count": 4,
      "available_count": 2,
      "total_percent": 50.0,
      "slow_total": 4,
      "slow_avail": 2,
      "slow_percent": 50.0,
      "fast_total": 0,
      "fast_avail": 0,
      "fast_percent": 0.0,
      "latest_update": "20260713232634"
    },
    {
      "station_id": "SZBA0046",
      "name": "(23년) 삼하운수",
      "address": "서울특별시 서대문구 홍은동 8-1262",
      "lat": "37.6059465",
      "lng": "126.9499506",
      "total_count": 4,
      "available_count": 4,
      "total_percent": 100.0,
      "slow_total": 0,
      "slow_avail": 0,
      "slow_percent": 0.0,
      "fast_total": 4,
      "fast_avail": 4,
      "fast_percent": 100.0,
      "latest_update": "20260713224818"
    },
    {
      "station_id": "CGA00205",
      "name": "서대문 상암DMC엘가",
      "address": "서울특별시 서대문구 모래내로 151",
      "lat": "37.5699013",
      "lng": "126.9178356",
      "total_count": 3,
      "available_count": 3,
      "total_percent": 100.0,
      "slow_total": 3,
      "slow_avail": 3,
      "slow_percent": 100.0,
      "fast_total": 0,
      "fast_avail": 0,
      "fast_percent": 0.0,
      "latest_update": "20260713203017"
    },
    {
      "station_id": "CV001154",
      "name": "국립대한민국임시정부기념관",
      "address": "서울특별시 서대문구 통일로 279-24",
      "lat": "37.576179",
      "lng": "126.9547179",
      "total_count": 3,
      "available_count": 3,
      "total_percent": 100.0,
      "slow_total": 2,
      "slow_avail": 2,
      "slow_percent": 100.0,
      "fast_total": 1,
      "fast_avail": 1,
      "fast_percent": 100.0,
      "latest_update": "20260713125520"
    },
    {
      "station_id": "CV001279",
      "name": "DMC파크뷰자이 1단지",
      "address": "서울특별시 서대문구 가재울미래로 2",
      "lat": "37.571626",
      "lng": "126.919977",
      "total_count": 3,
      "available_count": 3,
      "total_percent": 100.0,
      "slow_total": 3,
      "slow_avail": 3,
      "slow_percent": 100.0,
      "fast_total": 0,
      "fast_avail": 0,
      "fast_percent": 0.0,
      "latest_update": "20260713181522"
    },
    {
      "station_id": "CV001784",
      "name": "충현동공영주차장",
      "address": "서울특별시 서대문구 경기대로 72",
      "lat": "37.565242",
      "lng": "126.9646",
      "total_count": 3,
      "available_count": 2,
      "total_percent": 66.7,
      "slow_total": 3,
      "slow_avail": 2,
      "slow_percent": 66.7,
      "fast_total": 0,
      "fast_avail": 0,
      "fast_percent": 0.0,
      "latest_update": "20260713214527"
    },
    {
      "station_id": "EC000062",
      "name": "북한산두산위브2차",
      "address": "서울특별시 서대문구 홍은중앙로1길 100",
      "lat": "37.599647",
      "lng": "126.9442218",
      "total_count": 3,
      "available_count": 1,
      "total_percent": 33.3,
      "slow_total": 3,
      "slow_avail": 1,
      "slow_percent": 33.3,
      "fast_total": 0,
      "fast_avail": 0,
      "fast_percent": 0.0,
      "latest_update": "20260713225801"
    },
    {
      "station_id": "EC004798",
      "name": "신촌푸르지오 106동 B2",
      "address": "서울특별시 서대문구 북아현동 1011 신촌푸르지오",
      "lat": "37.5599551",
      "lng": "126.951491",
      "total_count": 3,
      "available_count": 1,
      "total_percent": 33.3,
      "slow_total": 3,
      "slow_avail": 1,
      "slow_percent": 33.3,
      "fast_total": 0,
      "fast_avail": 0,
      "fast_percent": 0.0,
      "latest_update": "20260713230402"
    },
    {
      "station_id": "EC004963",
      "name": "서대문우체국",
      "address": "서울특별시 서대문구 성산로20길 9",
      "lat": "37.5608435",
      "lng": "126.932091",
      "total_count": 3,
      "available_count": 3,
      "total_percent": 100.0,
      "slow_total": 3,
      "slow_avail": 3,
      "slow_percent": 100.0,
      "fast_total": 0,
      "fast_avail": 0,
      "fast_percent": 0.0,
      "latest_update": "20260713143002"
    },
    {
      "station_id": "EV000794",
      "name": "DMC파크뷰자이아파트101동",
      "address": "서울특별시 서대문구 가재울미래로 2 (남가좌동, DMC파크뷰자이)",
      "lat": "37.574447",
      "lng": "126.9179171",
      "total_count": 3,
      "available_count": 1,
      "total_percent": 33.3,
      "slow_total": 3,
      "slow_avail": 1,
      "slow_percent": 33.3,
      "fast_total": 0,
      "fast_avail": 0,
      "fast_percent": 0.0,
      "latest_update": "20260713230657"
    },
    {
      "station_id": "EV000795",
      "name": "DMC파크뷰자이아파트212동",
      "address": "서울특별시 서대문구 가재울미래로 2 (남가좌동, DMC파크뷰자이)",
      "lat": "37.5739291",
      "lng": "126.9117935",
      "total_count": 3,
      "available_count": 0,
      "total_percent": 0.0,
      "slow_total": 3,
      "slow_avail": 0,
      "slow_percent": 0.0,
      "fast_total": 0,
      "fast_avail": 0,
      "fast_percent": 0.0,
      "latest_update": "20260713233918"
    },
    {
      "station_id": "EV000796",
      "name": "DMC파크뷰자이아파트302동",
      "address": "서울특별시 서대문구 가재울미래로 2 (남가좌동, DMC파크뷰자이)",
      "lat": "37.5728774",
      "lng": "126.9217676",
      "total_count": 3,
      "available_count": 2,
      "total_percent": 66.7,
      "slow_total": 3,
      "slow_avail": 2,
      "slow_percent": 66.7,
      "fast_total": 0,
      "fast_avail": 0,
      "fast_percent": 0.0,
      "latest_update": "20260713184404"
    },
    {
      "station_id": "EV001572",
      "name": "DMC파크뷰자이아파트104동",
      "address": "서울특별시 서대문구 가재울미래로 2 (남가좌동, DMC파크뷰자이)",
      "lat": "37.5730134",
      "lng": "126.9164697",
      "total_count": 3,
      "available_count": 2,
      "total_percent": 66.7,
      "slow_total": 3,
      "slow_avail": 2,
      "slow_percent": 66.7,
      "fast_total": 0,
      "fast_avail": 0,
      "fast_percent": 0.0,
      "latest_update": "20260713154203"
    },
    {
      "station_id": "EV001573",
      "name": "DMC파크뷰자이아파트111동",
      "address": "서울특별시 서대문구 가재울미래로 2 (남가좌동, DMC파크뷰자이)",
      "lat": "37.5719321",
      "lng": "126.9162106",
      "total_count": 3,
      "available_count": 1,
      "total_percent": 33.3,
      "slow_total": 3,
      "slow_avail": 1,
      "slow_percent": 33.3,
      "fast_total": 0,
      "fast_avail": 0,
      "fast_percent": 0.0,
      "latest_update": "20260713220621"
    },
    {
      "station_id": "EV001574",
      "name": "DMC파크뷰자이아파트116동",
      "address": "서울특별시 서대문구 가재울미래로 2 (남가좌동, DMC파크뷰자이)",
      "lat": "37.5718062",
      "lng": "126.916539",
      "total_count": 3,
      "available_count": 1,
      "total_percent": 33.3,
      "slow_total": 3,
      "slow_avail": 1,
      "slow_percent": 33.3,
      "fast_total": 0,
      "fast_avail": 0,
      "fast_percent": 0.0,
      "latest_update": "20260713205334"
    },
    {
      "station_id": "EV001575",
      "name": "DMC파크뷰자이아파트124동1",
      "address": "서울특별시 서대문구 가재울미래로 2 (남가좌동, DMC파크뷰자이)",
      "lat": "37.5714832",
      "lng": "126.9185543",
      "total_count": 3,
      "available_count": 1,
      "total_percent": 33.3,
      "slow_total": 3,
      "slow_avail": 1,
      "slow_percent": 33.3,
      "fast_total": 0,
      "fast_avail": 0,
      "fast_percent": 0.0,
      "latest_update": "20260713182347"
    },
    {
      "station_id": "EV001576",
      "name": "DMC파크뷰자이아파트119동",
      "address": "서울특별시 서대문구 가재울미래로 2 (남가좌동, DMC파크뷰자이)",
      "lat": "37.5725734",
      "lng": "126.9185531",
      "total_count": 3,
      "available_count": 0,
      "total_percent": 0.0,
      "slow_total": 3,
      "slow_avail": 0,
      "slow_percent": 0.0,
      "fast_total": 0,
      "fast_avail": 0,
      "fast_percent": 0.0,
      "latest_update": "20260713215816"
    },
    {
      "station_id": "EV001577",
      "name": "DMC파크뷰자이아파트124동2",
      "address": "서울특별시 서대문구 가재울미래로 2 (남가좌동, DMC파크뷰자이)",
      "lat": "37.5714967",
      "lng": "126.9185656",
      "total_count": 3,
      "available_count": 0,
      "total_percent": 0.0,
      "slow_total": 3,
      "slow_avail": 0,
      "slow_percent": 0.0,
      "fast_total": 0,
      "fast_avail": 0,
      "fast_percent": 0.0,
      "latest_update": "20260713200703"
    },
    {
      "station_id": "EV001578",
      "name": "DMC파크뷰자이아파트129동",
      "address": "서울특별시 서대문구 가재울미래로 2 (남가좌동, DMC파크뷰자이)",
      "lat": "37.5710511",
      "lng": "126.9190188",
      "total_count": 3,
      "available_count": 3,
      "total_percent": 100.0,
      "slow_total": 3,
      "slow_avail": 3,
      "slow_percent": 100.0,
      "fast_total": 0,
      "fast_avail": 0,
      "fast_percent": 0.0,
      "latest_update": "20260711104114"
    },
    {
      "station_id": "EV001579",
      "name": "DMC파크뷰자이아파트204동",
      "address": "서울특별시 서대문구 가재울미래로 2 (남가좌동, DMC파크뷰자이)",
      "lat": "37.5734444",
      "lng": "126.9143467",
      "total_count": 3,
      "available_count": 2,
      "total_percent": 66.7,
      "slow_total": 3,
      "slow_avail": 2,
      "slow_percent": 66.7,
      "fast_total": 0,
      "fast_avail": 0,
      "fast_percent": 0.0,
      "latest_update": "20260713103053"
    },
    {
      "station_id": "EV001581",
      "name": "DMC파크뷰자이아파트216동",
      "address": "서울특별시 서대문구 가재울미래로 2 (남가좌동, DMC파크뷰자이)",
      "lat": "37.5741976",
      "lng": "126.9155118",
      "total_count": 3,
      "available_count": 2,
      "total_percent": 66.7,
      "slow_total": 3,
      "slow_avail": 2,
      "slow_percent": 66.7,
      "fast_total": 0,
      "fast_avail": 0,
      "fast_percent": 0.0,
      "latest_update": "20260713142715"
    },
    {
      "station_id": "EV001582",
      "name": "DMC파크뷰자이아파트217동",
      "address": "서울특별시 서대문구 가재울미래로 2 (남가좌동, DMC파크뷰자이)",
      "lat": "37.5746394",
      "lng": "126.9159981",
      "total_count": 3,
      "available_count": 2,
      "total_percent": 66.7,
      "slow_total": 3,
      "slow_avail": 2,
      "slow_percent": 66.7,
      "fast_total": 0,
      "fast_avail": 0,
      "fast_percent": 0.0,
      "latest_update": "20260713171301"
    },
    {
      "station_id": "EV001583",
      "name": "DMC파크뷰자이아파트202동",
      "address": "서울특별시 서대문구 가재울미래로 2 (남가좌동, DMC파크뷰자이)",
      "lat": "37.5743742",
      "lng": "126.9168078",
      "total_count": 3,
      "available_count": 3,
      "total_percent": 100.0,
      "slow_total": 3,
      "slow_avail": 3,
      "slow_percent": 100.0,
      "fast_total": 0,
      "fast_avail": 0,
      "fast_percent": 0.0,
      "latest_update": "20260713103053"
    },
    {
      "station_id": "EV001585",
      "name": "DMC파크뷰자이아파트108동",
      "address": "서울특별시 서대문구 가재울미래로 2 (남가좌동, DMC파크뷰자이)",
      "lat": "37.5730401",
      "lng": "126.9158811",
      "total_count": 3,
      "available_count": 0,
      "total_percent": 0.0,
      "slow_total": 3,
      "slow_avail": 0,
      "slow_percent": 0.0,
      "fast_total": 0,
      "fast_avail": 0,
      "fast_percent": 0.0,
      "latest_update": "20260713235327"
    },
    {
      "station_id": "EV001940",
      "name": "현대백화점 신촌점(본관)",
      "address": "서울특별시 서대문구 신촌로 83",
      "lat": "37.556081",
      "lng": "126.9358437",
      "total_count": 3,
      "available_count": 3,
      "total_percent": 100.0,
      "slow_total": 3,
      "slow_avail": 3,
      "slow_percent": 100.0,
      "fast_total": 0,
      "fast_avail": 0,
      "fast_percent": 0.0,
      "latest_update": "20260712213104"
    },
    {
      "station_id": "EV002941",
      "name": "서울서대문 홍은극동아파트",
      "address": "서울특별시 서대문구 포방터10길 33",
      "lat": "37.602454",
      "lng": "126.9513909",
      "total_count": 3,
      "available_count": 3,
      "total_percent": 100.0,
      "slow_total": 3,
      "slow_avail": 3,
      "slow_percent": 100.0,
      "fast_total": 0,
      "fast_avail": 0,
      "fast_percent": 0.0,
      "latest_update": "20260713095029"
    },
    {
      "station_id": "EV003292",
      "name": "서울서대문_독립문삼호아파트",
      "address": "서울특별시 서대문구 독립문로 12",
      "lat": "37.570188752884",
      "lng": "126.9590458109",
      "total_count": 3,
      "available_count": 2,
      "total_percent": 66.7,
      "slow_total": 3,
      "slow_avail": 2,
      "slow_percent": 66.7,
      "fast_total": 0,
      "fast_avail": 0,
      "fast_percent": 0.0,
      "latest_update": "20260713212557"
    },
    {
      "station_id": "EV003308",
      "name": "서울서대문_북아현두산아파트103동",
      "address": "서울특별시 서대문구 이화여대8길 62",
      "lat": "37.5597235",
      "lng": "126.9507323",
      "total_count": 3,
      "available_count": 1,
      "total_percent": 33.3,
      "slow_total": 3,
      "slow_avail": 1,
      "slow_percent": 33.3,
      "fast_total": 0,
      "fast_avail": 0,
      "fast_percent": 0.0,
      "latest_update": "20260713231841"
    },
    {
      "station_id": "EV003310",
      "name": "서울서대문_북아현두산아파트6주차장",
      "address": "서울특별시 서대문구 이화여대8길 62",
      "lat": "37.559238501",
      "lng": "126.95080104",
      "total_count": 3,
      "available_count": 3,
      "total_percent": 100.0,
      "slow_total": 3,
      "slow_avail": 3,
      "slow_percent": 100.0,
      "fast_total": 0,
      "fast_avail": 0,
      "fast_percent": 0.0,
      "latest_update": "20260713043722"
    },
    {
      "station_id": "EV006971",
      "name": "연세대학교 무학2학사",
      "address": "서울특별시 서대문구 연세로 50",
      "lat": "37.5638064",
      "lng": "126.9429309",
      "total_count": 3,
      "available_count": 3,
      "total_percent": 100.0,
      "slow_total": 3,
      "slow_avail": 3,
      "slow_percent": 100.0,
      "fast_total": 0,
      "fast_avail": 0,
      "fast_percent": 0.0,
      "latest_update": "20260713134046"
    },
    {
      "station_id": "EV008840",
      "name": "서울서대문 홍은현대아파트2",
      "address": "서울특별시 서대문구 연희로 377",
      "lat": "37.589281",
      "lng": "126.9364383",
      "total_count": 3,
      "available_count": 0,
      "total_percent": 0.0,
      "slow_total": 3,
      "slow_avail": 0,
      "slow_percent": 0.0,
      "fast_total": 0,
      "fast_avail": 0,
      "fast_percent": 0.0,
      "latest_update": "20260713220823"
    },
    {
      "station_id": "EV012117",
      "name": "서울서대문 현대그린아파트",
      "address": "서울특별시 서대문구 세무서2길 64",
      "lat": "37.5887646",
      "lng": "126.94993436",
      "total_count": 3,
      "available_count": 1,
      "total_percent": 33.3,
      "slow_total": 3,
      "slow_avail": 1,
      "slow_percent": 33.3,
      "fast_total": 0,
      "fast_avail": 0,
      "fast_percent": 0.0,
      "latest_update": "20260713211750"
    },
    {
      "station_id": "EV012620",
      "name": "서울중구 서대문디오빌",
      "address": "서울특별시 서대문구 충정로 59",
      "lat": "37.565649",
      "lng": "126.9881426",
      "total_count": 3,
      "available_count": 2,
      "total_percent": 66.7,
      "slow_total": 3,
      "slow_avail": 2,
      "slow_percent": 66.7,
      "fast_total": 0,
      "fast_avail": 0,
      "fast_percent": 0.0,
      "latest_update": "20260713213802"
    },
    {
      "station_id": "EV013950",
      "name": "서울서대문 연희브라운스톤 1",
      "address": "서울특별시 서대문구 연희로 82",
      "lat": "37.5655216",
      "lng": "126.9302419",
      "total_count": 3,
      "available_count": 2,
      "total_percent": 66.7,
      "slow_total": 3,
      "slow_avail": 2,
      "slow_percent": 66.7,
      "fast_total": 0,
      "fast_avail": 0,
      "fast_percent": 0.0,
      "latest_update": "20260713221829"
    },
    {
      "station_id": "EV013951",
      "name": "서울서대문 연희브라운스톤 2",
      "address": "서울특별시 서대문구 연희로 82",
      "lat": "37.5652133",
      "lng": "126.9302076",
      "total_count": 3,
      "available_count": 3,
      "total_percent": 100.0,
      "slow_total": 3,
      "slow_avail": 3,
      "slow_percent": 100.0,
      "fast_total": 0,
      "fast_avail": 0,
      "fast_percent": 0.0,
      "latest_update": "20260713151001"
    },
    {
      "station_id": "EV014104",
      "name": "서울서대문 홍제역 해링턴플레이스아파트 1",
      "address": "서울특별시 서대문구 세무서8길 30",
      "lat": "37.590601176",
      "lng": "126.94695210",
      "total_count": 3,
      "available_count": 2,
      "total_percent": 66.7,
      "slow_total": 3,
      "slow_avail": 2,
      "slow_percent": 66.7,
      "fast_total": 0,
      "fast_avail": 0,
      "fast_percent": 0.0,
      "latest_update": "20260713185612"
    },
    {
      "station_id": "EV014105",
      "name": "서울서대문 홍제역 해링턴플레이스아파트 2",
      "address": "서울특별시 서대문구 세무서8길 30",
      "lat": "37.590601176",
      "lng": "126.94695210",
      "total_count": 3,
      "available_count": 1,
      "total_percent": 33.3,
      "slow_total": 3,
      "slow_avail": 1,
      "slow_percent": 33.3,
      "fast_total": 0,
      "fast_avail": 0,
      "fast_percent": 0.0,
      "latest_update": "20260713210139"
    },
    {
      "station_id": "EV014111",
      "name": "서울서대문 홍제역 해링턴플레이스아파트 8",
      "address": "서울특별시 서대문구 세무서8길 30 (홍제동, 홍제역해링턴플레이스)",
      "lat": "37.5906012",
      "lng": "126.9469521",
      "total_count": 3,
      "available_count": 3,
      "total_percent": 100.0,
      "slow_total": 3,
      "slow_avail": 3,
      "slow_percent": 100.0,
      "fast_total": 0,
      "fast_avail": 0,
      "fast_percent": 0.0,
      "latest_update": "20260710161552"
    },
    {
      "station_id": "EV014494",
      "name": "서울서대문 이화여대 신촌캠퍼스 1",
      "address": "서울특별시 서대문구 이화여대길 52",
      "lat": "37.5650481",
      "lng": "126.9466998",
      "total_count": 3,
      "available_count": 3,
      "total_percent": 100.0,
      "slow_total": 3,
      "slow_avail": 3,
      "slow_percent": 100.0,
      "fast_total": 0,
      "fast_avail": 0,
      "fast_percent": 0.0,
      "latest_update": "20260711124025"
    },
    {
      "station_id": "EV014497",
      "name": "서울서대문 이화여대 신촌캠퍼스 4",
      "address": "서울특별시 서대문구 이화여대길 52",
      "lat": "37.5647930",
      "lng": "126.9505484",
      "total_count": 3,
      "available_count": 1,
      "total_percent": 33.3,
      "slow_total": 3,
      "slow_avail": 1,
      "slow_percent": 33.3,
      "fast_total": 0,
      "fast_avail": 0,
      "fast_percent": 0.0,
      "latest_update": "20260713230441"
    },
    {
      "station_id": "EV014498",
      "name": "서울서대문 이화여대 신촌캠퍼스 5",
      "address": "서울특별시 서대문구 이화여대길 52",
      "lat": "37.5628763",
      "lng": "126.9456488",
      "total_count": 3,
      "available_count": 3,
      "total_percent": 100.0,
      "slow_total": 3,
      "slow_avail": 3,
      "slow_percent": 100.0,
      "fast_total": 0,
      "fast_avail": 0,
      "fast_percent": 0.0,
      "latest_update": "20260713225652"
    },
    {
      "station_id": "EV014499",
      "name": "서울서대문 이화여대 신촌캠퍼스 6",
      "address": "서울특별시 서대문구 이화여대길 52",
      "lat": "37.5676354",
      "lng": "126.9498334",
      "total_count": 3,
      "available_count": 3,
      "total_percent": 100.0,
      "slow_total": 3,
      "slow_avail": 3,
      "slow_percent": 100.0,
      "fast_total": 0,
      "fast_avail": 0,
      "fast_percent": 0.0,
      "latest_update": "20260710155741"
    },
    {
      "station_id": "EV014500",
      "name": "서울서대문 이화여대 신촌캠퍼스 7",
      "address": "서울특별시 서대문구 이화여대길 52",
      "lat": "37.5617490",
      "lng": "126.9434991",
      "total_count": 3,
      "available_count": 3,
      "total_percent": 100.0,
      "slow_total": 3,
      "slow_avail": 3,
      "slow_percent": 100.0,
      "fast_total": 0,
      "fast_avail": 0,
      "fast_percent": 0.0,
      "latest_update": "20260712120656"
    },
    {
      "station_id": "EV014501",
      "name": "서울서대문 이화여대 신촌캠퍼스 8",
      "address": "서울특별시 서대문구 이화여대길 52",
      "lat": "37.5642728",
      "lng": "126.9456704",
      "total_count": 3,
      "available_count": 3,
      "total_percent": 100.0,
      "slow_total": 3,
      "slow_avail": 3,
      "slow_percent": 100.0,
      "fast_total": 0,
      "fast_avail": 0,
      "fast_percent": 0.0,
      "latest_update": "20260708172225"
    },
    {
      "station_id": "EV014502",
      "name": "서울서대문 이화여대 신촌캠퍼스 9",
      "address": "서울특별시 서대문구 이화여대길 52",
      "lat": "37.5663552",
      "lng": "126.9481138",
      "total_count": 3,
      "available_count": 3,
      "total_percent": 100.0,
      "slow_total": 3,
      "slow_avail": 3,
      "slow_percent": 100.0,
      "fast_total": 0,
      "fast_avail": 0,
      "fast_percent": 0.0,
      "latest_update": "20260713181343"
    },