{
  "district": "성동구",
  "zscode": "11200",
  "summary": {
    "total_count": 3983,
    "available_count": 3311,
    "total_percent": 83.1,
    "slow_total": 3772,
    "slow_avail": 3143,
    "slow_percent": 83.3,
    "fast_total": 211,
    "fast_avail": 168,
    "fast_percent": 79.6,
    "station_count": 631
  },
  "stations": [
    {
      "station_id": "PWE03324",
      "name": "금호대우아파트",
      "address": "서울특별시 성동구 독서당로 272",
      "lat": "37.54533",
      "lng": "127.01792",
      "total_count": 90,
      "available_count": 90,
      "total_percent": 100.0,
      "slow_total": 90,
      "slow_avail": 90,
      "slow_percent": 100.0,
      "fast_total": 0,
      "fast_avail": 0,
      "fast_percent": 0.0,
      "latest_update": "20260714051112"
    },
    {
      "station_id": "SF001182",
      "name": "왕십리 풍림아이원 아파트",
      "address": "서울특별시 성동구 난계로 84",
      "lat": "37.5591314",
      "lng": "127.0240799",
      "total_count": 89,
      "available_count": 87,
      "total_percent": 97.8,
      "slow_total": 89,
      "slow_avail": 87,
      "slow_percent": 97.8,
      "fast_total": 0,
      "fast_avail": 0,
      "fast_percent": 0.0,
      "latest_update": "20260714072027"
    },
    {
      "station_id": "PWE01403",
      "name": "대림강변타운",
      "address": "서울특별시 성동구 고산자로 160",
      "lat": "37.55434",
      "lng": "127.03488",
      "total_count": 88,
      "available_count": 88,
      "total_percent": 100.0,
      "slow_total": 88,
      "slow_avail": 88,
      "slow_percent": 100.0,
      "fast_total": 0,
      "fast_avail": 0,
      "fast_percent": 0.0,
      "latest_update": "20260713060013"
    },
    {
      "station_id": "PWE03301",
      "name": "서울숲2차푸르지오아파트",
      "address": "서울특별시 성동구 금호로 17",
      "lat": "37.546882623",
      "lng": "127.02407272",
      "total_count": 77,
      "available_count": 75,
      "total_percent": 97.4,
      "slow_total": 77,
      "slow_avail": 75,
      "slow_percent": 97.4,
      "fast_total": 0,
      "fast_avail": 0,
      "fast_percent": 0.0,
      "latest_update": "20260714051520"
    },
    {
      "station_id": "PWE00003",
      "name": "행당한신아파트",
      "address": "서울특별시 성동구 고산자로 164",
      "lat": "37.55517",
      "lng": "127.03615",
      "total_count": 71,
      "available_count": 70,
      "total_percent": 98.6,
      "slow_total": 71,
      "slow_avail": 70,
      "slow_percent": 98.6,
      "fast_total": 0,
      "fast_avail": 0,
      "fast_percent": 0.0,
      "latest_update": "20260714063912"
    },
    {
      "station_id": "PI001490",
      "name": "행당대림아파트",
      "address": "서울특별시 성동구 행당로 79",
      "lat": "37.5578873",
      "lng": "127.027096",
      "total_count": 70,
      "available_count": 61,
      "total_percent": 87.1,
      "slow_total": 70,
      "slow_avail": 61,
      "slow_percent": 87.1,
      "fast_total": 0,
      "fast_avail": 0,
      "fast_percent": 0.0,
      "latest_update": "20260714080703"
    },
    {
      "station_id": "PWE06385",
      "name": "이편한세상금호파크힐스아파트",
      "address": "서울특별시 성동구 금호로 140",
      "lat": "37.5537256",
      "lng": "127.0219293",
      "total_count": 70,
      "available_count": 69,
      "total_percent": 98.6,
      "slow_total": 70,
      "slow_avail": 69,
      "slow_percent": 98.6,
      "fast_total": 0,
      "fast_avail": 0,
      "fast_percent": 0.0,
      "latest_update": "20260714080010"
    },
    {
      "station_id": "PWE04135",
      "name": "마장동현대아파트",
      "address": "서울특별시 성동구 살곶이길 50",
      "lat": "37.569613721",
      "lng": "127.04151532",
      "total_count": 66,
      "available_count": 66,
      "total_percent": 100.0,
      "slow_total": 66,
      "slow_avail": 66,
      "slow_percent": 100.0,
      "fast_total": 0,
      "fast_avail": 0,
      "fast_percent": 0.0,
      "latest_update": "20260519112709"
    },
    {
      "station_id": "SF001338",
      "name": "래미안 옥수 리버젠아파트",
      "address": "서울특별시 성동구 매봉길 15",
      "lat": "37.546067",
      "lng": "127.0137058",
      "total_count": 50,
      "available_count": 47,
      "total_percent": 94.0,
      "slow_total": 50,
      "slow_avail": 47,
      "slow_percent": 94.0,
      "fast_total": 0,
      "fast_avail": 0,
      "fast_percent": 0.0,
      "latest_update": "20260714033446"
    },
    {
      "station_id": "SF002704",
      "name": "옥수극동그린아파트",
      "address": "서울특별시 성동구 독서당로 175",
      "lat": "37.5416161",
      "lng": "127.0098102",
      "total_count": 46,
      "available_count": 45,
      "total_percent": 97.8,
      "slow_total": 46,
      "slow_avail": 45,
      "slow_percent": 97.8,
      "fast_total": 0,
      "fast_avail": 0,
      "fast_percent": 0.0,
      "latest_update": "20260714053438"
    },
    {
      "station_id": "HM001237",
      "name": "_디타워서울포레스트",
      "address": "서울특별시 성동구 왕십리로 83-21",
      "lat": "37.5444825",
      "lng": "127.0432719",
      "total_count": 44,
      "available_count": 36,
      "total_percent": 81.8,
      "slow_total": 42,
      "slow_avail": 34,
      "slow_percent": 81.0,
      "fast_total": 2,
      "fast_avail": 2,
      "fast_percent": 100.0,
      "latest_update": "20260714080412"
    },
    {
      "station_id": "SF001653",
      "name": "행당한진타운",
      "address": "서울특별시 성동구 행당로 82",
      "lat": "37.554808881",
      "lng": "127.02739971",
      "total_count": 41,
      "available_count": 41,
      "total_percent": 100.0,
      "slow_total": 41,
      "slow_avail": 41,
      "slow_percent": 100.0,
      "fast_total": 0,
      "fast_avail": 0,
      "fast_percent": 0.0,
      "latest_update": "20260713090006"
    },
    {
      "station_id": "PWE05768",
      "name": "서울숲리버뷰자이아파트",
      "address": "서울특별시 성동구 고산자로2길 65",
      "lat": "37.5561985",
      "lng": "127.0388365",
      "total_count": 39,
      "available_count": 39,
      "total_percent": 100.0,
      "slow_total": 39,
      "slow_avail": 39,
      "slow_percent": 100.0,
      "fast_total": 0,
      "fast_avail": 0,
      "fast_percent": 0.0,
      "latest_update": "20260708193211"
    },
    {
      "station_id": "IN120069",
      "name": "성수팩토리얼",
      "address": "서울특별시 성동구 연무장7길 13",
      "lat": "37.5442",
      "lng": "127.0544",
      "total_count": 38,
      "available_count": 0,
      "total_percent": 0.0,
      "slow_total": 38,
      "slow_avail": 0,
      "slow_percent": 0.0,
      "fast_total": 0,
      "fast_avail": 0,
      "fast_percent": 0.0,
      "latest_update": "20260615122839"
    },
    {
      "station_id": "PIS00069",
      "name": "서울 성동구 성수팩토리얼",
      "address": "서울특별시 성동구 연무장7길 13",
      "lat": "37.5442000",
      "lng": "127.0544000",
      "total_count": 38,
      "available_count": 38,
      "total_percent": 100.0,
      "slow_total": 38,
      "slow_avail": 38,
      "slow_percent": 100.0,
      "fast_total": 0,
      "fast_avail": 0,
      "fast_percent": 0.0,
      "latest_update": "20260713210538"
    },
    {
      "station_id": "PIH01647",
      "name": "벽산아파트",
      "address": "서울특별시 성동구 금호로 100",
      "lat": "37.5516187",
      "lng": "127.0271885",
      "total_count": 37,
      "available_count": 32,
      "total_percent": 86.5,
      "slow_total": 37,
      "slow_avail": 32,
      "slow_percent": 86.5,
      "fast_total": 0,
      "fast_avail": 0,
      "fast_percent": 0.0,
      "latest_update": "20260714074705"
    },
    {
      "station_id": "PL000808",
      "name": "래미안 옥수 리버젠",
      "address": "서울특별시 성동구 매봉길 15",
      "lat": "37.5460670",
      "lng": "127.0137058",
      "total_count": 33,
      "available_count": 19,
      "total_percent": 57.6,
      "slow_total": 33,
      "slow_avail": 19,
      "slow_percent": 57.6,
      "fast_total": 0,
      "fast_avail": 0,
      "fast_percent": 0.0,
      "latest_update": "20260714080111"
    },
    {
      "station_id": "SF002073",
      "name": "서울숲 더샵",
      "address": "서울특별시 성동구 왕십리로 241",
      "lat": "37.557154330",
      "lng": "127.04010502",
      "total_count": 31,
      "available_count": 31,
      "total_percent": 100.0,
      "slow_total": 31,
      "slow_avail": 31,
      "slow_percent": 100.0,
      "fast_total": 0,
      "fast_avail": 0,
      "fast_percent": 0.0,
      "latest_update": "20260714080946"
    },
    {
      "station_id": "NT100253",
      "name": "성동 텐즈힐1단지",
      "address": "서울특별시 성동구 무학로 33",
      "lat": "37.5672379",
      "lng": "127.0298964",
      "total_count": 30,
      "available_count": 24,
      "total_percent": 80.0,
      "slow_total": 30,
      "slow_avail": 24,
      "slow_percent": 80.0,
      "fast_total": 0,
      "fast_avail": 0,
      "fast_percent": 0.0,
      "latest_update": "20260714074450"
    },
    {
      "station_id": "PI001495",
      "name": "텐즈힐아파트",
      "address": "서울특별시 성동구 마장로 137",
      "lat": "37.5678077",
      "lng": "127.025028",
      "total_count": 30,
      "available_count": 26,
      "total_percent": 86.7,
      "slow_total": 30,
      "slow_avail": 26,
      "slow_percent": 86.7,
      "fast_total": 0,
      "fast_avail": 0,
      "fast_percent": 0.0,
      "latest_update": "20260714080706"
    },
    {
      "station_id": "PI001619",
      "name": "성수동아이파크아파트",
      "address": "서울특별시 성동구 성수이로 137",
      "lat": "37.5471011",
      "lng": "127.057193",
      "total_count": 30,
      "available_count": 28,
      "total_percent": 93.3,
      "slow_total": 30,
      "slow_avail": 28,
      "slow_percent": 93.3,
      "fast_total": 0,
      "fast_avail": 0,
      "fast_percent": 0.0,
      "latest_update": "20260714080701"
    },
    {
      "station_id": "PI001674",
      "name": "센트라스아파트(2획지)",
      "address": "서울특별시 성동구 왕십리로 410",
      "lat": "37.5665735",
      "lng": "127.024066",
      "total_count": 30,
      "available_count": 27,
      "total_percent": 90.0,
      "slow_total": 30,
      "slow_avail": 27,
      "slow_percent": 90.0,
      "fast_total": 0,
      "fast_avail": 0,
      "fast_percent": 0.0,
      "latest_update": "20260714080705"
    },
    {
      "station_id": "PI760326",
      "name": "행당대림아파트",
      "address": "서울특별시 성동구 행당로 79",
      "lat": "37.5582053",
      "lng": "127.027507",
      "total_count": 30,
      "available_count": 26,
      "total_percent": 86.7,
      "slow_total": 30,
      "slow_avail": 26,
      "slow_percent": 86.7,
      "fast_total": 0,
      "fast_avail": 0,
      "fast_percent": 0.0,
      "latest_update": "20260714080025"
    },
    {
      "station_id": "SF002296",
      "name": "한진해모로 (하왕십리)",
      "address": "서울특별시 성동구 왕십리로31길 20",
      "lat": "37.562984496",
      "lng": "127.02675902",
      "total_count": 30,
      "available_count": 30,
      "total_percent": 100.0,
      "slow_total": 30,
      "slow_avail": 30,
      "slow_percent": 100.0,
      "fast_total": 0,
      "fast_avail": 0,
      "fast_percent": 0.0,
      "latest_update": "20260707170046"
    },
    {
      "station_id": "PI768495",
      "name": "서울청계벽산아파트",
      "address": "서울특별시 성동구 무학로 50",
      "lat": "37.5691096",
      "lng": "127.0326727",
      "total_count": 28,
      "available_count": 22,
      "total_percent": 78.6,
      "slow_total": 28,
      "slow_avail": 22,
      "slow_percent": 78.6,
      "fast_total": 0,
      "fast_avail": 0,
      "fast_percent": 0.0,
      "latest_update": "20260714071101"
    },
    {
      "station_id": "NT102614",
      "name": "성동 텐즈힐2단지",
      "address": "서울특별시 성동구 마장로 137",
      "lat": "37.56782",
      "lng": "127.02505",
      "total_count": 27,
      "available_count": 18,
      "total_percent": 66.7,
      "slow_total": 27,
      "slow_avail": 18,
      "slow_percent": 66.7,
      "fast_total": 0,
      "fast_avail": 0,
      "fast_percent": 0.0,
      "latest_update": "20260714075750"
    },
    {
      "station_id": "PIH00304",
      "name": "신금호파크자이아파트",
      "address": "서울특별시 성동구 금호로 173",
      "lat": "37.556286409",
      "lng": "127.01815298",
      "total_count": 26,
      "available_count": 21,
      "total_percent": 80.8,
      "slow_total": 26,
      "slow_avail": 21,
      "slow_percent": 80.8,
      "fast_total": 0,
      "fast_avail": 0,
      "fast_percent": 0.0,
      "latest_update": "20260714072707"
    },
    {
      "station_id": "PI001440",
      "name": "서울숲행당푸르지오아파트",
      "address": "서울특별시 성동구 고산자로 177",
      "lat": "37.5547778",
      "lng": "127.031713",
      "total_count": 24,
      "available_count": 23,
      "total_percent": 95.8,
      "slow_total": 24,
      "slow_avail": 23,
      "slow_percent": 95.8,
      "fast_total": 0,
      "fast_avail": 0,
      "fast_percent": 0.0,
      "latest_update": "20260714040656"
    },
    {
      "station_id": "PW800888",
      "name": "서울숲한신더휴아파트 입주자대표회의",
      "address": "서울특별시 성동구 고산자로 164",
      "lat": "37.555068757",
      "lng": "127.03542410",
      "total_count": 24,
      "available_count": 18,
      "total_percent": 75.0,
      "slow_total": 24,
      "slow_avail": 18,
      "slow_percent": 75.0,
      "fast_total": 0,
      "fast_avail": 0,
      "fast_percent": 0.0,
      "latest_update": "20260714075410"
    },
    {
      "station_id": "SF001186",
      "name": "서울숲 비즈포레",
      "address": "서울특별시 성동구 왕십리로10길 6",
      "lat": "37.546683300",
      "lng": "127.04530987",
      "total_count": 23,
      "available_count": 23,
      "total_percent": 100.0,
      "slow_total": 23,
      "slow_avail": 23,
      "slow_percent": 100.0,
      "fast_total": 0,
      "fast_avail": 0,
      "fast_percent": 0.0,
      "latest_update": "20260713214518"
    },
    {
      "station_id": "HM001577",
      "name": "마장동현대아파트",
      "address": "서울특별시 성동구 살곶이길 50",
      "lat": "37.569615433",
      "lng": "127.04151713",
      "total_count": 22,
      "available_count": 20,
      "total_percent": 90.9,
      "slow_total": 21,
      "slow_avail": 19,
      "slow_percent": 90.5,
      "fast_total": 1,
      "fast_avail": 1,
      "fast_percent": 100.0,
      "latest_update": "20260714065215"
    },
    {
      "station_id": "NT101945",
      "name": "성동 래미안금호하이리버아파트",
      "address": "서울특별시 성동구 금호로 107",
      "lat": "37.55227",
      "lng": "127.02423",
      "total_count": 21,
      "available_count": 15,
      "total_percent": 71.4,
      "slow_total": 21,
      "slow_avail": 15,
      "slow_percent": 71.4,
      "fast_total": 0,
      "fast_avail": 0,
      "fast_percent": 0.0,
      "latest_update": "20260714075850"
    },
    {
      "station_id": "PW801068",
      "name": "서울숲푸르지오아파트입주자대표회의",
      "address": "서울특별시 성동구 금호로 15",
      "lat": "37.543847507",
      "lng": "127.02276423",
      "total_count": 21,
      "available_count": 11,
      "total_percent": 52.4,
      "slow_total": 21,
      "slow_avail": 11,
      "slow_percent": 52.4,
      "fast_total": 0,
      "fast_avail": 0,
      "fast_percent": 0.0,
      "latest_update": "20260714075919"
    },
    {
      "station_id": "SF000027",
      "name": "도선동 공영주차장",
      "address": "서울특별시 성동구 무학로8길 8",
      "lat": "37.565485",
      "lng": "127.031407",
      "total_count": 21,
      "available_count": 20,
      "total_percent": 95.2,
      "slow_total": 21,
      "slow_avail": 20,
      "slow_percent": 95.2,
      "fast_total": 0,
      "fast_avail": 0,
      "fast_percent": 0.0,
      "latest_update": "20260713233934"
    },
    {
      "station_id": "PI001468",
      "name": "신동아아파트",
      "address": "서울특별시 성동구 독서당로 441",
      "lat": "37.554354",
      "lng": "127.032822",
      "total_count": 20,
      "available_count": 17,
      "total_percent": 85.0,
      "slow_total": 20,
      "slow_avail": 17,
      "slow_percent": 85.0,
      "fast_total": 0,
      "fast_avail": 0,
      "fast_percent": 0.0,
      "latest_update": "20260714080705"
    },
    {
      "station_id": "PI001469",
      "name": "금호자이1차아파트",
      "address": "서울특별시 성동구 금호로 117",
      "lat": "37.5526804",
      "lng": "127.023032",
      "total_count": 20,
      "available_count": 17,
      "total_percent": 85.0,
      "slow_total": 20,
      "slow_avail": 17,
      "slow_percent": 85.0,
      "fast_total": 0,
      "fast_avail": 0,
      "fast_percent": 0.0,
      "latest_update": "20260714080706"
    },
    {
      "station_id": "PI001675",
      "name": "센트라스아파트(1획지)",
      "address": "서울특별시 성동구 왕십리로 410",
      "lat": "37.5665735",
      "lng": "127.024066",
      "total_count": 20,
      "available_count": 16,
      "total_percent": 80.0,
      "slow_total": 20,
      "slow_avail": 16,
      "slow_percent": 80.0,
      "fast_total": 0,
      "fast_avail": 0,
      "fast_percent": 0.0,
      "latest_update": "20260714080705"
    },
    {
      "station_id": "PIH00193",
      "name": "서울숲리버그린동아아파트",
      "address": "서울특별시 성동구 고산자로4길 34",
      "lat": "37.552941200",
      "lng": "127.03726140",
      "total_count": 20,
      "available_count": 19,
      "total_percent": 95.0,
      "slow_total": 20,
      "slow_avail": 19,
      "slow_percent": 95.0,
      "fast_total": 0,
      "fast_avail": 0,
      "fast_percent": 0.0,
      "latest_update": "20260714002714"
    },
    {
      "station_id": "PWE05791",
      "name": "어울림더리버아파트",
      "address": "서울특별시 성동구 독서당로40길 37",
      "lat": "37.541850740",
      "lng": "127.01788776",
      "total_count": 20,
      "available_count": 20,
      "total_percent": 100.0,
      "slow_total": 20,
      "slow_avail": 20,
      "slow_percent": 100.0,
      "fast_total": 0,
      "fast_avail": 0,
      "fast_percent": 0.0,
      "latest_update": "20260519112718"
    },
    {
      "station_id": "SF000972",
      "name": "성수롯데캐슬파크",
      "address": "서울특별시 성동구 성수일로8길 47",
      "lat": "37.546786484",
      "lng": "127.05559597",
      "total_count": 20,
      "available_count": 20,
      "total_percent": 100.0,
      "slow_total": 20,
      "slow_avail": 20,
      "slow_percent": 100.0,
      "fast_total": 0,
      "fast_avail": 0,
      "fast_percent": 0.0,
      "latest_update": "20260714062037"
    },
    {
      "station_id": "SF003543",
      "name": "서울숲아이파크리버포레2차",
      "address": "서울특별시 성동구 왕십리로 135",
      "lat": "37.549370552",
      "lng": "127.04381456",
      "total_count": 20,
      "available_count": 20,
      "total_percent": 100.0,
      "slow_total": 20,
      "slow_avail": 20,
      "slow_percent": 100.0,
      "fast_total": 0,
      "fast_avail": 0,
      "fast_percent": 0.0,
      "latest_update": "20260714075937"
    },
    {
      "station_id": "NT101161",
      "name": "한양대학교(서울캠퍼스)",
      "address": "서울특별시 성동구 왕십리로 222",
      "lat": "37.5574125",
      "lng": "127.0429131",
      "total_count": 19,
      "available_count": 16,
      "total_percent": 84.2,
      "slow_total": 19,
      "slow_avail": 16,
      "slow_percent": 84.2,
      "fast_total": 0,
      "fast_avail": 0,
      "fast_percent": 0.0,
      "latest_update": "20260714064750"
    },
    {
      "station_id": "SF001012",
      "name": "서울숲 코오롱 디지털타워",
      "address": "서울특별시 성동구 성수일로4길 25",
      "lat": "37.542505011",
      "lng": "127.05186584",
      "total_count": 19,
      "available_count": 17,
      "total_percent": 89.5,
      "slow_total": 19,
      "slow_avail": 17,
      "slow_percent": 89.5,
      "fast_total": 0,
      "fast_avail": 0,
      "fast_percent": 0.0,
      "latest_update": "20260714070231"
    },
    {
      "station_id": "PK000024",
      "name": "태진운수",
      "address": "서울특별시 성동구 둘레15길 8",
      "lat": "37.53546",
      "lng": "127.05559",
      "total_count": 18,
      "available_count": 10,
      "total_percent": 55.6,
      "slow_total": 0,
      "slow_avail": 0,
      "slow_percent": 0.0,
      "fast_total": 18,
      "fast_avail": 10,
      "fast_percent": 55.6,
      "latest_update": "20260714080056"
    },
    {
      "station_id": "SF003434",
      "name": "서울숲아이파크리버포레",
      "address": "서울특별시 성동구 왕십리로 137",
      "lat": "37.550167020",
      "lng": "127.04361144",
      "total_count": 18,
      "available_count": 17,
      "total_percent": 94.4,
      "slow_total": 18,
      "slow_avail": 17,
      "slow_percent": 94.4,
      "fast_total": 0,
      "fast_avail": 0,
      "fast_percent": 0.0,
      "latest_update": "20260714025129"
    },
    {
      "station_id": "PI809448",
      "name": "서울 성동구 성수아이파크아파트",
      "address": "서울특별시 성동구 성수이로 137",
      "lat": "37.5479251",
      "lng": "127.0564731",
      "total_count": 17,
      "available_count": 12,
      "total_percent": 70.6,
      "slow_total": 17,
      "slow_avail": 12,
      "slow_percent": 70.6,
      "fast_total": 0,
      "fast_avail": 0,
      "fast_percent": 0.0,
      "latest_update": "20260714080810"
    },
    {
      "station_id": "SF001627",
      "name": "(주)부래당",
      "address": "서울특별시 성동구 아차산로11길 18",
      "lat": "37.545247096",
      "lng": "127.06007430",
      "total_count": 17,
      "available_count": 17,
      "total_percent": 100.0,
      "slow_total": 17,
      "slow_avail": 17,
      "slow_percent": 100.0,
      "fast_total": 0,
      "fast_avail": 0,
      "fast_percent": 0.0,
      "latest_update": "20260519112526"
    },
    {
      "station_id": "PI793918",
      "name": "서울 성동구 갤러리아포레",
      "address": "서울특별시 성동구 서울숲2길 32-14",
      "lat": "37.5456773",
      "lng": "127.0429147",
      "total_count": 16,
      "available_count": 14,
      "total_percent": 87.5,
      "slow_total": 16,
      "slow_avail": 14,
      "slow_percent": 87.5,
      "fast_total": 0,
      "fast_avail": 0,
      "fast_percent": 0.0,
      "latest_update": "20260714074252"
    },
    {
      "station_id": "PL030699",
      "name": "청계현대아파트",
      "address": "서울 성동구 살곶이길 50",
      "lat": "37.5696275",
      "lng": "127.0415240",
      "total_count": 16,
      "available_count": 11,
      "total_percent": 68.8,
      "slow_total": 16,
      "slow_avail": 11,
      "slow_percent": 68.8,
      "fast_total": 0,
      "fast_avail": 0,
      "fast_percent": 0.0,
      "latest_update": "20260714063823"
    },
    {
      "station_id": "SZBA0108",
      "name": "옥수역 차고지",
      "address": "서울특별시 성동구 동호로 21",
      "lat": "37.540885",
      "lng": "127.018542",
      "total_count": 16,
      "available_count": 16,
      "total_percent": 100.0,
      "slow_total": 0,
      "slow_avail": 0,
      "slow_percent": 0.0,
      "fast_total": 16,
      "fast_avail": 16,
      "fast_percent": 100.0,
      "latest_update": "20260714080707"
    },
    {
      "station_id": "PI001676",
      "name": "센트라스아파트(3획지)",
      "address": "서울특별시 성동구 왕십리로 410",
      "lat": "37.5665735",
      "lng": "127.024066",
      "total_count": 15,
      "available_count": 15,
      "total_percent": 100.0,
      "slow_total": 15,
      "slow_avail": 15,
      "slow_percent": 100.0,
      "fast_total": 0,
      "fast_avail": 0,
      "fast_percent": 0.0,
      "latest_update": "20260714080706"
    },
    {
      "station_id": "PL000696",
      "name": "힐스테이트 서울숲리버",
      "address": "서울특별시 성동구 독서당로 344",
      "lat": "37.5464526",
      "lng": "127.0257655",
      "total_count": 15,
      "available_count": 7,
      "total_percent": 46.7,
      "slow_total": 15,
      "slow_avail": 7,
      "slow_percent": 46.7,
      "fast_total": 0,
      "fast_avail": 0,
      "fast_percent": 0.0,
      "latest_update": "20260714080328"
    },
    {
      "station_id": "NT100585",
      "name": "성동 행당대림아파트",
      "address": "서울특별시 성동구 행당로 79",
      "lat": "37.5567679",
      "lng": "127.0280366",
      "total_count": 14,
      "available_count": 9,
      "total_percent": 64.3,
      "slow_total": 14,
      "slow_avail": 9,
      "slow_percent": 64.3,
      "fast_total": 0,
      "fast_avail": 0,
      "fast_percent": 0.0,
      "latest_update": "20260714074550"
    },
    {
      "station_id": "PI200918",
      "name": "서울시 성동구 트리마제아파트",
      "address": "서울특별시 성동구 왕십리로 16",
      "lat": "37.539257866",
      "lng": "127.04467151",
      "total_count": 14,
      "available_count": 12,
      "total_percent": 85.7,
      "slow_total": 14,
      "slow_avail": 12,
      "slow_percent": 85.7,
      "fast_total": 0,
      "fast_avail": 0,
      "fast_percent": 0.0,
      "latest_update": "20260714075310"
    },
    {
      "station_id": "PIH00110",
      "name": "브라운스톤금호아파트",
      "address": "서울특별시 성동구 매봉길 24",
      "lat": "37.547255958",
      "lng": "127.01575506",
      "total_count": 14,
      "available_count": 9,
      "total_percent": 64.3,
      "slow_total": 14,
      "slow_avail": 9,
      "slow_percent": 64.3,
      "fast_total": 0,
      "fast_avail": 0,
      "fast_percent": 0.0,
      "latest_update": "20260714074213"
    },
    {
      "station_id": "PWE06372",
      "name": "서울숲ak밸리지식산업센터",
      "address": "서울특별시 성동구 성수일로 99",
      "lat": "37.549470120",
      "lng": "127.05118738",
      "total_count": 14,
      "available_count": 14,
      "total_percent": 100.0,
      "slow_total": 14,
      "slow_avail": 14,
      "slow_percent": 100.0,
      "fast_total": 0,
      "fast_avail": 0,
      "fast_percent": 0.0,
      "latest_update": "20260713131709"
    },
    {
      "station_id": "HM110144",
      "name": "_비트플렉스",
      "address": "서울특별시 성동구 왕십리광장로 17",
      "lat": "37.5608972",
      "lng": "127.0383824",
      "total_count": 13,
      "available_count": 13,
      "total_percent": 100.0,
      "slow_total": 12,
      "slow_avail": 12,
      "slow_percent": 100.0,
      "fast_total": 1,
      "fast_avail": 1,
      "fast_percent": 100.0,
      "latest_update": "20260714032018"
    },
    {
      "station_id": "PI204053",
      "name": "서울시 성동구 성수롯데캐슬파크",
      "address": "서울특별시 성동구 성수일로8길 47",
      "lat": "37.546786484",
      "lng": "127.05559597",
      "total_count": 13,
      "available_count": 13,
      "total_percent": 100.0,
      "slow_total": 13,
      "slow_avail": 13,
      "slow_percent": 100.0,
      "fast_total": 0,
      "fast_avail": 0,
      "fast_percent": 0.0,
      "latest_update": "20260714060023"
    },
    {
      "station_id": "PI794001",
      "name": "서울 성동구 강변건영아파트",
      "address": "서울특별시 성동구 왕십리로 36",
      "lat": "37.540193",
      "lng": "127.0452488",
      "total_count": 13,
      "available_count": 10,
      "total_percent": 76.9,
      "slow_total": 13,
      "slow_avail": 10,
      "slow_percent": 76.9,
      "fast_total": 0,
      "fast_avail": 0,
      "fast_percent": 0.0,
      "latest_update": "20260714080754"
    },
    {
      "station_id": "ST112004",
      "name": "한양대학교",
      "address": "서울특별시 성동구 왕십리로 222",
      "lat": "37.555378",
      "lng": "127.048498",
      "total_count": 13,
      "available_count": 10,
      "total_percent": 76.9,
      "slow_total": 7,
      "slow_avail": 4,
      "slow_percent": 57.1,
      "fast_total": 6,
      "fast_avail": 6,
      "fast_percent": 100.0,
      "latest_update": "20260714080336"
    },
    {
      "station_id": "PI001496",
      "name": "서울숲삼부아파트",
      "address": "서울특별시 성동구 왕십리로 280",
      "lat": "37.5599839",
      "lng": "127.03743",
      "total_count": 12,
      "available_count": 11,
      "total_percent": 91.7,
      "slow_total": 12,
      "slow_avail": 11,
      "slow_percent": 91.7,
      "fast_total": 0,
      "fast_avail": 0,
      "fast_percent": 0.0,
      "latest_update": "20260714080704"
    },
    {
      "station_id": "PI001546",
      "name": "송정건영아파트",
      "address": "서울특별시 성동구 동일로 263",
      "lat": "37.5559505",
      "lng": "127.07095",
      "total_count": 12,
      "available_count": 12,
      "total_percent": 100.0,
      "slow_total": 12,
      "slow_avail": 12,
      "slow_percent": 100.0,
      "fast_total": 0,
      "fast_avail": 0,
      "fast_percent": 0.0,
      "latest_update": "20260714080705"
    },
    {
      "station_id": "PI202654",
      "name": "케이티성수빌딩",
      "address": "서울특별시 성동구 아차산로13길 47 (성수동2가, 광진전화국성수분국)",
      "lat": "37.5474",
      "lng": "127.062",
      "total_count": 12,
      "available_count": 2,
      "total_percent": 16.7,
      "slow_total": 12,
      "slow_avail": 2,
      "slow_percent": 16.7,
      "fast_total": 0,
      "fast_avail": 0,
      "fast_percent": 0.0,
      "latest_update": "20260711164106"
    },
    {
      "station_id": "PI796661",
      "name": "서울 성동구 서울숲리버뷰자이아파트",
      "address": "서울특별시 성동구 고산자로2길 65",
      "lat": "37.5561985",
      "lng": "127.0388365",
      "total_count": 12,
      "available_count": 3,
      "total_percent": 25.0,
      "slow_total": 12,
      "slow_avail": 3,
      "slow_percent": 25.0,
      "fast_total": 0,
      "fast_avail": 0,
      "fast_percent": 0.0,
      "latest_update": "20260714074751"
    },
    {
      "station_id": "SF000930",
      "name": "한불모터스",
      "address": "서울특별시 성동구 광나루로 310",
      "lat": "37.547800739",
      "lng": "127.06445672",
      "total_count": 12,
      "available_count": 12,
      "total_percent": 100.0,
      "slow_total": 12,
      "slow_avail": 12,
      "slow_percent": 100.0,
      "fast_total": 0,
      "fast_avail": 0,
      "fast_percent": 0.0,
      "latest_update": "20260707170047"
    },
    {
      "station_id": "SF001016",
      "name": "서울숲아이파크",
      "address": "서울특별시 성동구 동일로 237",
      "lat": "37.552500926",
      "lng": "127.06870212",
      "total_count": 12,
      "available_count": 12,
      "total_percent": 100.0,
      "slow_total": 12,
      "slow_avail": 12,
      "slow_percent": 100.0,
      "fast_total": 0,
      "fast_avail": 0,
      "fast_percent": 0.0,
      "latest_update": "20260712101927"
    },
    {
      "station_id": "SF002098",
      "name": "서울숲삼부아파트",
      "address": "서울특별시 성동구 왕십리로 280",
      "lat": "37.560204715",
      "lng": "127.03801780",
      "total_count": 12,
      "available_count": 12,
      "total_percent": 100.0,
      "slow_total": 12,
      "slow_avail": 12,
      "slow_percent": 100.0,
      "fast_total": 0,
      "fast_avail": 0,
      "fast_percent": 0.0,
      "latest_update": "20260713152445"
    },
    {
      "station_id": "SF002369",
      "name": "서울숲 한라시그마밸리 2차",
      "address": "서울특별시 성동구 성수이로7길 7",
      "lat": "37.539807601",
      "lng": "127.05446076",
      "total_count": 12,
      "available_count": 12,
      "total_percent": 100.0,
      "slow_total": 12,
      "slow_avail": 12,
      "slow_percent": 100.0,
      "fast_total": 0,
      "fast_avail": 0,
      "fast_percent": 0.0,
      "latest_update": "20260713221549"
    },
    {
      "station_id": "SF002386",
      "name": "성동구청 G3주차장",
      "address": "서울특별시 성동구 고산자로 270",
      "lat": "37.563422509",
      "lng": "127.03696499",
      "total_count": 12,
      "available_count": 12,
      "total_percent": 100.0,
      "slow_total": 12,
      "slow_avail": 12,
      "slow_percent": 100.0,
      "fast_total": 0,
      "fast_avail": 0,
      "fast_percent": 0.0,
      "latest_update": "20260711050709"
    },
    {
      "station_id": "KP004801",
      "name": "뚝섬유수지 공영주차장",
      "address": "서울특별시 성동구 광나루로 104",
      "lat": "37.5506",
      "lng": "127.0414",
      "total_count": 11,
      "available_count": 7,
      "total_percent": 63.6,
      "slow_total": 0,
      "slow_avail": 0,
      "slow_percent": 0.0,
      "fast_total": 11,
      "fast_avail": 7,
      "fast_percent": 63.6,
      "latest_update": "20260714080010"
    },
    {
      "station_id": "PIH00401",
      "name": "에이스하이엔드성수타워",
      "address": "서울특별시 성동구 성수이로10길 14",
      "lat": "37.540130774",
      "lng": "127.05678985",
      "total_count": 11,
      "available_count": 11,
      "total_percent": 100.0,
      "slow_total": 11,
      "slow_avail": 11,
      "slow_percent": 100.0,
      "fast_total": 0,
      "fast_avail": 0,
      "fast_percent": 0.0,
      "latest_update": "20260713193725"
    },
    {
      "station_id": "SF000215",
      "name": "금호초교 공영주차장",
      "address": "서울특별시 성동구 무수막길 69",
      "lat": "37.552197",
      "lng": "127.020326",
      "total_count": 11,
      "available_count": 11,
      "total_percent": 100.0,
      "slow_total": 11,
      "slow_avail": 11,
      "slow_percent": 100.0,
      "fast_total": 0,
      "fast_avail": 0,
      "fast_percent": 0.0,
      "latest_update": "20260713074447"
    },
    {
      "station_id": "EV019221",
      "name": "서울성동 옥수파크힐스 13",
      "address": "서울 성동구 매봉길 50",
      "lat": "37.5472989",
      "lng": "127.0121894",
      "total_count": 10,
      "available_count": 9,
      "total_percent": 90.0,
      "slow_total": 10,
      "slow_avail": 9,
      "slow_percent": 90.0,
      "fast_total": 0,
      "fast_avail": 0,
      "fast_percent": 0.0,
      "latest_update": "20260714071135"
    },
    {
      "station_id": "EV019222",
      "name": "서울성동 옥수파크힐스 14",
      "address": "서울 성동구 매봉길 50",
      "lat": "37.5472989",
      "lng": "127.0121894",
      "total_count": 10,
      "available_count": 8,
      "total_percent": 80.0,
      "slow_total": 10,
      "slow_avail": 8,
      "slow_percent": 80.0,
      "fast_total": 0,
      "fast_avail": 0,
      "fast_percent": 0.0,
      "latest_update": "20260714072744"
    },
    {
      "station_id": "EV019223",
      "name": "서울성동 옥수파크힐스 15",
      "address": "서울 성동구 매봉길 50",
      "lat": "37.5472989",
      "lng": "127.0121894",
      "total_count": 10,
      "available_count": 9,
      "total_percent": 90.0,
      "slow_total": 10,
      "slow_avail": 9,
      "slow_percent": 90.0,
      "fast_total": 0,
      "fast_avail": 0,
      "fast_percent": 0.0,
      "latest_update": "20260714015034"
    },
    {
      "station_id": "EV019224",
      "name": "서울성동 옥수파크힐스 16",
      "address": "서울 성동구 매봉길 50",
      "lat": "37.5472989",
      "lng": "127.0121894",
      "total_count": 10,
      "available_count": 9,
      "total_percent": 90.0,
      "slow_total": 10,
      "slow_avail": 9,
      "slow_percent": 90.0,
      "fast_total": 0,
      "fast_avail": 0,
      "fast_percent": 0.0,
      "latest_update": "20260714074958"
    },
    {
      "station_id": "EZ210028",
      "name": "성수금호3차아파트입주자대표회의",
      "address": "서울특별시 성동구 뚝섬로5길 19",
      "lat": "37.5419314",
      "lng": "127.0505158",
      "total_count": 10,
      "available_count": 0,
      "total_percent": 0.0,
      "slow_total": 10,
      "slow_avail": 0,
      "slow_percent": 0.0,
      "fast_total": 0,
      "fast_avail": 0,
      "fast_percent": 0.0,
      "latest_update": "20260601113310"
    },
    {
      "station_id": "IN120007",
      "name": "서울숲 리버뷰 자이아파트",
      "address": "서울특별시 성동구 고산자로2길 65",
      "lat": "37.5561",
      "lng": "127.038877",
      "total_count": 10,
      "available_count": 9,
      "total_percent": 90.0,
      "slow_total": 10,
      "slow_avail": 9,
      "slow_percent": 90.0,
      "fast_total": 0,
      "fast_avail": 0,
      "fast_percent": 0.0,
      "latest_update": "20260615122834"
    },
    {
      "station_id": "NT101179",
      "name": "성동 금호자이1차아파트",
      "address": "서울특별시 성동구 금호로 117",
      "lat": "37.552875000",
      "lng": "127.02341529",
      "total_count": 10,
      "available_count": 7,
      "total_percent": 70.0,
      "slow_total": 10,
      "slow_avail": 7,
      "slow_percent": 70.0,
      "fast_total": 0,
      "fast_avail": 0,
      "fast_percent": 0.0,
      "latest_update": "20260714071850"
    },
    {
      "station_id": "PI204096",
      "name": "서울시 성동구 성수SKV1센터",
      "address": "서울특별시 성동구 아차산로17길 48",
      "lat": "37.5463938",
      "lng": "127.0658895",
      "total_count": 10,
      "available_count": 6,
      "total_percent": 60.0,
      "slow_total": 9,
      "slow_avail": 5,
      "slow_percent": 55.6,
      "fast_total": 1,
      "fast_avail": 1,
      "fast_percent": 100.0,
      "latest_update": "20260714073129"
    },
    {
      "station_id": "PI807841",
      "name": "서울 성동구 금호베스트빌",
      "address": "서울특별시 성동구 난계로 114-31",
      "lat": "37.5612312",
      "lng": "127.0259523",
      "total_count": 10,
      "available_count": 7,
      "total_percent": 70.0,
      "slow_total": 10,
      "slow_avail": 7,
      "slow_percent": 70.0,
      "fast_total": 0,
      "fast_avail": 0,
      "fast_percent": 0.0,
      "latest_update": "20260714053751"
    },
    {
      "station_id": "PIS00005",
      "name": "서울 성동구 서울숲리버뷰자이아파트",
      "address": "서울특별시 성동구 고산자로2길 65",
      "lat": "37.5561000",
      "lng": "127.0388770",
      "total_count": 10,
      "available_count": 4,
      "total_percent": 40.0,
      "slow_total": 10,
      "slow_avail": 4,
      "slow_percent": 40.0,
      "fast_total": 0,
      "fast_avail": 0,
      "fast_percent": 0.0,
      "latest_update": "20260714071804"
    },
    {
      "station_id": "PW013084",
      "name": "서울시서울숲 더샵",
      "address": "서울특별시 성동구 왕십리로 241",
      "lat": "37.557154330",
      "lng": "127.04010502",
      "total_count": 10,
      "available_count": 5,
      "total_percent": 50.0,
      "slow_total": 10,
      "slow_avail": 5,
      "slow_percent": 50.0,
      "fast_total": 0,
      "fast_avail": 0,
      "fast_percent": 0.0,
      "latest_update": "20260714071424"
    },
    {
      "station_id": "SF000210",
      "name": "성동구 도시관리공단 지하주차장",
      "address": "서울특별시 성동구 청계천로 546",
      "lat": "37.571677",
      "lng": "127.036899",
      "total_count": 10,
      "available_count": 10,
      "total_percent": 100.0,
      "slow_total": 10,
      "slow_avail": 10,
      "slow_percent": 100.0,
      "fast_total": 0,
      "fast_avail": 0,
      "fast_percent": 0.0,
      "latest_update": "20260709201458"
    },
    {
      "station_id": "SF001187",
      "name": "무학현대아파트",
      "address": "서울특별시 성동구 무학봉길 49",
      "lat": "37.5615649",
      "lng": "127.0280453",
      "total_count": 10,
      "available_count": 8,
      "total_percent": 80.0,
      "slow_total": 10,
      "slow_avail": 8,
      "slow_percent": 80.0,
      "fast_total": 0,
      "fast_avail": 0,
      "fast_percent": 0.0,
      "latest_update": "20260714064433"
    },
    {
      "station_id": "SF001240",
      "name": "강변건영아파트",
      "address": "서울특별시 성동구 왕십리로 36",
      "lat": "37.540465625",
      "lng": "127.04427689",
      "total_count": 10,
      "available_count": 10,
      "total_percent": 100.0,
      "slow_total": 10,
      "slow_avail": 10,
      "slow_percent": 100.0,
      "fast_total": 0,
      "fast_avail": 0,
      "fast_percent": 0.0,
      "latest_update": "20260712004946"
    },
    {
      "station_id": "SF001434",
      "name": "서울숲 금강아미움 아파트",
      "address": "서울특별시 성동구 아차산로9길 34",
      "lat": "37.546719061",
      "lng": "127.05953469",
      "total_count": 10,
      "available_count": 9,
      "total_percent": 90.0,
      "slow_total": 10,
      "slow_avail": 9,
      "slow_percent": 90.0,
      "fast_total": 0,
      "fast_avail": 0,
      "fast_percent": 0.0,
      "latest_update": "20260713193933"
    },
    {
      "station_id": "SF003597",
      "name": "서울숲아이파크리버포레 (완속충전기)",
      "address": "서울특별시 성동구 왕십리로 137",
      "lat": "37.550167020",
      "lng": "127.04361144",
      "total_count": 10,
      "available_count": 8,
      "total_percent": 80.0,
      "slow_total": 10,
      "slow_avail": 8,
      "slow_percent": 80.0,
      "fast_total": 0,
      "fast_avail": 0,
      "fast_percent": 0.0,
      "latest_update": "20260714050445"
    },
    {
      "station_id": "EC000001",
      "name": "대림강변타운",
      "address": "서울특별시 성동구 고산자로 160",
      "lat": "37.5544481",
      "lng": "127.0346918",
      "total_count": 9,
      "available_count": 9,
      "total_percent": 100.0,
      "slow_total": 9,
      "slow_avail": 9,
      "slow_percent": 100.0,
      "fast_total": 0,
      "fast_avail": 0,
      "fast_percent": 0.0,
      "latest_update": "20260714075601"
    },
    {
      "station_id": "EV014638",
      "name": "서울성동 금호동대우아파트 16",
      "address": "서울특별시 성동구 독서당로 272",
      "lat": "37.545330034",
      "lng": "127.01792536",
      "total_count": 9,
      "available_count": 9,
      "total_percent": 100.0,
      "slow_total": 9,
      "slow_avail": 9,
      "slow_percent": 100.0,
      "fast_total": 0,
      "fast_avail": 0,
      "fast_percent": 0.0,
      "latest_update": "20260714063513"
    },
    {
      "station_id": "EV016031",
      "name": "서울성동 금호자이2차아파트 3",
      "address": "서울특별시 성동구 금호산8길 14 (금호동3가, 금호자이2차)",
      "lat": "37.5507159",
      "lng": "127.0221903",
      "total_count": 9,
      "available_count": 6,
      "total_percent": 66.7,
      "slow_total": 9,
      "slow_avail": 6,
      "slow_percent": 66.7,
      "fast_total": 0,
      "fast_avail": 0,
      "fast_percent": 0.0,
      "latest_update": "20260714065524"
    },
    {
      "station_id": "EV016219",
      "name": "서울성북 행당한진타운아파트 9-3",
      "address": "서울특별시 성동구 행당로 82 (행당동, 행당 한진타운)",
      "lat": "37.5548089",
      "lng": "127.0273697",
      "total_count": 9,
      "available_count": 8,
      "total_percent": 88.9,
      "slow_total": 9,
      "slow_avail": 8,
      "slow_percent": 88.9,
      "fast_total": 0,
      "fast_avail": 0,
      "fast_percent": 0.0,
      "latest_update": "20260714055048"
    },
    {
      "station_id": "EV016222",
      "name": "서울성북 행당한진타운아파트 10-2",
      "address": "서울특별시 성동구 행당로 82 (행당동, 행당 한진타운)",
      "lat": "37.5548089",
      "lng": "127.0273667",
      "total_count": 9,
      "available_count": 8,
      "total_percent": 88.9,
      "slow_total": 9,
      "slow_avail": 8,
      "slow_percent": 88.9,
      "fast_total": 0,
      "fast_avail": 0,
      "fast_percent": 0.0,
      "latest_update": "20260714053239"
    },
    {
      "station_id": "EV016223",
      "name": "서울성북 행당한진타운아파트 10-3",
      "address": "서울특별시 성동구 행당로 82 (행당동, 행당 한진타운)",
      "lat": "37.5548089",
      "lng": "127.0273307",
      "total_count": 9,
      "available_count": 7,
      "total_percent": 77.8,
      "slow_total": 9,
      "slow_avail": 7,
      "slow_percent": 77.8,
      "fast_total": 0,
      "fast_avail": 0,
      "fast_percent": 0.0,
      "latest_update": "20260714071738"
    },
    {
      "station_id": "EV019213",
      "name": "서울성동 옥수파크힐스 5",
      "address": "서울 성동구 매봉길 50",
      "lat": "37.5472989",
      "lng": "127.0121894",
      "total_count": 9,
      "available_count": 4,
      "total_percent": 44.4,
      "slow_total": 9,
      "slow_avail": 4,
      "slow_percent": 44.4,
      "fast_total": 0,
      "fast_avail": 0,
      "fast_percent": 0.0,
      "latest_update": "20260714073548"
    },
    {
      "station_id": "PI763057",
      "name": "마장세림아파트",
      "address": "서울특별시 성동구 마장로42길 16",
      "lat": "37.5650407",
      "lng": "127.0460385",
      "total_count": 9,
      "available_count": 5,
      "total_percent": 55.6,
      "slow_total": 9,
      "slow_avail": 5,
      "slow_percent": 55.6,
      "fast_total": 0,
      "fast_avail": 0,
      "fast_percent": 0.0,
      "latest_update": "20260714070031"
    },
    {
      "station_id": "PL033246",
      "name": "왕십리삼성아파트",
      "address": "서울특별시 성동구 마장로 271",
      "lat": "37.5664843",
      "lng": "127.0402766",
      "total_count": 9,
      "available_count": 8,
      "total_percent": 88.9,
      "slow_total": 9,
      "slow_avail": 8,
      "slow_percent": 88.9,
      "fast_total": 0,
      "fast_avail": 0,
      "fast_percent": 0.0,
      "latest_update": "20260714074756"
    },
    {
      "station_id": "PWE06880",
      "name": "E아름다운세상아파트",
      "address": "서울특별시 성동구 광나루로6길 7-1",
      "lat": "37.547771114",
      "lng": "127.06085691",
      "total_count": 9,
      "available_count": 8,
      "total_percent": 88.9,
      "slow_total": 9,
      "slow_avail": 8,
      "slow_percent": 88.9,
      "fast_total": 0,
      "fast_avail": 0,
      "fast_percent": 0.0,
      "latest_update": "20260714080209"
    },
    {
      "station_id": "SF000217",
      "name": "성동안심상가 부설주차장",
      "address": "서울특별시 성동구 성수일로12길 20",
      "lat": "37.548214",
      "lng": "127.053346",
      "total_count": 9,
      "available_count": 9,
      "total_percent": 100.0,
      "slow_total": 9,
      "slow_avail": 9,
      "slow_percent": 100.0,
      "fast_total": 0,
      "fast_avail": 0,
      "fast_percent": 0.0,
      "latest_update": "20260704155138"
    },
    {
      "station_id": "EV016173",
      "name": "서울성동 금호한신휴플러스아파트 2",
      "address": "서울특별시 성동구 금호산길 27 (금호동3가, 금호동한신휴플러스아파트)",
      "lat": "37.5505495",
      "lng": "127.0170883",
      "total_count": 8,
      "available_count": 4,
      "total_percent": 50.0,
      "slow_total": 8,
      "slow_avail": 4,
      "slow_percent": 50.0,
      "fast_total": 0,
      "fast_avail": 0,
      "fast_percent": 0.0,
      "latest_update": "20260714062708"
    },
    {
      "station_id": "EZ210050",
      "name": "금호삼성래미안 입주자대표회의",
      "address": "서울특별시 성동구 독서당로 343",
      "lat": "37.5495792",
      "lng": "127.027307",
      "total_count": 8,
      "available_count": 0,
      "total_percent": 0.0,
      "slow_total": 8,
      "slow_avail": 0,
      "slow_percent": 0.0,
      "fast_total": 0,
      "fast_avail": 0,
      "fast_percent": 0.0,
      "latest_update": "20260601113310"
    },
    {
      "station_id": "HY000004",
      "name": "성동 옥수현대아파트",
      "address": "서울특별시 성동구 독서당로40길 25",
      "lat": "37.543333",
      "lng": "127.018889",
      "total_count": 8,
      "available_count": 6,
      "total_percent": 75.0,
      "slow_total": 8,
      "slow_avail": 6,
      "slow_percent": 75.0,
      "fast_total": 0,
      "fast_avail": 0,
      "fast_percent": 0.0,
      "latest_update": "20260714061302"
    },
    {
      "station_id": "KP000015",
      "name": "광진성동지사",
      "address": "서울특별시 성동구 마장로27길 13",
      "lat": "37.5677096",
      "lng": "127.0340572",
      "total_count": 8,
      "available_count": 5,
      "total_percent": 62.5,
      "slow_total": 7,
      "slow_avail": 5,
      "slow_percent": 71.4,
      "fast_total": 1,
      "fast_avail": 0,
      "fast_percent": 0.0,
      "latest_update": "20260714015021"
    },
    {
      "station_id": "NT102140",
      "name": "서울숲 힐스테이트",
      "address": "서울특별시 성동구 성수일로4길 26",
      "lat": "37.54150",
      "lng": "127.05150",
      "total_count": 8,
      "available_count": 4,
      "total_percent": 50.0,
      "slow_total": 8,
      "slow_avail": 4,
      "slow_percent": 50.0,
      "fast_total": 0,
      "fast_avail": 0,
      "fast_percent": 0.0,
      "latest_update": "20260714044050"
    },
    {
      "station_id": "NT102290",
      "name": "성동 한신무학아파트",
      "address": "서울특별시 성동구 왕십리로31나길 22",
      "lat": "37.56238",
      "lng": "127.02848",
      "total_count": 8,
      "available_count": 5,
      "total_percent": 62.5,
      "slow_total": 8,
      "slow_avail": 5,
      "slow_percent": 62.5,
      "fast_total": 0,
      "fast_avail": 0,
      "fast_percent": 0.0,
      "latest_update": "20260714065650"
    },
    {
      "station_id": "PI121543",
      "name": "서울시 성동구 서울숲대림아파트",
      "address": "서울특별시 성동구 뚝섬로 311 (성수동1가, 대림로즈빌) 101동~104동",
      "lat": "37.542",
      "lng": "127.045",
      "total_count": 8,
      "available_count": 8,
      "total_percent": 100.0,
      "slow_total": 8,
      "slow_avail": 8,
      "slow_percent": 100.0,
      "fast_total": 0,
      "fast_avail": 0,
      "fast_percent": 0.0,
      "latest_update": "20260714073314"
    },
    {
      "station_id": "PI122387",
      "name": "성수동동아그린아파트",
      "address": "서울특별시 성동구 상원길 76",
      "lat": "37.550955",
      "lng": "127.048491",
      "total_count": 8,
      "available_count": 8,
      "total_percent": 100.0,
      "slow_total": 8,
      "slow_avail": 8,
      "slow_percent": 100.0,
      "fast_total": 0,
      "fast_avail": 0,
      "fast_percent": 0.0,
      "latest_update": "20260714052109"
    },
    {
      "station_id": "PI204255",
      "name": "서울시 성동구 신성노바빌",
      "address": "서울특별시 성동구 뚝섬로13길 11",
      "lat": "37.5395607",
      "lng": "127.0569587",
      "total_count": 8,
      "available_count": 8,
      "total_percent": 100.0,
      "slow_total": 8,
      "slow_avail": 8,
      "slow_percent": 100.0,
      "fast_total": 0,
      "fast_avail": 0,
      "fast_percent": 0.0,
      "latest_update": "20260714072137"
    },
    {
      "station_id": "PL033218",
      "name": "청계미소지움",
      "address": "서울 성동구 마장로39길 43",
      "lat": "37.5683414",
      "lng": "127.0432934",
      "total_count": 8,
      "available_count": 7,
      "total_percent": 87.5,
      "slow_total": 8,
      "slow_avail": 7,
      "slow_percent": 87.5,
      "fast_total": 0,
      "fast_avail": 0,
      "fast_percent": 0.0,
      "latest_update": "20260713073022"
    },
    {
      "station_id": "PW013082",
      "name": "서울시한진해모로아파트",
      "address": "서울특별시 성동구 왕십리로31길 20",
      "lat": "37.562984496",
      "lng": "127.02675902",
      "total_count": 8,
      "available_count": 7,
      "total_percent": 87.5,
      "slow_total": 8,
      "slow_avail": 7,
      "slow_percent": 87.5,
      "fast_total": 0,
      "fast_avail": 0,
      "fast_percent": 0.0,
      "latest_update": "20260714071925"
    },
    {
      "station_id": "PW801150",
      "name": "서울숲힐스테이트입주자대표회의(T)",
      "address": "서울특별시 성동구 성수일로4길 26",
      "lat": "37.541500373",
      "lng": "127.05150827",
      "total_count": 8,
      "available_count": 2,
      "total_percent": 25.0,
      "slow_total": 8,
      "slow_avail": 2,
      "slow_percent": 25.0,
      "fast_total": 0,
      "fast_avail": 0,
      "fast_percent": 0.0,
      "latest_update": "20260714004636"
    },
    {
      "station_id": "SF000212",
      "name": "홍익동 공영주차장",
      "address": "서울특별시 성동구 무학로10길 28",
      "lat": "37.565642",
      "lng": "127.033944",
      "total_count": 8,
      "available_count": 8,
      "total_percent": 100.0,
      "slow_total": 8,
      "slow_avail": 8,
      "slow_percent": 100.0,
      "fast_total": 0,
      "fast_avail": 0,
      "fast_percent": 0.0,
      "latest_update": "20260709174505"
    },
    {
      "station_id": "SF000220",
      "name": "강변 공영주차장",
      "address": "서울특별시 성동구 둘레길 47-5",
      "lat": "37.536943",
      "lng": "127.049028",
      "total_count": 8,
      "available_count": 7,
      "total_percent": 87.5,
      "slow_total": 8,
      "slow_avail": 7,
      "slow_percent": 87.5,
      "fast_total": 0,
      "fast_avail": 0,
      "fast_percent": 0.0,
      "latest_update": "20260709071928"
    },
    {
      "station_id": "SF000222",
      "name": "송정동 공영주차장",
      "address": "서울특별시 성동구 동일로 199",
      "lat": "37.549886",
      "lng": "127.068046",
      "total_count": 8,
      "available_count": 8,
      "total_percent": 100.0,
      "slow_total": 8,
      "slow_avail": 8,
      "slow_percent": 100.0,
      "fast_total": 0,
      "fast_avail": 0,
      "fast_percent": 0.0,
      "latest_update": "20260707110530"
    },
    {
      "station_id": "SF000920",
      "name": "성수현대그린아파트",
      "address": "서울특별시 성동구 뚝섬로3길 6",
      "lat": "37.540526044",
      "lng": "127.05001423",
      "total_count": 8,
      "available_count": 7,
      "total_percent": 87.5,
      "slow_total": 8,
      "slow_avail": 7,
      "slow_percent": 87.5,
      "fast_total": 0,
      "fast_avail": 0,
      "fast_percent": 0.0,
      "latest_update": "20260713220923"
    },
    {
      "station_id": "SF001009",
      "name": "더스페이스타워",
      "address": "서울특별시 성동구 광나루로 144",
      "lat": "37.551300030",
      "lng": "127.04643539",
      "total_count": 8,
      "available_count": 8,
      "total_percent": 100.0,
      "slow_total": 8,
      "slow_avail": 8,
      "slow_percent": 100.0,
      "fast_total": 0,
      "fast_avail": 0,
      "fast_percent": 0.0,
      "latest_update": "20260713161025"
    },
    {
      "station_id": "SF001013",
      "name": "성수 AK 밸리",
      "address": "서울특별시 성동구 연무장길 76",
      "lat": "37.541505974",
      "lng": "127.05752661",
      "total_count": 8,
      "available_count": 8,
      "total_percent": 100.0,
      "slow_total": 8,
      "slow_avail": 8,
      "slow_percent": 100.0,
      "fast_total": 0,
      "fast_avail": 0,
      "fast_percent": 0.0,
      "latest_update": "20260707170039"
    },
    {
      "station_id": "EC110126",
      "name": "서울숲더샵아파트_아마노",
      "address": "서울특별시 성동구 왕십리로 241",
      "lat": "37.55705509",
      "lng": "127.0403651",
      "total_count": 7,
      "available_count": 3,
      "total_percent": 42.9,
      "slow_total": 7,
      "slow_avail": 3,
      "slow_percent": 42.9,
      "fast_total": 0,
      "fast_avail": 0,
      "fast_percent": 0.0,
      "latest_update": "20260714080202"
    },
    {
      "station_id": "EV016217",
      "name": "서울성북 행당한진타운아파트 9-1",
      "address": "서울특별시 성동구 행당로 82 (행당동, 행당 한진타운)",
      "lat": "37.5548089",
      "lng": "127.0273497",
      "total_count": 7,
      "available_count": 7,
      "total_percent": 100.0,
      "slow_total": 7,
      "slow_avail": 7,
      "slow_percent": 100.0,
      "fast_total": 0,
      "fast_avail": 0,
      "fast_percent": 0.0,
      "latest_update": "20260713083541"
    },
    {
      "station_id": "IM000374",
      "name": "서울숲한라시그마밸리",
      "address": "서울특별시 성동구 성수이로51",
      "lat": "37.5399010",
      "lng": "127.0550460",
      "total_count": 7,
      "available_count": 6,
      "total_percent": 85.7,
      "slow_total": 7,
      "slow_avail": 6,
      "slow_percent": 85.7,
      "fast_total": 0,
      "fast_avail": 0,
      "fast_percent": 0.0,
      "latest_update": "20260713182146"
    },
    {
      "station_id": "LU003002",
      "name": "성수동동아아파트",
      "address": "서울특별시 성동구 왕십리로 80",
      "lat": "37.544034",
      "lng": "127.045339",
      "total_count": 7,
      "available_count": 5,
      "total_percent": 71.4,
      "slow_total": 7,
      "slow_avail": 5,
      "slow_percent": 71.4,
      "fast_total": 0,
      "fast_avail": 0,
      "fast_percent": 0.0,
      "latest_update": "20260714072248"
    },
    {
      "station_id": "NT101125",
      "name": "응봉 금호현대아파트",
      "address": "서울특별시 성동구 독서당로 377",
      "lat": "37.5500015",
      "lng": "127.0303982",
      "total_count": 7,
      "available_count": 6,
      "total_percent": 85.7,
      "slow_total": 7,
      "slow_avail": 6,
      "slow_percent": 85.7,
      "fast_total": 0,
      "fast_avail": 0,
      "fast_percent": 0.0,
      "latest_update": "20260714075250"
    },
    {
      "station_id": "PI204275",
      "name": "서울시 성동구 한남더리버오피스텔",
      "address": "서울특별시 성동구 독서당로 166",
      "lat": "37.5406062",
      "lng": "127.0116984",
      "total_count": 7,
      "available_count": 6,
      "total_percent": 85.7,
      "slow_total": 7,
      "slow_avail": 6,
      "slow_percent": 85.7,
      "fast_total": 0,
      "fast_avail": 0,
      "fast_percent": 0.0,
      "latest_update": "20260714073147"
    },
    {
      "station_id": "PI204322",
      "name": "서울시 성동구 서울숲아이티밸리",
      "address": "서울특별시 성동구 성수일로 77",
      "lat": "37.5474049",
      "lng": "127.0503435",
      "total_count": 7,
      "available_count": 6,
      "total_percent": 85.7,
      "slow_total": 7,
      "slow_avail": 6,
      "slow_percent": 85.7,
      "fast_total": 0,
      "fast_avail": 0,
      "fast_percent": 0.0,
      "latest_update": "20260714064639"
    },
    {
      "station_id": "PI768588",
      "name": "옥수극동그린아파트B",
      "address": "서울특별시 성동구 독서당로 175",
      "lat": "37.541964930",
      "lng": "127.00996311",
      "total_count": 7,
      "available_count": 5,
      "total_percent": 71.4,
      "slow_total": 7,
      "slow_avail": 5,
      "slow_percent": 71.4,
      "fast_total": 0,
      "fast_avail": 0,
      "fast_percent": 0.0,
      "latest_update": "20260714075556"
    },
    {
      "station_id": "PIH01209",
      "name": "서울 하왕십리동 금호베스트빌아파트",
      "address": "서울특별시 성동구 난계로 114-31",
      "lat": "37.562038932",
      "lng": "127.02621325",
      "total_count": 7,
      "available_count": 7,
      "total_percent": 100.0,
      "slow_total": 7,
      "slow_avail": 7,
      "slow_percent": 100.0,
      "fast_total": 0,
      "fast_avail": 0,
      "fast_percent": 0.0,
      "latest_update": "20260712132712"
    },
    {
      "station_id": "PW013267",
      "name": "마장신성미소지움아파트입주자대표회의",
      "address": "서울특별시 성동구 마장로39길 43",
      "lat": "37.5683377",
      "lng": "127.0432916",
      "total_count": 7,
      "available_count": 6,
      "total_percent": 85.7,
      "slow_total": 7,
      "slow_avail": 6,
      "slow_percent": 85.7,
      "fast_total": 0,
      "fast_avail": 0,
      "fast_percent": 0.0,
      "latest_update": "20260714052613"
    },
    {
      "station_id": "SF000209",
      "name": "마장동 공영주차장",
      "address": "서울특별시 성동구 청계천로10나길 38",
      "lat": "37.570055",
      "lng": "127.035168",
      "total_count": 7,
      "available_count": 7,
      "total_percent": 100.0,
      "slow_total": 7,
      "slow_avail": 7,
      "slow_percent": 100.0,
      "fast_total": 0,
      "fast_avail": 0,
      "fast_percent": 0.0,
      "latest_update": "20260709162455"
    },
    {
      "station_id": "SF000221",
      "name": "성수2가1동 공영주차장",
      "address": "서울특별시 성동구 성덕정길 115",
      "lat": "37.537135",
      "lng": "127.056148",
      "total_count": 7,
      "available_count": 7,
      "total_percent": 100.0,
      "slow_total": 7,
      "slow_avail": 7,
      "slow_percent": 100.0,
      "fast_total": 0,
      "fast_avail": 0,
      "fast_percent": 0.0,
      "latest_update": "20260713185927"
    },
    {
      "station_id": "SF002385",
      "name": "성동구청 G2주차장",
      "address": "서울특별시 성동구 고산자로 270",
      "lat": "37.563422509",
      "lng": "127.03696499",
      "total_count": 7,
      "available_count": 6,
      "total_percent": 85.7,
      "slow_total": 7,
      "slow_avail": 6,
      "slow_percent": 85.7,
      "fast_total": 0,
      "fast_avail": 0,
      "fast_percent": 0.0,
      "latest_update": "20260714073937"
    },
    {
      "station_id": "ST600280",
      "name": "서울숲포휴",
      "address": "서울특별시 성동구 왕십리로 58",
      "lat": "37.5426959",
      "lng": "127.0452052",
      "total_count": 7,
      "available_count": 4,
      "total_percent": 57.1,
      "slow_total": 5,
      "slow_avail": 2,
      "slow_percent": 40.0,
      "fast_total": 2,
      "fast_avail": 2,
      "fast_percent": 100.0,
      "latest_update": "20260714071402"
    },
    {
      "station_id": "CV001588",
      "name": "채비스테이 성수",
      "address": "서울특별시 성동구 뚝섬로 337",
      "lat": "37.540822",
      "lng": "127.048495",
      "total_count": 6,
      "available_count": 5,
      "total_percent": 83.3,
      "slow_total": 0,
      "slow_avail": 0,
      "slow_percent": 0.0,
      "fast_total": 6,
      "fast_avail": 5,
      "fast_percent": 83.3,
      "latest_update": "20260714080521"
    },
    {
      "station_id": "EV006612",
      "name": "서울성동 서울숲에이원센터",
      "address": "서울특별시 성동구 상원12길 34",
      "lat": "37.5495385",
      "lng": "127.0504724",
      "total_count": 6,
      "available_count": 1,
      "total_percent": 16.7,
      "slow_total": 6,
      "slow_avail": 1,
      "slow_percent": 16.7,
      "fast_total": 0,
      "fast_avail": 0,
      "fast_percent": 0.0,
      "latest_update": "20260714073750"
    },
    {
      "station_id": "EV007671",
      "name": "서울성동 하왕극동미라주아파트2",
      "address": "서울특별시 성동구 난계로 73",
      "lat": "37.558967170",
      "lng": "127.02316767",
      "total_count": 6,
      "available_count": 3,
      "total_percent": 50.0,
      "slow_total": 6,
      "slow_avail": 3,
      "slow_percent": 50.0,
      "fast_total": 0,
      "fast_avail": 0,
      "fast_percent": 0.0,
      "latest_update": "20260714060053"
    },
    {
      "station_id": "EV013383",
      "name": "서울성동 옥수삼성아파트 5",
      "address": "서울특별시 성동구 독서당로 218",
      "lat": "37.5424488",
      "lng": "127.0138613",
      "total_count": 6,
      "available_count": 3,
      "total_percent": 50.0,
      "slow_total": 6,
      "slow_avail": 3,
      "slow_percent": 50.0,
      "fast_total": 0,
      "fast_avail": 0,
      "fast_percent": 0.0,
      "latest_update": "20260714050424"
    },
    {
      "station_id": "EV014637",
      "name": "서울성동 금호동대우아파트 15",
      "address": "서울특별시 성동구 독서당로 272",
      "lat": "37.545330034",
      "lng": "127.01792536",
      "total_count": 6,
      "available_count": 5,
      "total_percent": 83.3,
      "slow_total": 6,
      "slow_avail": 5,
      "slow_percent": 83.3,
      "fast_total": 0,
      "fast_avail": 0,
      "fast_percent": 0.0,
      "latest_update": "20260714000533"
    },
    {
      "station_id": "EV014639",
      "name": "서울성동 금호동대우아파트 17",
      "address": "서울특별시 성동구 독서당로 272",
      "lat": "37.545330034",
      "lng": "127.01792536",
      "total_count": 6,
      "available_count": 5,
      "total_percent": 83.3,
      "slow_total": 6,
      "slow_avail": 5,
      "slow_percent": 83.3,
      "fast_total": 0,
      "fast_avail": 0,
      "fast_percent": 0.0,
      "latest_update": "20260714050826"
    },
    {
      "station_id": "EV016172",
      "name": "서울성동 금호한신휴플러스아파트 1",
      "address": "서울특별시 성동구 금호산길 27 (금호동3가, 금호동한신휴플러스아파트)",
      "lat": "37.5505495",
      "lng": "127.0170883",
      "total_count": 6,
      "available_count": 5,
      "total_percent": 83.3,
      "slow_total": 6,
      "slow_avail": 5,
      "slow_percent": 83.3,
      "fast_total": 0,
      "fast_avail": 0,
      "fast_percent": 0.0,
      "latest_update": "20260714065926"
    },
    {
      "station_id": "EV016174",
      "name": "서울성동 금호한신휴플러스아파트 3",
      "address": "서울특별시 성동구 금호산길 27 (금호동3가, 금호동한신휴플러스아파트)",
      "lat": "37.5505495",
      "lng": "127.0170883",
      "total_count": 6,
      "available_count": 5,
      "total_percent": 83.3,
      "slow_total": 6,
      "slow_avail": 5,
      "slow_percent": 83.3,
      "fast_total": 0,
      "fast_avail": 0,
      "fast_percent": 0.0,
      "latest_update": "20260714070330"
    },
    {
      "station_id": "EV016218",
      "name": "서울성북 행당한진타운아파트 9-2",
      "address": "서울특별시 성동구 행당로 82 (행당동, 행당 한진타운)",
      "lat": "37.5548089",
      "lng": "127.0273927",
      "total_count": 6,
      "available_count": 6,
      "total_percent": 100.0,
      "slow_total": 6,
      "slow_avail": 6,
      "slow_percent": 100.0,
      "fast_total": 0,
      "fast_avail": 0,
      "fast_percent": 0.0,
      "latest_update": "20260711171113"
    },
    {
      "station_id": "EV016220",
      "name": "서울성북 행당한진타운아파트 9-4",
      "address": "서울특별시 성동구 행당로 82 (행당동, 행당 한진타운)",
      "lat": "37.5548089",
      "lng": "127.0273977",
      "total_count": 6,
      "available_count": 2,
      "total_percent": 33.3,
      "slow_total": 6,
      "slow_avail": 2,
      "slow_percent": 33.3,
      "fast_total": 0,
      "fast_avail": 0,
      "fast_percent": 0.0,
      "latest_update": "20260713203712"
    },
    {
      "station_id": "EV016221",
      "name": "서울성북 행당한진타운아파트 10-1",
      "address": "서울특별시 성동구 행당로 82 (행당동, 행당 한진타운)",
      "lat": "37.5548089",
      "lng": "127.0273447",
      "total_count": 6,
      "available_count": 6,
      "total_percent": 100.0,
      "slow_total": 6,
      "slow_avail": 6,
      "slow_percent": 100.0,
      "fast_total": 0,
      "fast_avail": 0,
      "fast_percent": 0.0,
      "latest_update": "20260713201908"
    },
    {
      "station_id": "EV016224",
      "name": "서울성북 행당한진타운아파트 10-4",
      "address": "서울특별시 성동구 행당로 82 (행당동, 행당 한진타운)",
      "lat": "37.5548089",
      "lng": "127.0273027",
      "total_count": 6,
      "available_count": 6,
      "total_percent": 100.0,
      "slow_total": 6,
      "slow_avail": 6,
      "slow_percent": 100.0,
      "fast_total": 0,
      "fast_avail": 0,
      "fast_percent": 0.0,
      "latest_update": "20260714071334"
    },
    {
      "station_id": "EV016225",
      "name": "서울성북 행당한진타운아파트 11-1",
      "address": "서울특별시 성동구 행당로 82 (행당동, 행당 한진타운)",
      "lat": "37.5548089",
      "lng": "127.0273947",
      "total_count": 6,
      "available_count": 6,
      "total_percent": 100.0,
      "slow_total": 6,
      "slow_avail": 6,
      "slow_percent": 100.0,
      "fast_total": 0,
      "fast_avail": 0,
      "fast_percent": 0.0,
      "latest_update": "20260713062422"
    },
    {
      "station_id": "EV016226",
      "name": "서울성북 행당한진타운아파트 11-2",
      "address": "서울특별시 성동구 행당로 82 (행당동, 행당 한진타운)",
      "lat": "37.5548089",
      "lng": "127.0273267",
      "total_count": 6,
      "available_count": 3,
      "total_percent": 50.0,
      "slow_total": 6,
      "slow_avail": 3,
      "slow_percent": 50.0,
      "fast_total": 0,
      "fast_avail": 0,
      "fast_percent": 0.0,
      "latest_update": "20260713191423"
    },
    {
      "station_id": "EV016229",
      "name": "서울성북 행당한진타운아파트 11-5",
      "address": "서울특별시 성동구 행당로 82 (행당동, 행당 한진타운)",
      "lat": "37.5548089",
      "lng": "127.0273197",
      "total_count": 6,
      "available_count": 6,
      "total_percent": 100.0,
      "slow_total": 6,
      "slow_avail": 6,
      "slow_percent": 100.0,
      "fast_total": 0,
      "fast_avail": 0,
      "fast_percent": 0.0,
      "latest_update": "20260714080607"
    },
    {
      "station_id": "EV016231",
      "name": "서울성북 행당한진타운아파트 11-7",
      "address": "서울특별시 성동구 행당로 82 (행당동, 행당 한진타운)",
      "lat": "37.5548089",
      "lng": "127.0273637",
      "total_count": 6,
      "available_count": 3,
      "total_percent": 50.0,
      "slow_total": 6,
      "slow_avail": 3,
      "slow_percent": 50.0,
      "fast_total": 0,
      "fast_avail": 0,
      "fast_percent": 0.0,
      "latest_update": "20260713191624"
    },
    {
      "station_id": "EV016232",
      "name": "서울성북 행당한진타운아파트 9-5",
      "address": "서울특별시 성동구 행당로 82 (행당동, 행당 한진타운)",
      "lat": "37.5548089",
      "lng": "127.0273857",
      "total_count": 6,
      "available_count": 5,
      "total_percent": 83.3,
      "slow_total": 6,
      "slow_avail": 5,
      "slow_percent": 83.3,
      "fast_total": 0,
      "fast_avail": 0,
      "fast_percent": 0.0,
      "latest_update": "20260714022054"
    },
    {
      "station_id": "EV016233",
      "name": "서울성북 행당한진타운아파트 10-5",
      "address": "서울특별시 성동구 행당로 82 (행당동, 행당 한진타운)",
      "lat": "37.5548089",
      "lng": "127.0273917",
      "total_count": 6,
      "available_count": 4,
      "total_percent": 66.7,
      "slow_total": 6,
      "slow_avail": 4,
      "slow_percent": 66.7,
      "fast_total": 0,
      "fast_avail": 0,
      "fast_percent": 0.0,
      "latest_update": "20260714011414"
    },
    {
      "station_id": "EV016234",
      "name": "서울성북 행당한진타운아파트 11-8",
      "address": "서울특별시 성동구 행당로 82 (행당동, 행당 한진타운)",
      "lat": "37.5548089",
      "lng": "127.0273197",
      "total_count": 6,
      "available_count": 5,
      "total_percent": 83.3,
      "slow_total": 6,
      "slow_avail": 5,
      "slow_percent": 83.3,
      "fast_total": 0,
      "fast_avail": 0,
      "fast_percent": 0.0,
      "latest_update": "20260714070933"
    },
    {
      "station_id": "EV018644",
      "name": "서울성동 대림강변타운 1",
      "address": "서울특별시 성동구 고산자로 160",
      "lat": "37.5543691",
      "lng": "127.0348756",
      "total_count": 6,
      "available_count": 3,
      "total_percent": 50.0,
      "slow_total": 6,
      "slow_avail": 3,
      "slow_percent": 50.0,
      "fast_total": 0,
      "fast_avail": 0,
      "fast_percent": 0.0,
      "latest_update": "20260714060255"
    },
    {
      "station_id": "EV019209",
      "name": "서울성동 옥수파크힐스 1",
      "address": "서울 성동구 매봉길 50",
      "lat": "37.5472989",
      "lng": "127.0121894",
      "total_count": 6,
      "available_count": 6,
      "total_percent": 100.0,
      "slow_total": 6,
      "slow_avail": 6,
      "slow_percent": 100.0,
      "fast_total": 0,
      "fast_avail": 0,
      "fast_percent": 0.0,
      "latest_update": "20260714075059"
    },
    {
      "station_id": "EV019210",
      "name": "서울성동 옥수파크힐스 2",
      "address": "서울 성동구 매봉길 50",
      "lat": "37.5472989",
      "lng": "127.0121894",
      "total_count": 6,
      "available_count": 5,
      "total_percent": 83.3,
      "slow_total": 6,
      "slow_avail": 5,
      "slow_percent": 83.3,
      "fast_total": 0,
      "fast_avail": 0,
      "fast_percent": 0.0,
      "latest_update": "20260714080003"
    },
    {
      "station_id": "EV019212",
      "name": "서울성동 옥수파크힐스 4",
      "address": "서울 성동구 매봉길 50",
      "lat": "37.5472989",
      "lng": "127.0121894",
      "total_count": 6,
      "available_count": 5,
      "total_percent": 83.3,
      "slow_total": 6,
      "slow_avail": 5,
      "slow_percent": 83.3,
      "fast_total": 0,
      "fast_avail": 0,
      "fast_percent": 0.0,
      "latest_update": "20260714015441"
    },
    {
      "station_id": "EV019214",
      "name": "서울성동 옥수파크힐스 6",
      "address": "서울 성동구 매봉길 50",
      "lat": "37.5472989",
      "lng": "127.0121894",
      "total_count": 6,
      "available_count": 5,
      "total_percent": 83.3,
      "slow_total": 6,
      "slow_avail": 5,
      "slow_percent": 83.3,
      "fast_total": 0,
      "fast_avail": 0,
      "fast_percent": 0.0,
      "latest_update": "20260713185007"
    },
    {
      "station_id": "EV019215",
      "name": "서울성동 옥수파크힐스 7",
      "address": "서울 성동구 매봉길 50",
      "lat": "37.5472989",
      "lng": "127.0121894",
      "total_count": 6,
      "available_count": 6,
      "total_percent": 100.0,
      "slow_total": 6,
      "slow_avail": 6,
      "slow_percent": 100.0,
      "fast_total": 0,
      "fast_avail": 0,
      "fast_percent": 0.0,
      "latest_update": "20260714075100"
    },
    {
      "station_id": "EV019217",
      "name": "서울성동 옥수파크힐스 9",
      "address": "서울 성동구 매봉길 50",
      "lat": "37.5472989",
      "lng": "127.0121894",
      "total_count": 6,
      "available_count": 5,
      "total_percent": 83.3,
      "slow_total": 6,
      "slow_avail": 5,
      "slow_percent": 83.3,
      "fast_total": 0,
      "fast_avail": 0,
      "fast_percent": 0.0,
      "latest_update": "20260713191826"
    },
    {
      "station_id": "EV019218",
      "name": "서울성동 옥수파크힐스 10",
      "address": "서울 성동구 매봉길 50",
      "lat": "37.5472989",
      "lng": "127.0121894",
      "total_count": 6,
      "available_count": 3,
      "total_percent": 50.0,
      "slow_total": 6,
      "slow_avail": 3,
      "slow_percent": 50.0,
      "fast_total": 0,
      "fast_avail": 0,
      "fast_percent": 0.0,
      "latest_update": "20260714080407"
    },
    {
      "station_id": "EV019219",
      "name": "서울성동 옥수파크힐스 11",
      "address": "서울 성동구 매봉길 50",
      "lat": "37.5472989",
      "lng": "127.0121894",
      "total_count": 6,
      "available_count": 4,
      "total_percent": 66.7,
      "slow_total": 6,
      "slow_avail": 4,
      "slow_percent": 66.7,
      "fast_total": 0,
      "fast_avail": 0,
      "fast_percent": 0.0,
      "latest_update": "20260714015839"
    },
    {
      "station_id": "EV019220",
      "name": "서울성동 옥수파크힐스 12",
      "address": "서울 성동구 매봉길 50",
      "lat": "37.5472989",
      "lng": "127.0121894",
      "total_count": 6,
      "available_count": 4,
      "total_percent": 66.7,
      "slow_total": 6,
      "slow_avail": 4,
      "slow_percent": 66.7,
      "fast_total": 0,
      "fast_avail": 0,
      "fast_percent": 0.0,
      "latest_update": "20260714065448"
    },
    {
      "station_id": "KE000924",
      "name": "서울성동벽산",
      "address": "서울특별시 성동구 금호로 100",
      "lat": "37.552717",
      "lng": "127.0267385",
      "total_count": 6,
      "available_count": 6,
      "total_percent": 100.0,
      "slow_total": 6,
      "slow_avail": 6,
      "slow_percent": 100.0,
      "fast_total": 0,
      "fast_avail": 0,
      "fast_percent": 0.0,
      "latest_update": "20260519112412"
    },
    {
      "station_id": "KP004794",
      "name": "서울숲SK V1 타워",
      "address": "서울특별시 성동구 성수일로8길 5",
      "lat": "37.547062692",
      "lng": "127.05171442",
      "total_count": 6,
      "available_count": 4,
      "total_percent": 66.7,
      "slow_total": 0,
      "slow_avail": 0,
      "slow_percent": 0.0,
      "fast_total": 6,
      "fast_avail": 4,
      "fast_percent": 66.7,
      "latest_update": "20260713183016"
    },
    {
      "station_id": "LU000536",
      "name": "성수역 SK V1타워",
      "address": "서울특별시 성동구 연무장5가길 25",
      "lat": "37.543551078",
      "lng": "127.05561394",
      "total_count": 6,
      "available_count": 4,
      "total_percent": 66.7,
      "slow_total": 6,
      "slow_avail": 4,
      "slow_percent": 66.7,
      "fast_total": 0,
      "fast_avail": 0,
      "fast_percent": 0.0,
      "latest_update": "20260714032713"
    },
    {
      "station_id": "LU001691",
      "name": "성수동두산위브아파트",
      "address": "서울특별시 성동구 뚝섬로 434",
      "lat": "37.537559",
      "lng": "127.058438",
      "total_count": 6,
      "available_count": 4,
      "total_percent": 66.7,
      "slow_total": 6,
      "slow_avail": 4,
      "slow_percent": 66.7,
      "fast_total": 0,
      "fast_avail": 0,
      "fast_percent": 0.0,
      "latest_update": "20260714080126"
    },
    {
      "station_id": "LU002228",
      "name": "행당두산",
      "address": "서울특별시 성동구 고산자로14길 40",
      "lat": "37.564712",
      "lng": "127.037326",
      "total_count": 6,
      "available_count": 5,
      "total_percent": 83.3,
      "slow_total": 6,
      "slow_avail": 5,
      "slow_percent": 83.3,
      "fast_total": 0,
      "fast_avail": 0,
      "fast_percent": 0.0,
      "latest_update": "20260714023706"
    },
    {
      "station_id": "LU100425",
      "name": "행당대림아파트",
      "address": "서울특별시 성동구 행당로 79",
      "lat": "37.55820535",
      "lng": "127.02750701",
      "total_count": 6,
      "available_count": 3,
      "total_percent": 50.0,
      "slow_total": 6,
      "slow_avail": 3,
      "slow_percent": 50.0,
      "fast_total": 0,
      "fast_avail": 0,
      "fast_percent": 0.0,
      "latest_update": "20260714072618"
    },
    {
      "station_id": "NS850121",
      "name": "성동 성수아카데미타워 1",
      "address": "서울특별시 성동구 성수이로 118",
      "lat": "37.54517369",
      "lng": "127.05785725",
      "total_count": 6,
      "available_count": 4,
      "total_percent": 66.7,
      "slow_total": 6,
      "slow_avail": 4,
      "slow_percent": 66.7,
      "fast_total": 0,
      "fast_avail": 0,
      "fast_percent": 0.0,
      "latest_update": "20260714075917"
    },
    {
      "station_id": "NT100199",
      "name": "서울숲 삼부아파트",
      "address": "서울특별시 성동구 왕십리로 280",
      "lat": "37.55949",
      "lng": "127.0371623",
      "total_count": 6,
      "available_count": 5,
      "total_percent": 83.3,
      "slow_total": 6,
      "slow_avail": 5,
      "slow_percent": 83.3,
      "fast_total": 0,
      "fast_avail": 0,
      "fast_percent": 0.0,
      "latest_update": "20260713081950"
    },
    {
      "station_id": "PI200258",
      "name": "서울시 성동구 서울숲리버뷰자이",
      "address": "서울특별시 성동구 고산자로2길 65(행당동)",
      "lat": "37.5561969941",
      "lng": "127.038836958",
      "total_count": 6,
      "available_count": 6,
      "total_percent": 100.0,
      "slow_total": 6,
      "slow_avail": 6,
      "slow_percent": 100.0,
      "fast_total": 0,
      "fast_avail": 0,
      "fast_percent": 0.0,
      "latest_update": "20260714050558"
    },
    {
      "station_id": "PI708690",
      "name": "센트라스비즈오피스텔",
      "address": "서울특별시 성동구 왕십리로 410",
      "lat": "37.565433764",
      "lng": "127.02469206",
      "total_count": 6,
      "available_count": 6,
      "total_percent": 100.0,
      "slow_total": 6,
      "slow_avail": 6,
      "slow_percent": 100.0,
      "fast_total": 0,
      "fast_avail": 0,
      "fast_percent": 0.0,
      "latest_update": "20260714054510"
    },
    {
      "station_id": "PI712219",
      "name": "현대테라스타워",
      "address": "서울특별시 성동구 연무장5가길 7",
      "lat": "37.5440863",
      "lng": "127.0536716",
      "total_count": 6,
      "available_count": 6,
      "total_percent": 100.0,
      "slow_total": 6,
      "slow_avail": 6,
      "slow_percent": 100.0,
      "fast_total": 0,
      "fast_avail": 0,
      "fast_percent": 0.0,
      "latest_update": "20260713152528"
    },
    {
      "station_id": "PI766273",
      "name": "성수누디트서울숲",
      "address": "서울특별시 성동구 아차산로 6",
      "lat": "37.547693886",
      "lng": "127.04500721",
      "total_count": 6,
      "available_count": 4,
      "total_percent": 66.7,
      "slow_total": 6,
      "slow_avail": 4,
      "slow_percent": 66.7,
      "fast_total": 0,
      "fast_avail": 0,
      "fast_percent": 0.0,
      "latest_update": "20260714080053"
    },
    {
      "station_id": "PI766977",
      "name": "신금호두산위브",
      "address": "서울특별시 성동구 행당로 27",
      "lat": "37.5560337",
      "lng": "127.0222326",
      "total_count": 6,
      "available_count": 5,
      "total_percent": 83.3,
      "slow_total": 6,
      "slow_avail": 5,
      "slow_percent": 83.3,
      "fast_total": 0,
      "fast_avail": 0,
      "fast_percent": 0.0,
      "latest_update": "20260713213058"
    },
    {
      "station_id": "PL000530",
      "name": "한양현대아파트",
      "address": "서울특별시 성동구 상원1길 17",
      "lat": "37.5454392",
      "lng": "127.0477110",
      "total_count": 6,
      "available_count": 3,
      "total_percent": 50.0,
      "slow_total": 6,
      "slow_avail": 3,
      "slow_percent": 50.0,
      "fast_total": 0,
      "fast_avail": 0,
      "fast_percent": 0.0,
      "latest_update": "20260714074311"
    },
    {
      "station_id": "PL030420",
      "name": "성동샤르망",
      "address": "서울특별시 성동구 고산자로 284",
      "lat": "37.5649128",
      "lng": "127.036797",
      "total_count": 6,
      "available_count": 3,
      "total_percent": 50.0,
      "slow_total": 6,
      "slow_avail": 3,
      "slow_percent": 50.0,
      "fast_total": 0,
      "fast_avail": 0,
      "fast_percent": 0.0,
      "latest_update": "20260714063427"
    },
    {
      "station_id": "PL033245",
      "name": "응봉대림2차아파트",
      "address": "서울특별시 성동구 독서당로 419",
      "lat": "37.5537101",
      "lng": "127.0329489",
      "total_count": 6,
      "available_count": 6,
      "total_percent": 100.0,
      "slow_total": 6,
      "slow_avail": 6,
      "slow_percent": 100.0,
      "fast_total": 0,
      "fast_avail": 0,
      "fast_percent": 0.0,
      "latest_update": "20260714075823"
    },
    {
      "station_id": "PW013081",
      "name": "서울시서울숲삼부아파트",
      "address": "서울특별시 성동구 왕십리로 280",
      "lat": "37.560204715",
      "lng": "127.03801780",
      "total_count": 6,
      "available_count": 5,
      "total_percent": 83.3,
      "slow_total": 6,
      "slow_avail": 5,
      "slow_percent": 83.3,
      "fast_total": 0,
      "fast_avail": 0,
      "fast_percent": 0.0,
      "latest_update": "20260714053523"
    },
    {
      "station_id": "PW013083",
      "name": "서울시금호 삼성래미안 아파트",
      "address": "서울특별시 성동구 독서당로 343",
      "lat": "37.549811766",
      "lng": "127.02700791",
      "total_count": 6,
      "available_count": 4,
      "total_percent": 66.7,
      "slow_total": 6,
      "slow_avail": 4,
      "slow_percent": 66.7,
      "fast_total": 0,
      "fast_avail": 0,
      "fast_percent": 0.0,
      "latest_update": "20260714075827"
    },
    {
      "station_id": "PW100491",
      "name": "옥수강변풍림아이원아파트",
      "address": "서울특별시 성동구 뚝섬로 51",
      "lat": "37.542481979",
      "lng": "127.01959913",
      "total_count": 6,
      "available_count": 6,
      "total_percent": 100.0,
      "slow_total": 6,
      "slow_avail": 6,
      "slow_percent": 100.0,
      "fast_total": 0,
      "fast_avail": 0,
      "fast_percent": 0.0,
      "latest_update": "20260713081010"
    },
    {
      "station_id": "PW801095",
      "name": "어울림더리버아파트 입주자대표회의(SPT)",
      "address": "서울특별시 성동구 독서당로40길 37",
      "lat": "37.541850740",
      "lng": "127.01788776",
      "total_count": 6,
      "available_count": 3,
      "total_percent": 50.0,
      "slow_total": 6,
      "slow_avail": 3,
      "slow_percent": 50.0,
      "fast_total": 0,
      "fast_avail": 0,
      "fast_percent": 0.0,
      "latest_update": "20260714074922"
    },
    {
      "station_id": "SF000214",
      "name": "하왕십리 공영주차장",
      "address": "서울특별시 성동구 무학봉길 48",
      "lat": "37.560241",
      "lng": "127.027901",
      "total_count": 6,
      "available_count": 5,
      "total_percent": 83.3,
      "slow_total": 6,
      "slow_avail": 5,
      "slow_percent": 83.3,
      "fast_total": 0,
      "fast_avail": 0,
      "fast_percent": 0.0,
      "latest_update": "20260714080422"
    },
    {
      "station_id": "SF000216",
      "name": "응봉동 공영주차장",
      "address": "서울특별시 성동구 독서당로63길 40",
      "lat": "37.55332",
      "lng": "127.030733",
      "total_count": 6,
      "available_count": 6,
      "total_percent": 100.0,
      "slow_total": 6,
      "slow_avail": 6,
      "slow_percent": 100.0,
      "fast_total": 0,
      "fast_avail": 0,
      "fast_percent": 0.0,
      "latest_update": "20260713043914"
    },
    {
      "station_id": "SF000219",
      "name": "성수1가1동 공영주차장",
      "address": "서울특별시 성동구 성덕정1길 6",
      "lat": "37.539888",
      "lng": "127.046351",
      "total_count": 6,
      "available_count": 6,
      "total_percent": 100.0,
      "slow_total": 6,
      "slow_avail": 6,
      "slow_percent": 100.0,
      "fast_total": 0,
      "fast_avail": 0,
      "fast_percent": 0.0,
      "latest_update": "20260714072042"
    },
    {
      "station_id": "SF000629",
      "name": "성수문화회관 주차장 B2",
      "address": "서울특별시 성동구 뚝섬로1길 43",
      "lat": "37.545423",
      "lng": "127.04692",
      "total_count": 6,
      "available_count": 6,
      "total_percent": 100.0,
      "slow_total": 6,
      "slow_avail": 6,
      "slow_percent": 100.0,
      "fast_total": 0,
      "fast_avail": 0,
      "fast_percent": 0.0,
      "latest_update": "20260707170102"
    },
    {
      "station_id": "ST112001",
      "name": "신금호파크자이(입주민 전용)",
      "address": "서울특별시 성동구 금호로",
      "lat": "37.5564",
      "lng": "127.01894",
      "total_count": 6,
      "available_count": 4,
      "total_percent": 66.7,
      "slow_total": 5,
      "slow_avail": 3,
      "slow_percent": 60.0,
      "fast_total": 1,
      "fast_avail": 1,
      "fast_percent": 100.0,
      "latest_update": "20260714073130"
    },
    {
      "station_id": "CV004394",
      "name": "포르쉐 센터 세영모빌리티 성수스튜디오",
      "address": "서울 성동구 천호대로 454(용답동, 포르쉐)",
      "lat": "37.5604982",
      "lng": "127.0692880",
      "total_count": 5,
      "available_count": 5,
      "total_percent": 100.0,
      "slow_total": 0,
      "slow_avail": 0,
      "slow_percent": 0.0,
      "fast_total": 5,
      "fast_avail": 5,
      "fast_percent": 100.0,
      "latest_update": "20260714053529"
    },
    {
      "station_id": "EO000311",
      "name": "E1 신도리코본사 전기차충전소",
      "address": "서울특별시 성동구 아차산로9길 12",
      "lat": "37.545174",
      "lng": "127.058454",
      "total_count": 5,
      "available_count": 4,
      "total_percent": 80.0,
      "slow_total": 5,
      "slow_avail": 4,
      "slow_percent": 80.0,
      "fast_total": 0,
      "fast_avail": 0,
      "fast_percent": 0.0,
      "latest_update": "20260714064955"
    },
    {
      "station_id": "EV003510",
      "name": "서울성동_신창비바패밀리오피스텔",
      "address": "서울특별시 성동구 천호대로 400",
      "lat": "37.5612965",
      "lng": "127.0633215",
      "total_count": 5,
      "available_count": 2,
      "total_percent": 40.0,
      "slow_total": 5,
      "slow_avail": 2,
      "slow_percent": 40.0,
      "fast_total": 0,
      "fast_avail": 0,
      "fast_percent": 0.0,
      "latest_update": "20260714065122"
    },
    {
      "station_id": "EV003513",
      "name": "서울성동_서울숲A타워",
      "address": "서울특별시 성동구 상원1길 26",
      "lat": "37.5461944",
      "lng": "127.0484323",
      "total_count": 5,
      "available_count": 4,
      "total_percent": 80.0,
      "slow_total": 5,
      "slow_avail": 4,
      "slow_percent": 80.0,
      "fast_total": 0,
      "fast_avail": 0,
      "fast_percent": 0.0,
      "latest_update": "20260714055451"
    },
    {
      "station_id": "EV004367",
      "name": "서울성동 금호벽산아파트1",
      "address": "서울특별시 성동구 금호로 100",
      "lat": "37.5545318",
      "lng": "127.0260923",
      "total_count": 5,
      "available_count": 5,
      "total_percent": 100.0,
      "slow_total": 5,
      "slow_avail": 5,
      "slow_percent": 100.0,
      "fast_total": 0,
      "fast_avail": 0,
      "fast_percent": 0.0,
      "latest_update": "20260714051228"
    },
    {
      "station_id": "EV004368",
      "name": "서울성동 금호벽산아파트2",
      "address": "서울특별시 성동구 금호로 100",
      "lat": "37.5545318",
      "lng": "127.0260923",
      "total_count": 5,
      "available_count": 5,
      "total_percent": 100.0,
      "slow_total": 5,
      "slow_avail": 5,
      "slow_percent": 100.0,
      "fast_total": 0,
      "fast_avail": 0,
      "fast_percent": 0.0,
      "latest_update": "20260714032530"
    },
    {
      "station_id": "EV014636",
      "name": "서울성동 금호동대우아파트 14",
      "address": "서울특별시 성동구 독서당로 272",
      "lat": "37.545330034",
      "lng": "127.01792536",
      "total_count": 5,
      "available_count": 5,
      "total_percent": 100.0,
      "slow_total": 5,
      "slow_avail": 5,
      "slow_percent": 100.0,
      "fast_total": 0,
      "fast_avail": 0,
      "fast_percent": 0.0,
      "latest_update": "20260710155739"
    },
    {
      "station_id": "EV018368",
      "name": "서울성동 왕십리KCC스위첸아파트 4",
      "address": "서울특별시 성동구 무학봉길 35 (하왕십리동, 왕십리KCC스위첸)",
      "lat": "37.5606056",
      "lng": "127.0268748",
      "total_count": 5,
      "available_count": 5,
      "total_percent": 100.0,
      "slow_total": 5,
      "slow_avail": 5,
      "slow_percent": 100.0,
      "fast_total": 0,
      "fast_avail": 0,
      "fast_percent": 0.0,
      "latest_update": "20260714063110"
    },
    {
      "station_id": "EV019216",
      "name": "서울성동 옥수파크힐스 8",
      "address": "서울 성동구 매봉길 50",
      "lat": "37.5472989",
      "lng": "127.0121894",
      "total_count": 5,
      "available_count": 4,
      "total_percent": 80.0,
      "slow_total": 5,
      "slow_avail": 4,
      "slow_percent": 80.0,
      "fast_total": 0,
      "fast_avail": 0,
      "fast_percent": 0.0,
      "latest_update": "20260713224241"
    },
    {
      "station_id": "EV019395",
      "name": "서울성동 성동삼성쉐르빌 1",
      "address": "서울특별시 성동구 무학로6길 50",
      "lat": "37.5645962",
      "lng": "127.0350239",
      "total_count": 5,
      "available_count": 2,
      "total_percent": 40.0,
      "slow_total": 5,
      "slow_avail": 2,
      "slow_percent": 40.0,
      "fast_total": 0,
      "fast_avail": 0,
      "fast_percent": 0.0,
      "latest_update": "20260713181744"
    },
    {
      "station_id": "EV019500",
      "name": "서울성동 행당두산위브아파트 2",
      "address": "서울특별시 성동구 행당로8길 8",
      "lat": "37.5572723",
      "lng": "127.0309511",
      "total_count": 5,
      "available_count": 4,
      "total_percent": 80.0,
      "slow_total": 5,
      "slow_avail": 4,
      "slow_percent": 80.0,
      "fast_total": 0,
      "fast_avail": 0,
      "fast_percent": 0.0,
      "latest_update": "20260714074354"
    },
    {
      "station_id": "HY000762",
      "name": "성동 아크로서울포레스트",
      "address": "서울특별시 성동구 왕십리로 83-21",
      "lat": "37.5441198",
      "lng": "127.0434633",
      "total_count": 5,
      "available_count": 5,
      "total_percent": 100.0,
      "slow_total": 5,
      "slow_avail": 5,
      "slow_percent": 100.0,
      "fast_total": 0,
      "fast_avail": 0,
      "fast_percent": 0.0,
      "latest_update": "20260713171903"
    },
    {
      "station_id": "HY000764",
      "name": "성동 아크로서울포레스트",
      "address": "서울특별시 성동구 왕십리로 83-21",
      "lat": "37.5441152",
      "lng": "127.0434888",
      "total_count": 5,
      "available_count": 4,
      "total_percent": 80.0,
      "slow_total": 5,
      "slow_avail": 4,
      "slow_percent": 80.0,
      "fast_total": 0,
      "fast_avail": 0,
      "fast_percent": 0.0,
      "latest_update": "20260713214103"
    },
    {
      "station_id": "HY000826",
      "name": "성동 아크로서울포레스트",
      "address": "서울특별시 성동구 왕십리로 83-21",
      "lat": "37.5441547",
      "lng": "127.0433578",
      "total_count": 5,
      "available_count": 2,
      "total_percent": 40.0,
      "slow_total": 4,
      "slow_avail": 1,
      "slow_percent": 25.0,
      "fast_total": 1,
      "fast_avail": 1,
      "fast_percent": 100.0,
      "latest_update": "20260713213704"
    },
    {
      "station_id": "HY000827",
      "name": "성동 아크로서울포레스트",
      "address": "서울특별시 성동구 왕십리로 83-21",
      "lat": "37.5448246",
      "lng": "127.0440748",
      "total_count": 5,
      "available_count": 3,
      "total_percent": 60.0,
      "slow_total": 4,
      "slow_avail": 2,
      "slow_percent": 50.0,
      "fast_total": 1,
      "fast_avail": 1,
      "fast_percent": 100.0,
      "latest_update": "20260714054005"
    },
    {
      "station_id": "HY000829",
      "name": "성동 아크로서울포레스트",
      "address": "서울특별시 성동구 왕십리로 83-21",
      "lat": "37.544122",
      "lng": "127.0435651",
      "total_count": 5,
      "available_count": 2,
      "total_percent": 40.0,
      "slow_total": 5,
      "slow_avail": 2,
      "slow_percent": 40.0,
      "fast_total": 0,
      "fast_avail": 0,
      "fast_percent": 0.0,
      "latest_update": "20260714073904"
    },
    {
      "station_id": "HY001057",
      "name": "성동 텐즈힐1단지",
      "address": "서울특별시 성동구 무학로 33",
      "lat": "37.5695847",
      "lng": "127.0266008",
      "total_count": 5,
      "available_count": 5,
      "total_percent": 100.0,
      "slow_total": 5,
      "slow_avail": 5,
      "slow_percent": 100.0,
      "fast_total": 0,
      "fast_avail": 0,
      "fast_percent": 0.0,
      "latest_update": "20260714053706"
    },
    {
      "station_id": "IM000188",
      "name": "옥수극동아파트 4동",
      "address": "서울특별시 성동구 독서당로 191",
      "lat": "37.5",
      "lng": "127",
      "total_count": 5,
      "available_count": 5,
      "total_percent": 100.0,
      "slow_total": 5,
      "slow_avail": 5,
      "slow_percent": 100.0,
      "fast_total": 0,
      "fast_avail": 0,
      "fast_percent": 0.0,
      "latest_update": "20260714042745"
    },
    {
      "station_id": "IM000189",
      "name": "옥수극동아파트 5동",
      "address": "서울특별시 성동구 독서당로 191",
      "lat": "37.5",
      "lng": "127",
      "total_count": 5,
      "available_count": 5,
      "total_percent": 100.0,
      "slow_total": 5,
      "slow_avail": 5,
      "slow_percent": 100.0,
      "fast_total": 0,
      "fast_avail": 0,
      "fast_percent": 0.0,
      "latest_update": "20260714063329"
    },
    {
      "station_id": "KP002970",
      "name": "센트라스 2획지",
      "address": "서울특별시 성동구 상왕십리동 289-5",
      "lat": "37.56663445779",
      "lng": "127.0241293381",
      "total_count": 5,
      "available_count": 4,
      "total_percent": 80.0,
      "slow_total": 5,
      "slow_avail": 4,
      "slow_percent": 80.0,
      "fast_total": 0,
      "fast_avail": 0,
      "fast_percent": 0.0,
      "latest_update": "20260714033018"
    },
    {
      "station_id": "LU000375",
      "name": "금호두산아파트",
      "address": "서울특별시 성동구 동호로 100",
      "lat": "37.5513252",
      "lng": "127.0164139",
      "total_count": 5,
      "available_count": 3,
      "total_percent": 60.0,
      "slow_total": 5,
      "slow_avail": 3,
      "slow_percent": 60.0,
      "fast_total": 0,
      "fast_avail": 0,
      "fast_percent": 0.0,
      "latest_update": "20260714013311"
    },
    {
      "station_id": "NT100504",
      "name": "행당 두산아파트",
      "address": "서울특별시 성동구 고산자로14길 40",
      "lat": "37.564471196",
      "lng": "127.03707974",
      "total_count": 5,
      "available_count": 5,
      "total_percent": 100.0,
      "slow_total": 5,
      "slow_avail": 5,
      "slow_percent": 100.0,
      "fast_total": 0,
      "fast_avail": 0,
      "fast_percent": 0.0,
      "latest_update": "20260711173350"
    },
    {
      "station_id": "NT100548",
      "name": "아이에스비즈타워",
      "address": "서울특별시 성동구 성수이로 147",
      "lat": "37.548050144",
      "lng": "127.05754785",
      "total_count": 5,
      "available_count": 2,
      "total_percent": 40.0,
      "slow_total": 5,
      "slow_avail": 2,
      "slow_percent": 40.0,
      "fast_total": 0,
      "fast_avail": 0,
      "fast_percent": 0.0,
      "latest_update": "20260714080150"
    },
    {
      "station_id": "PI070969",
      "name": "메가박스스퀘어",
      "address": "서울특별시 성동구 왕십리로 50",
      "lat": "37.541886622",
      "lng": "127.04491059",
      "total_count": 5,
      "available_count": 5,
      "total_percent": 100.0,
      "slow_total": 5,
      "slow_avail": 5,
      "slow_percent": 100.0,
      "fast_total": 0,
      "fast_avail": 0,
      "fast_percent": 0.0,
      "latest_update": "20260713225605"
    },
    {
      "station_id": "PI121481",
      "name": "성수동아이파크",
      "address": "서울특별시 성동구 성수이로 137 (성수동2가, 성수아이파크아파트)",
      "lat": "37.5471",
      "lng": "127.057",
      "total_count": 5,
      "available_count": 4,
      "total_percent": 80.0,
      "slow_total": 5,
      "slow_avail": 4,
      "slow_percent": 80.0,
      "fast_total": 0,
      "fast_avail": 0,
      "fast_percent": 0.0,
      "latest_update": "20260713120608"
    },
    {
      "station_id": "PI204242",
      "name": "서울시 성동구 하우스디세종타워",
      "address": "서울특별시 성동구 성수일로10길 26",
      "lat": "37.5465865",
      "lng": "127.0529522",
      "total_count": 5,
      "available_count": 5,
      "total_percent": 100.0,
      "slow_total": 5,
      "slow_avail": 5,
      "slow_percent": 100.0,
      "fast_total": 0,
      "fast_avail": 0,
      "fast_percent": 0.0,
      "latest_update": "20260713184636"
    },
    {
      "station_id": "PI701186",
      "name": "센트라스아파트(6획지)",
      "address": "서울특별시 성동구 왕십리로 410",
      "lat": "37.5665735",
      "lng": "127.024066",
      "total_count": 5,
      "available_count": 0,
      "total_percent": 0.0,
      "slow_total": 5,
      "slow_avail": 0,
      "slow_percent": 0.0,
      "fast_total": 0,
      "fast_avail": 0,
      "fast_percent": 0.0,
      "latest_update": ""
    },
    {
      "station_id": "PI709519",
      "name": "서울숲행당푸르지오",
      "address": "서울특별시 성동구 고산자로 177",
      "lat": "37.5557304",
      "lng": "127.0335776",
      "total_count": 5,
      "available_count": 4,
      "total_percent": 80.0,
      "slow_total": 5,
      "slow_avail": 4,
      "slow_percent": 80.0,
      "fast_total": 0,
      "fast_avail": 0,
      "fast_percent": 0.0,
      "latest_update": "20260714080517"
    },
    {
      "station_id": "PI752326",
      "name": "브라운스톤금호2차아파트",
      "address": "서울특별시 성동구 동호로 93",
      "lat": "37.5475921",
      "lng": "127.015402",
      "total_count": 5,
      "available_count": 2,
      "total_percent": 40.0,
      "slow_total": 5,
      "slow_avail": 2,
      "slow_percent": 40.0,
      "fast_total": 0,
      "fast_avail": 0,
      "fast_percent": 0.0,
      "latest_update": "20260713231051"
    },
    {
      "station_id": "PI784943",
      "name": "서울 성동구 한강한신아파트",
      "address": "서울특별시 성동구 성수이로 3",
      "lat": "37.5359111",
      "lng": "127.0520133",
      "total_count": 5,
      "available_count": 2,
      "total_percent": 40.0,
      "slow_total": 5,
      "slow_avail": 2,
      "slow_percent": 40.0,
      "fast_total": 0,
      "fast_avail": 0,
      "fast_percent": 0.0,
      "latest_update": "20260714075723"
    },
    {
      "station_id": "PL013069",
      "name": "래미안 옥수 리버젠",
      "address": "서울 성동구 매봉길 15",
      "lat": "37.5460599",
      "lng": "127.0138472",
      "total_count": 5,
      "available_count": 3,
      "total_percent": 60.0,
      "slow_total": 5,
      "slow_avail": 3,
      "slow_percent": 60.0,
      "fast_total": 0,
      "fast_avail": 0,
      "fast_percent": 0.0,
      "latest_update": "20260714074412"
    },
    {
      "station_id": "PL031099",
      "name": "행당브라운스톤",
      "address": "서울 성동구 행당로 99",
      "lat": "37.5587642",
      "lng": "127.0296981",
      "total_count": 5,
      "available_count": 3,
      "total_percent": 60.0,
      "slow_total": 5,
      "slow_avail": 3,
      "slow_percent": 60.0,
      "fast_total": 0,
      "fast_avail": 0,
      "fast_percent": 0.0,
      "latest_update": "20260713204600"
    },
    {
      "station_id": "PW012589",
      "name": "옥수삼성아파트입주자대표회의",
      "address": "서울특별시 성동구 독서당로 218",
      "lat": "37.542629444",
      "lng": "127.01555437",
      "total_count": 5,
      "available_count": 4,
      "total_percent": 80.0,
      "slow_total": 5,
      "slow_avail": 4,
      "slow_percent": 80.0,
      "fast_total": 0,
      "fast_avail": 0,
      "fast_percent": 0.0,
      "latest_update": "20260714064012"
    },
    {
      "station_id": "PW013073",
      "name": "서울시래미안옥수리버젠",
      "address": "서울특별시 성동구 매봉길 17",
      "lat": "37.546482526",
      "lng": "127.01446091",
      "total_count": 5,
      "available_count": 4,
      "total_percent": 80.0,
      "slow_total": 5,
      "slow_avail": 4,
      "slow_percent": 80.0,
      "fast_total": 0,
      "fast_avail": 0,
      "fast_percent": 0.0,
      "latest_update": "20260714080324"
    },
    {
      "station_id": "SF000218",
      "name": "성수문화회관 주차장 B1",
      "address": "서울특별시 성동구 뚝섬로1길 43",
      "lat": "37.545414",
      "lng": "127.04692",
      "total_count": 5,
      "available_count": 5,
      "total_percent": 100.0,
      "slow_total": 5,
      "slow_avail": 5,
      "slow_percent": 100.0,
      "fast_total": 0,
      "fast_avail": 0,
      "fast_percent": 0.0,
      "latest_update": "20260713102202"
    },
    {
      "station_id": "SF003184",
      "name": "서울숲한라시그마벨리 (완속충전기)",
      "address": "서울특별시 성동구 성수이로 51",
      "lat": "37.540276455",
      "lng": "127.05510097",
      "total_count": 5,
      "available_count": 4,
      "total_percent": 80.0,
      "slow_total": 5,
      "slow_avail": 4,
      "slow_percent": 80.0,
      "fast_total": 0,
      "fast_avail": 0,
      "fast_percent": 0.0,
      "latest_update": "20260714074536"
    },
    {
      "station_id": "SGSIG028",
      "name": "디타워 주차장",
      "address": "서울특별시 성동구 왕십리로 83-21",
      "lat": "37.544463790",
      "lng": "127.04384744",
      "total_count": 5,
      "available_count": 0,
      "total_percent": 0.0,
      "slow_total": 5,
      "slow_avail": 0,
      "slow_percent": 0.0,
      "fast_total": 0,
      "fast_avail": 0,
      "fast_percent": 0.0,
      "latest_update": "20260519112805"
    },
    {
      "station_id": "ME18B408",
      "name": "성수2가 공영주차장",
      "address": "서울특별시 성동구 광나루로4가길 23",
      "lat": "37.54909",
      "lng": "127.05516",
      "total_count": 4,
      "available_count": 2,
      "total_percent": 50.0,
      "slow_total": 0,
      "slow_avail": 0,
      "slow_percent": 0.0,
      "fast_total": 4,
      "fast_avail": 2,
      "fast_percent": 50.0,
      "latest_update": "20260714080310"
    },
    {
      "station_id": "CGA00206",
      "name": "성동 트리마제",
      "address": "서울특별시 성동구 왕십리로 16",
      "lat": "37.5383910",
      "lng": "127.0451119",
      "total_count": 4,
      "available_count": 1,
      "total_percent": 25.0,
      "slow_total": 4,
      "slow_avail": 1,
      "slow_percent": 25.0,
      "fast_total": 0,
      "fast_avail": 0,
      "fast_percent": 0.0,
      "latest_update": "20260714044509"
    },
    {
      "station_id": "CV004395",
      "name": "포르쉐 센터 세영모빌리티 성수서비스센터",
      "address": "서울 성동구 가람길 283(용답동)",
      "lat": "37.5592970",
      "lng": "127.0689470",
      "total_count": 4,
      "available_count": 4,
      "total_percent": 100.0,
      "slow_total": 0,
      "slow_avail": 0,
      "slow_percent": 0.0,
      "fast_total": 4,
      "fast_avail": 4,
      "fast_percent": 100.0,
      "latest_update": "20260713191045"
    },
    {
      "station_id": "EC001037",
      "name": "왕십리KCC스위첸아파트",
      "address": "서울특별시 성동구 무학봉길 35",
      "lat": "37.5603765",
      "lng": "127.0266829",
      "total_count": 4,
      "available_count": 4,
      "total_percent": 100.0,
      "slow_total": 4,
      "slow_avail": 4,
      "slow_percent": 100.0,
      "fast_total": 0,
      "fast_avail": 0,
      "fast_percent": 0.0,
      "latest_update": "20260713134801"
    },