{
  "district": "관악구",
  "zscode": "11620",
  "summary": {
    "total_count": 500,
    "available_count": 382,
    "total_percent": 76.4,
    "slow_total": 429,
    "slow_avail": 319,
    "slow_percent": 74.4,
    "fast_total": 71,
    "fast_avail": 63,
    "fast_percent": 88.7,
    "station_count": 168
  },
  "stations": [
    {
      "station_id": "ER000558",
      "name": "신림푸르지오아파트",
      "address": "서울 관악구 남부순환로 1430",
      "lat": "37.4792384",
      "lng": "126.9090400",
      "total_count": 33,
      "available_count": 31,
      "total_percent": 93.9,
      "slow_total": 33,
      "slow_avail": 31,
      "slow_percent": 93.9,
      "fast_total": 0,
      "fast_avail": 0,
      "fast_percent": 0.0,
      "latest_update": "20260714110541"
    },
    {
      "station_id": "CV002334",
      "name": "홈플러스 서울남현점",
      "address": "서울특별시 관악구 과천대로 909",
      "lat": "37.471473",
      "lng": "126.982455",
      "total_count": 12,
      "available_count": 11,
      "total_percent": 91.7,
      "slow_total": 8,
      "slow_avail": 7,
      "slow_percent": 87.5,
      "fast_total": 4,
      "fast_avail": 4,
      "fast_percent": 100.0,
      "latest_update": "20260714102034"
    },
    {
      "station_id": "EC110106",
      "name": "신림건영3차아파트",
      "address": "서울특별시 관악구 신림로3길 40",
      "lat": "37.4676889",
      "lng": "126.9443464",
      "total_count": 12,
      "available_count": 12,
      "total_percent": 100.0,
      "slow_total": 12,
      "slow_avail": 12,
      "slow_percent": 100.0,
      "fast_total": 0,
      "fast_avail": 0,
      "fast_percent": 0.0,
      "latest_update": "20260714063802"
    },
    {
      "station_id": "JA110053",
      "name": "롯데백화점 관악점",
      "address": "서울특별시 관악구 봉천로 209",
      "lat": "37.4907238",
      "lng": "126.9246973",
      "total_count": 12,
      "available_count": 10,
      "total_percent": 83.3,
      "slow_total": 8,
      "slow_avail": 7,
      "slow_percent": 87.5,
      "fast_total": 4,
      "fast_avail": 3,
      "fast_percent": 75.0,
      "latest_update": "20260714103006"
    },
    {
      "station_id": "KE000958",
      "name": "서울대학교60동B2",
      "address": "서울특별시 관악구 관악로 1",
      "lat": "37.4598127",
      "lng": "126.9514234",
      "total_count": 12,
      "available_count": 7,
      "total_percent": 58.3,
      "slow_total": 6,
      "slow_avail": 1,
      "slow_percent": 16.7,
      "fast_total": 6,
      "fast_avail": 6,
      "fast_percent": 100.0,
      "latest_update": "20260714112009"
    },
    {
      "station_id": "KE000957",
      "name": "서울대학교60동B1",
      "address": "서울특별시 관악구 관악로 1",
      "lat": "37.459666",
      "lng": "126.9510396",
      "total_count": 11,
      "available_count": 9,
      "total_percent": 81.8,
      "slow_total": 5,
      "slow_avail": 3,
      "slow_percent": 60.0,
      "fast_total": 6,
      "fast_avail": 6,
      "fast_percent": 100.0,
      "latest_update": "20260714101909"
    },
    {
      "station_id": "EV014507",
      "name": "서울관악 관악푸르지오아파트 10",
      "address": "서울특별시 관악구 관악로30길 27",
      "lat": "37.4889363",
      "lng": "126.9603433",
      "total_count": 10,
      "available_count": 9,
      "total_percent": 90.0,
      "slow_total": 10,
      "slow_avail": 9,
      "slow_percent": 90.0,
      "fast_total": 0,
      "fast_avail": 0,
      "fast_percent": 0.0,
      "latest_update": "20260714091252"
    },
    {
      "station_id": "EV014508",
      "name": "서울관악 관악푸르지오아파트 11",
      "address": "서울특별시 관악구 관악로30길 27",
      "lat": "37.4889263",
      "lng": "126.9602433",
      "total_count": 10,
      "available_count": 9,
      "total_percent": 90.0,
      "slow_total": 10,
      "slow_avail": 9,
      "slow_percent": 90.0,
      "fast_total": 0,
      "fast_avail": 0,
      "fast_percent": 0.0,
      "latest_update": "20260714104745"
    },
    {
      "station_id": "CGA00042",
      "name": "관악 대우디오슈페리움 1단지(B6F)",
      "address": "서울특별시 관악구 관악로 164",
      "lat": "37.4796468",
      "lng": "126.9528507",
      "total_count": 9,
      "available_count": 8,
      "total_percent": 88.9,
      "slow_total": 9,
      "slow_avail": 8,
      "slow_percent": 88.9,
      "fast_total": 0,
      "fast_avail": 0,
      "fast_percent": 0.0,
      "latest_update": "20260714053016"
    },
    {
      "station_id": "EV014506",
      "name": "서울관악 관악푸르지오아파트 9",
      "address": "서울특별시 관악구 관악로30길 27",
      "lat": "37.4889463",
      "lng": "126.9604433",
      "total_count": 9,
      "available_count": 9,
      "total_percent": 100.0,
      "slow_total": 9,
      "slow_avail": 9,
      "slow_percent": 100.0,
      "fast_total": 0,
      "fast_avail": 0,
      "fast_percent": 0.0,
      "latest_update": "20260714074557"
    },
    {
      "station_id": "EV018228",
      "name": "서울관악 SK텔레콤 보라매사옥 1",
      "address": "서울특별시 관악구 봉천동 729-1 SK텔레콤 보라매 사옥",
      "lat": "37.4920159",
      "lng": "126.9261002",
      "total_count": 8,
      "available_count": 5,
      "total_percent": 62.5,
      "slow_total": 8,
      "slow_avail": 5,
      "slow_percent": 62.5,
      "fast_total": 0,
      "fast_avail": 0,
      "fast_percent": 0.0,
      "latest_update": "20260714113250"
    },
    {
      "station_id": "DYME2060",
      "name": "서울 신림금호타운",
      "address": "서울특별시 관악구 대학18길 6",
      "lat": "37.4655446",
      "lng": "126.9373532",
      "total_count": 6,
      "available_count": 6,
      "total_percent": 100.0,
      "slow_total": 6,
      "slow_avail": 6,
      "slow_percent": 100.0,
      "fast_total": 0,
      "fast_avail": 0,
      "fast_percent": 0.0,
      "latest_update": "20260713194902"
    },
    {
      "station_id": "KE001380",
      "name": "서울대학교 관악캠퍼스 16동",
      "address": "서울특별시 관악구 관악로 1",
      "lat": "37.464007",
      "lng": "126.9522394",
      "total_count": 6,
      "available_count": 3,
      "total_percent": 50.0,
      "slow_total": 4,
      "slow_avail": 2,
      "slow_percent": 50.0,
      "fast_total": 2,
      "fast_avail": 1,
      "fast_percent": 50.0,
      "latest_update": "20260714095910"
    },
    {
      "station_id": "CV001539",
      "name": "남현소공원 공영주차장",
      "address": "서울특별시 관악구 남현1길 28",
      "lat": "37.475850042",
      "lng": "126.97952742",
      "total_count": 5,
      "available_count": 5,
      "total_percent": 100.0,
      "slow_total": 0,
      "slow_avail": 0,
      "slow_percent": 0.0,
      "fast_total": 5,
      "fast_avail": 5,
      "fast_percent": 100.0,
      "latest_update": "20260714094549"
    },
    {
      "station_id": "EV003854",
      "name": "서울관악 신림푸르지오",
      "address": "서울특별시 관악구 남부순환로 1430",
      "lat": "37.4792384",
      "lng": "126.90904",
      "total_count": 5,
      "available_count": 4,
      "total_percent": 80.0,
      "slow_total": 5,
      "slow_avail": 4,
      "slow_percent": 80.0,
      "fast_total": 0,
      "fast_avail": 0,
      "fast_percent": 0.0,
      "latest_update": "20260713223838"
    },
    {
      "station_id": "EV010571",
      "name": "서울관악 은천2단지아파트",
      "address": "서울특별시 관악구 인헌12길 46-1",
      "lat": "37.4706655",
      "lng": "126.964564",
      "total_count": 5,
      "available_count": 4,
      "total_percent": 80.0,
      "slow_total": 5,
      "slow_avail": 4,
      "slow_percent": 80.0,
      "fast_total": 0,
      "fast_avail": 0,
      "fast_percent": 0.0,
      "latest_update": "20260714101122"
    },
    {
      "station_id": "HE212810",
      "name": "신림푸르지오1차아파트",
      "address": "서울특별시 관악구 남부순환로 1430",
      "lat": "37.478977",
      "lng": "126.910669",
      "total_count": 5,
      "available_count": 5,
      "total_percent": 100.0,
      "slow_total": 5,
      "slow_avail": 5,
      "slow_percent": 100.0,
      "fast_total": 0,
      "fast_avail": 0,
      "fast_percent": 0.0,
      "latest_update": "20260714065921"
    },
    {
      "station_id": "HM000024",
      "name": "삼성산주공아파트",
      "address": "서울특별시 관악구 호암로 399",
      "lat": "37.4625074",
      "lng": "126.9261292",
      "total_count": 5,
      "available_count": 5,
      "total_percent": 100.0,
      "slow_total": 5,
      "slow_avail": 5,
      "slow_percent": 100.0,
      "fast_total": 0,
      "fast_avail": 0,
      "fast_percent": 0.0,
      "latest_update": "20260714064000"
    },
    {
      "station_id": "HM000087",
      "name": "동부센트레빌_신림",
      "address": "서울특별시 관악구 미성3길 16",
      "lat": "37.473796215",
      "lng": "126.91676638",
      "total_count": 5,
      "available_count": 4,
      "total_percent": 80.0,
      "slow_total": 5,
      "slow_avail": 4,
      "slow_percent": 80.0,
      "fast_total": 0,
      "fast_avail": 0,
      "fast_percent": 0.0,
      "latest_update": "20260714081201"
    },
    {
      "station_id": "JA110052",
      "name": "봉천두산아파트3단지",
      "address": "서울특별시 관악구 양녕로 31",
      "lat": "37.4856494",
      "lng": "126.9462616",
      "total_count": 5,
      "available_count": 4,
      "total_percent": 80.0,
      "slow_total": 5,
      "slow_avail": 4,
      "slow_percent": 80.0,
      "fast_total": 0,
      "fast_avail": 0,
      "fast_percent": 0.0,
      "latest_update": "20260713181405"
    },
    {
      "station_id": "CGA00095",
      "name": "대학동 현대아파트(지상주차장)",
      "address": "서울특별시 관악구 대학20길 27",
      "lat": "37.464396320",
      "lng": "126.93754887",
      "total_count": 4,
      "available_count": 3,
      "total_percent": 75.0,
      "slow_total": 4,
      "slow_avail": 3,
      "slow_percent": 75.0,
      "fast_total": 0,
      "fast_avail": 0,
      "fast_percent": 0.0,
      "latest_update": "20260714071510"
    },
    {
      "station_id": "CU200009",
      "name": "E편한세상서울대1단지",
      "address": "서울특별시 관악구 청룡10길 45",
      "lat": "37.478396",
      "lng": "126.943047",
      "total_count": 4,
      "available_count": 2,
      "total_percent": 50.0,
      "slow_total": 4,
      "slow_avail": 2,
      "slow_percent": 50.0,
      "fast_total": 0,
      "fast_avail": 0,
      "fast_percent": 0.0,
      "latest_update": "20260714090035"
    },
    {
      "station_id": "CV004504",
      "name": "모래내공원주차장",
      "address": "서울특별시 관악구 봉천동 1613-19",
      "lat": "37.47784574",
      "lng": "126.9553691",
      "total_count": 4,
      "available_count": 4,
      "total_percent": 100.0,
      "slow_total": 0,
      "slow_avail": 0,
      "slow_percent": 0.0,
      "fast_total": 4,
      "fast_avail": 4,
      "fast_percent": 100.0,
      "latest_update": "20260714014046"
    },
    {
      "station_id": "EASGGSSG",
      "name": "삼성전자 서울대 공동 연구소",
      "address": "서울특별시 관악구 관악로 1",
      "lat": "37.4662873",
      "lng": "126.9481564",
      "total_count": 4,
      "available_count": 3,
      "total_percent": 75.0,
      "slow_total": 4,
      "slow_avail": 3,
      "slow_percent": 75.0,
      "fast_total": 0,
      "fast_avail": 0,
      "fast_percent": 0.0,
      "latest_update": "20260714071500"
    },
    {
      "station_id": "EP190073",
      "name": "서울 캐릭터그린빌관리단",
      "address": "서울특별시 관악구 보라매로5가길 7",
      "lat": "37.4918481",
      "lng": "126.9251744",
      "total_count": 4,
      "available_count": 0,
      "total_percent": 0.0,
      "slow_total": 4,
      "slow_avail": 0,
      "slow_percent": 0.0,
      "fast_total": 0,
      "fast_avail": 0,
      "fast_percent": 0.0,
      "latest_update": "20260324150039"
    },
    {
      "station_id": "ER000482",
      "name": "서울대입구아이원아파트",
      "address": "서울 관악구 청룡길 78",
      "lat": "37.4783125",
      "lng": "126.9453738",
      "total_count": 4,
      "available_count": 4,
      "total_percent": 100.0,
      "slow_total": 4,
      "slow_avail": 4,
      "slow_percent": 100.0,
      "fast_total": 0,
      "fast_avail": 0,
      "fast_percent": 0.0,
      "latest_update": "20260714084150"
    },
    {
      "station_id": "EV016937",
      "name": "서울관악 봉천우성아파트 2",
      "address": "서울특별시 관악구 관악로30길 40",
      "lat": "37.4851435",
      "lng": "126.9615785",
      "total_count": 4,
      "available_count": 0,
      "total_percent": 0.0,
      "slow_total": 4,
      "slow_avail": 0,
      "slow_percent": 0.0,
      "fast_total": 0,
      "fast_avail": 0,
      "fast_percent": 0.0,
      "latest_update": "20260714094316"
    },
    {
      "station_id": "EZ210001",
      "name": "남현우림루미아트입주자대표회의",
      "address": "서울특별시 관악구 남현길 91",
      "lat": "37.4727802",
      "lng": "126.9755114",
      "total_count": 4,
      "available_count": 0,
      "total_percent": 0.0,
      "slow_total": 4,
      "slow_avail": 0,
      "slow_percent": 0.0,
      "fast_total": 0,
      "fast_avail": 0,
      "fast_percent": 0.0,
      "latest_update": "20260601113310"
    },
    {
      "station_id": "HM110344",
      "name": "미림마이스터고등학교",
      "address": "서울특별시 관악구 호암로 546",
      "lat": "37.4661018",
      "lng": "126.9319279",
      "total_count": 4,
      "available_count": 2,
      "total_percent": 50.0,
      "slow_total": 4,
      "slow_avail": 2,
      "slow_percent": 50.0,
      "fast_total": 0,
      "fast_avail": 0,
      "fast_percent": 0.0,
      "latest_update": "20260714113819"
    },
    {
      "station_id": "HRA00023",
      "name": "호텔카일",
      "address": "서울특별시 관악구 남현3길 75",
      "lat": "37.475504",
      "lng": "126.98061",
      "total_count": 4,
      "available_count": 4,
      "total_percent": 100.0,
      "slow_total": 4,
      "slow_avail": 4,
      "slow_percent": 100.0,
      "fast_total": 0,
      "fast_avail": 0,
      "fast_percent": 0.0,
      "latest_update": "20260711161208"
    },
    {
      "station_id": "JA110086",
      "name": "봉천 동아2차아파트 지하3층",
      "address": "서울특별시 관악구 관악로37길 20",
      "lat": "37.488343",
      "lng": "126.95608",
      "total_count": 4,
      "available_count": 4,
      "total_percent": 100.0,
      "slow_total": 4,
      "slow_avail": 4,
      "slow_percent": 100.0,
      "fast_total": 0,
      "fast_avail": 0,
      "fast_percent": 0.0,
      "latest_update": "20260706134006"
    },
    {
      "station_id": "KE000953",
      "name": "서울대학교300동",
      "address": "서울특별시 관악구 관악로 1",
      "lat": "37.4509455",
      "lng": "126.9527469",
      "total_count": 4,
      "available_count": 3,
      "total_percent": 75.0,
      "slow_total": 4,
      "slow_avail": 3,
      "slow_percent": 75.0,
      "fast_total": 0,
      "fast_avail": 0,
      "fast_percent": 0.0,
      "latest_update": "20260714112209"
    },
    {
      "station_id": "KE001316",
      "name": "서울대학교 관악캠퍼스 104동",
      "address": "서울특별시 관악구 관악로 1",
      "lat": "37.4546086",
      "lng": "126.9530052",
      "total_count": 4,
      "available_count": 3,
      "total_percent": 75.0,
      "slow_total": 2,
      "slow_avail": 1,
      "slow_percent": 50.0,
      "fast_total": 2,
      "fast_avail": 2,
      "fast_percent": 100.0,
      "latest_update": "20260714112610"
    },
    {
      "station_id": "BNBN0831",
      "name": "관악구 원신공영주차장",
      "address": "서울특별시 관악구 양지길 63",
      "lat": "37.4701013",
      "lng": "126.9292826",
      "total_count": 3,
      "available_count": 3,
      "total_percent": 100.0,
      "slow_total": 3,
      "slow_avail": 3,
      "slow_percent": 100.0,
      "fast_total": 0,
      "fast_avail": 0,
      "fast_percent": 0.0,
      "latest_update": "20260714025112"
    },
    {
      "station_id": "CU200010",
      "name": "E편한세상서울대2단지",
      "address": "서울특별시 관악구 청룡16길 43",
      "lat": "37.476938",
      "lng": "126.943054",
      "total_count": 3,
      "available_count": 3,
      "total_percent": 100.0,
      "slow_total": 3,
      "slow_avail": 3,
      "slow_percent": 100.0,
      "fast_total": 0,
      "fast_avail": 0,
      "fast_percent": 0.0,
      "latest_update": "20260714071121"
    },
    {
      "station_id": "EC000842",
      "name": "남강고등학교",
      "address": "서울특별시 관악구 난곡로34길 80",
      "lat": "37.4719212",
      "lng": "126.9235159",
      "total_count": 3,
      "available_count": 1,
      "total_percent": 33.3,
      "slow_total": 3,
      "slow_avail": 1,
      "slow_percent": 33.3,
      "fast_total": 0,
      "fast_avail": 0,
      "fast_percent": 0.0,
      "latest_update": "20260714114601"
    },
    {
      "station_id": "EC001048",
      "name": "신림한양아파트",
      "address": "서울특별시 관악구 미성5길 33",
      "lat": "37.473098",
      "lng": "126.9149588",
      "total_count": 3,
      "available_count": 2,
      "total_percent": 66.7,
      "slow_total": 3,
      "slow_avail": 2,
      "slow_percent": 66.7,
      "fast_total": 0,
      "fast_avail": 0,
      "fast_percent": 0.0,
      "latest_update": "20260714104201"
    },
    {
      "station_id": "EC002569",
      "name": "신림푸르지오1차 122동 지하2층 주차장 기둥B2-2",
      "address": "서울특별시 관악구 남부순환로 1430",
      "lat": "37.4783847",
      "lng": "126.9119625",
      "total_count": 3,
      "available_count": 3,
      "total_percent": 100.0,
      "slow_total": 3,
      "slow_avail": 3,
      "slow_percent": 100.0,
      "fast_total": 0,
      "fast_avail": 0,
      "fast_percent": 0.0,
      "latest_update": "20260714112801"
    },
    {
      "station_id": "EC003273",
      "name": "신원메트로빌 B4",
      "address": "서울특별시 관악구 남부순환로 1811",
      "lat": "37.481685",
      "lng": "126.9514766",
      "total_count": 3,
      "available_count": 2,
      "total_percent": 66.7,
      "slow_total": 3,
      "slow_avail": 2,
      "slow_percent": 66.7,
      "fast_total": 0,
      "fast_avail": 0,
      "fast_percent": 0.0,
      "latest_update": "20260714095601"
    },
    {
      "station_id": "EP190003",
      "name": "관악위버폴리스",
      "address": "서울특별시 관악구 관악로 195",
      "lat": "37.4825641",
      "lng": "126.9530968",
      "total_count": 3,
      "available_count": 0,
      "total_percent": 0.0,
      "slow_total": 3,
      "slow_avail": 0,
      "slow_percent": 0.0,
      "fast_total": 0,
      "fast_avail": 0,
      "fast_percent": 0.0,
      "latest_update": "20260324150039"
    },
    {
      "station_id": "EV008414",
      "name": "서울관악 봉천벽산타운2차 1",
      "address": "서울특별시 관악구 구암5가길 49",
      "lat": "37.492546672",
      "lng": "126.94641498",
      "total_count": 3,
      "available_count": 3,
      "total_percent": 100.0,
      "slow_total": 3,
      "slow_avail": 3,
      "slow_percent": 100.0,
      "fast_total": 0,
      "fast_avail": 0,
      "fast_percent": 0.0,
      "latest_update": "20260714060055"
    },
    {
      "station_id": "EV010965",
      "name": "서울관악 신림동마아파트",
      "address": "서울특별시 관악구 호암로 527",
      "lat": "37.464546",
      "lng": "126.9308943",
      "total_count": 3,
      "available_count": 3,
      "total_percent": 100.0,
      "slow_total": 3,
      "slow_avail": 3,
      "slow_percent": 100.0,
      "fast_total": 0,
      "fast_avail": 0,
      "fast_percent": 0.0,
      "latest_update": "20260714085037"
    },
    {
      "station_id": "EV011240",
      "name": "서울관악 신림서초아파트",
      "address": "서울특별시 관악구 호암로16길 5",
      "lat": "37.464022451",
      "lng": "126.93224465",
      "total_count": 3,
      "available_count": 2,
      "total_percent": 66.7,
      "slow_total": 3,
      "slow_avail": 2,
      "slow_percent": 66.7,
      "fast_total": 0,
      "fast_avail": 0,
      "fast_percent": 0.0,
      "latest_update": "20260714042806"
    },
    {
      "station_id": "EV014941",
      "name": "서울관악 관악벽산블루밍 1",
      "address": "서울특별시 관악구 양녕로 117 (봉천동, 벽산블루밍아파트)",
      "lat": "37.4915088",
      "lng": "126.9427267",
      "total_count": 3,
      "available_count": 2,
      "total_percent": 66.7,
      "slow_total": 3,
      "slow_avail": 2,
      "slow_percent": 66.7,
      "fast_total": 0,
      "fast_avail": 0,
      "fast_percent": 0.0,
      "latest_update": "20260714075001"
    },
    {
      "station_id": "EV014942",
      "name": "서울관악 관악벽산블루밍 2",
      "address": "서울특별시 관악구 양녕로 117 (봉천동, 벽산블루밍아파트)",
      "lat": "37.4915088",
      "lng": "126.9427267",
      "total_count": 3,
      "available_count": 2,
      "total_percent": 66.7,
      "slow_total": 3,
      "slow_avail": 2,
      "slow_percent": 66.7,
      "fast_total": 0,
      "fast_avail": 0,
      "fast_percent": 0.0,
      "latest_update": "20260714113250"
    },
    {
      "station_id": "EV014943",
      "name": "서울관악 관악벽산블루밍 3",
      "address": "서울특별시 관악구 양녕로 117 (봉천동, 벽산블루밍아파트)",
      "lat": "37.4915088",
      "lng": "126.9427267",
      "total_count": 3,
      "available_count": 3,
      "total_percent": 100.0,
      "slow_total": 3,
      "slow_avail": 3,
      "slow_percent": 100.0,
      "fast_total": 0,
      "fast_avail": 0,
      "fast_percent": 0.0,
      "latest_update": "20260714043008"
    },
    {
      "station_id": "EV015457",
      "name": "서울관악 두영아파트",
      "address": "서울특별시 관악구 문성로16나길 25 (신림동, 신림동 두영아파트)",
      "lat": "37.4747832",
      "lng": "126.9138859",
      "total_count": 3,
      "available_count": 2,
      "total_percent": 66.7,
      "slow_total": 3,
      "slow_avail": 2,
      "slow_percent": 66.7,
      "fast_total": 0,
      "fast_avail": 0,
      "fast_percent": 0.0,
      "latest_update": "20260714113250"
    },
    {
      "station_id": "EV016296",
      "name": "서울관악 신림초원아파트",
      "address": "서울특별시 관악구 미성5길 40 (신림동, 초원아파트)",
      "lat": "37.4733555",
      "lng": "126.9141184",
      "total_count": 3,
      "available_count": 3,
      "total_percent": 100.0,
      "slow_total": 3,
      "slow_avail": 3,
      "slow_percent": 100.0,
      "fast_total": 0,
      "fast_avail": 0,
      "fast_percent": 0.0,
      "latest_update": "20260714095313"
    },
    {
      "station_id": "EV016936",
      "name": "서울관악 봉천우성아파트 1",
      "address": "서울특별시 관악구 관악로30길 40",
      "lat": "37.4851435",
      "lng": "126.9615785",
      "total_count": 3,
      "available_count": 0,
      "total_percent": 0.0,
      "slow_total": 3,
      "slow_avail": 0,
      "slow_percent": 0.0,
      "fast_total": 0,
      "fast_avail": 0,
      "fast_percent": 0.0,
      "latest_update": "20260714094316"
    },
    {
      "station_id": "EV017703",
      "name": "서울관악 승연(주) 봉일프라자 1",
      "address": "서울 관악구 은천로 28",
      "lat": "37.4859081",
      "lng": "126.9383899",
      "total_count": 3,
      "available_count": 2,
      "total_percent": 66.7,
      "slow_total": 3,
      "slow_avail": 2,
      "slow_percent": 66.7,
      "fast_total": 0,
      "fast_avail": 0,
      "fast_percent": 0.0,
      "latest_update": "20260714063314"
    },
    {
      "station_id": "EV018858",
      "name": "서울관악 관악월드메르디앙 1",
      "address": "서울특별시 관악구 관악로28길 80",
      "lat": "37.4835249",
      "lng": "126.9591453",
      "total_count": 3,
      "available_count": 2,
      "total_percent": 66.7,
      "slow_total": 3,
      "slow_avail": 2,
      "slow_percent": 66.7,
      "fast_total": 0,
      "fast_avail": 0,
      "fast_percent": 0.0,
      "latest_update": "20260714083024"
    },
    {
      "station_id": "EV019038",
      "name": "서울관악 이편한세상서울대입구3단지 1",
      "address": "서울 관악구 참숯5길 7",
      "lat": "37.4773565",
      "lng": "126.9407554",
      "total_count": 3,
      "available_count": 3,
      "total_percent": 100.0,
      "slow_total": 3,
      "slow_avail": 3,
      "slow_percent": 100.0,
      "fast_total": 0,
      "fast_avail": 0,
      "fast_percent": 0.0,
      "latest_update": "20260714092658"
    },
    {
      "station_id": "EV020208",
      "name": "서울관악 관악현대아파트 1",
      "address": "서울특별시 관악구 관악로 304",
      "lat": "37.4912423",
      "lng": "126.9571440",
      "total_count": 3,
      "available_count": 2,
      "total_percent": 66.7,
      "slow_total": 3,
      "slow_avail": 2,
      "slow_percent": 66.7,
      "fast_total": 0,
      "fast_avail": 0,
      "fast_percent": 0.0,
      "latest_update": "20260714100119"
    },
    {
      "station_id": "EV020209",
      "name": "서울관악 관악현대아파트 2",
      "address": "서울특별시 관악구 관악로 304",
      "lat": "37.4916030",
      "lng": "126.9579693",
      "total_count": 3,
      "available_count": 3,
      "total_percent": 100.0,
      "slow_total": 3,
      "slow_avail": 3,
      "slow_percent": 100.0,
      "fast_total": 0,
      "fast_avail": 0,
      "fast_percent": 0.0,
      "latest_update": "20260714102131"
    },
    {
      "station_id": "EV020210",
      "name": "서울관악 관악현대아파트 3",
      "address": "서울특별시 관악구 관악로 304",
      "lat": "37.4923151",
      "lng": "126.9587491",
      "total_count": 3,
      "available_count": 2,
      "total_percent": 66.7,
      "slow_total": 3,
      "slow_avail": 2,
      "slow_percent": 66.7,
      "fast_total": 0,
      "fast_avail": 0,
      "fast_percent": 0.0,
      "latest_update": "20260714114458"
    },
    {
      "station_id": "EV020211",
      "name": "서울관악 관악현대아파트 4",
      "address": "서울특별시 관악구 관악로 304",
      "lat": "37.4925225",
      "lng": "126.9593483",
      "total_count": 3,
      "available_count": 3,
      "total_percent": 100.0,
      "slow_total": 3,
      "slow_avail": 3,
      "slow_percent": 100.0,
      "fast_total": 0,
      "fast_avail": 0,
      "fast_percent": 0.0,
      "latest_update": "20260713093619"
    },
    {
      "station_id": "EV020212",
      "name": "서울관악 관악현대아파트 5",
      "address": "서울특별시 관악구 관악로 304",
      "lat": "37.4929194",
      "lng": "126.9604224",
      "total_count": 3,
      "available_count": 3,
      "total_percent": 100.0,
      "slow_total": 3,
      "slow_avail": 3,
      "slow_percent": 100.0,
      "fast_total": 0,
      "fast_avail": 0,
      "fast_percent": 0.0,
      "latest_update": "20260714064320"
    },
    {
      "station_id": "EV020213",
      "name": "서울관악 관악현대아파트 6",
      "address": "서울특별시 관악구 관악로 304",
      "lat": "37.4923157",
      "lng": "126.9604227",
      "total_count": 3,
      "available_count": 1,
      "total_percent": 33.3,
      "slow_total": 3,
      "slow_avail": 1,
      "slow_percent": 33.3,
      "fast_total": 0,
      "fast_avail": 0,
      "fast_percent": 0.0,
      "latest_update": "20260714044013"
    },
    {
      "station_id": "EV020214",
      "name": "서울관악 관악현대아파트 7",
      "address": "서울특별시 관악구 관악로 304",
      "lat": "37.4919642",
      "lng": "126.9602080",
      "total_count": 3,
      "available_count": 3,
      "total_percent": 100.0,
      "slow_total": 3,
      "slow_avail": 3,
      "slow_percent": 100.0,
      "fast_total": 0,
      "fast_avail": 0,
      "fast_percent": 0.0,
      "latest_update": "20260714104143"
    },
    {
      "station_id": "EV020215",
      "name": "서울관악 관악현대아파트 8",
      "address": "서울특별시 관악구 관악로 304",
      "lat": "37.4917749",
      "lng": "126.9599707",
      "total_count": 3,
      "available_count": 2,
      "total_percent": 66.7,
      "slow_total": 3,
      "slow_avail": 2,
      "slow_percent": 66.7,
      "fast_total": 0,
      "fast_avail": 0,
      "fast_percent": 0.0,
      "latest_update": "20260714080006"
    },
    {
      "station_id": "EZ002152",
      "name": "예광관악빌딩",
      "address": "서울특별시 관악구 남부순환로 1440",
      "lat": "37.4808911",
      "lng": "126.9109564",
      "total_count": 3,
      "available_count": 0,
      "total_percent": 0.0,
      "slow_total": 3,
      "slow_avail": 0,
      "slow_percent": 0.0,
      "fast_total": 0,
      "fast_avail": 0,
      "fast_percent": 0.0,
      "latest_update": "20260601113310"
    },
    {
      "station_id": "EZ100052",
      "name": "서울대입구아이원아파트",
      "address": "서울특별시 관악구 청룡길 78",
      "lat": "37.4787044",
      "lng": "126.9455509",
      "total_count": 3,
      "available_count": 0,
      "total_percent": 0.0,
      "slow_total": 3,
      "slow_avail": 0,
      "slow_percent": 0.0,
      "fast_total": 0,
      "fast_avail": 0,
      "fast_percent": 0.0,
      "latest_update": "20260601113310"
    },
    {
      "station_id": "JA110084",
      "name": "봉천 동아2차아파트 지하1층",
      "address": "서울특별시 관악구 관악로37길 20",
      "lat": "37.4883407",
      "lng": "126.9560602",
      "total_count": 3,
      "available_count": 3,
      "total_percent": 100.0,
      "slow_total": 3,
      "slow_avail": 3,
      "slow_percent": 100.0,
      "fast_total": 0,
      "fast_avail": 0,
      "fast_percent": 0.0,
      "latest_update": "20260714094906"
    },
    {
      "station_id": "JA110085",
      "name": "봉천 동아2차아파트 지하2층",
      "address": "서울특별시 관악구 관악로37길 20",
      "lat": "37.4883407",
      "lng": "126.9560659",
      "total_count": 3,
      "available_count": 3,
      "total_percent": 100.0,
      "slow_total": 3,
      "slow_avail": 3,
      "slow_percent": 100.0,
      "fast_total": 0,
      "fast_avail": 0,
      "fast_percent": 0.0,
      "latest_update": "20260712114907"
    },
    {
      "station_id": "KE000952",
      "name": "서울대학교59동",
      "address": "서울특별시 관악구 관악로 1",
      "lat": "37.4649978",
      "lng": "126.9526504",
      "total_count": 3,
      "available_count": 2,
      "total_percent": 66.7,
      "slow_total": 3,
      "slow_avail": 2,
      "slow_percent": 66.7,
      "fast_total": 0,
      "fast_avail": 0,
      "fast_percent": 0.0,
      "latest_update": "20260714102911"
    },
    {
      "station_id": "KE000955",
      "name": "서울대학교20동",
      "address": "서울특별시 관악구 관악로 1",
      "lat": "37.4585794",
      "lng": "126.9528078",
      "total_count": 3,
      "available_count": 2,
      "total_percent": 66.7,
      "slow_total": 3,
      "slow_avail": 2,
      "slow_percent": 66.7,
      "fast_total": 0,
      "fast_avail": 0,
      "fast_percent": 0.0,
      "latest_update": "20260714113309"
    },
    {
      "station_id": "KE001185",
      "name": "서울대학교75동",
      "address": "서울특별시 관악구 관악로 1",
      "lat": "37.4561045",
      "lng": "126.9491063",
      "total_count": 3,
      "available_count": 2,
      "total_percent": 66.7,
      "slow_total": 1,
      "slow_avail": 1,
      "slow_percent": 100.0,
      "fast_total": 2,
      "fast_avail": 1,
      "fast_percent": 50.0,
      "latest_update": "20260714112409"
    },
    {
      "station_id": "KL001871",
      "name": "경원이엔씨",
      "address": "서울특별시 관악구 남부순환로 2072",
      "lat": "37.4761999",
      "lng": "126.9788446",
      "total_count": 3,
      "available_count": 3,
      "total_percent": 100.0,
      "slow_total": 3,
      "slow_avail": 3,
      "slow_percent": 100.0,
      "fast_total": 0,
      "fast_avail": 0,
      "fast_percent": 0.0,
      "latest_update": "20260714091001"
    },
    {
      "station_id": "KP000711",
      "name": "보라매삼성 아파트",
      "address": "서울특별시 관악구 봉천동 보라매로 62",
      "lat": "37.4933922804",
      "lng": "126.9278189979",
      "total_count": 3,
      "available_count": 1,
      "total_percent": 33.3,
      "slow_total": 2,
      "slow_avail": 0,
      "slow_percent": 0.0,
      "fast_total": 1,
      "fast_avail": 1,
      "fast_percent": 100.0,
      "latest_update": "20260714035005"
    },
    {
      "station_id": "KP004048",
      "name": "신림 주공2단지",
      "address": "서울특별시 관악구 신림동 광신길 86",
      "lat": "37.46425",
      "lng": "126.92662",
      "total_count": 3,
      "available_count": 2,
      "total_percent": 66.7,
      "slow_total": 3,
      "slow_avail": 2,
      "slow_percent": 66.7,
      "fast_total": 0,
      "fast_avail": 0,
      "fast_percent": 0.0,
      "latest_update": "20260714100015"
    },
    {
      "station_id": "BNAB0595",
      "name": "서울 관악구 조원동 제1공영주차장",
      "address": "서울특별시 관악구 조원중앙로2길 19",
      "lat": "37.481038",
      "lng": "126.905714",
      "total_count": 2,
      "available_count": 0,
      "total_percent": 0.0,
      "slow_total": 0,
      "slow_avail": 0,
      "slow_percent": 0.0,
      "fast_total": 2,
      "fast_avail": 0,
      "fast_percent": 0.0,
      "latest_update": "20260521145300"
    },
    {
      "station_id": "BNBN0824",
      "name": "관악구 난우중학교 공영주차장",
      "address": "서울특별시 관악구 난곡로16길 32",
      "lat": "37.4665737",
      "lng": "126.9224782",
      "total_count": 2,
      "available_count": 1,
      "total_percent": 50.0,
      "slow_total": 2,
      "slow_avail": 1,
      "slow_percent": 50.0,
      "fast_total": 0,
      "fast_avail": 0,
      "fast_percent": 0.0,
      "latest_update": "20260714025112"
    },
    {
      "station_id": "BNBN0825",
      "name": "관악구 미성동 제4공영주차장",
      "address": "서울특별시 관악구 난우10가길 2",
      "lat": "37.476433",
      "lng": "126.9197203",
      "total_count": 2,
      "available_count": 2,
      "total_percent": 100.0,
      "slow_total": 2,
      "slow_avail": 2,
      "slow_percent": 100.0,
      "fast_total": 0,
      "fast_avail": 0,
      "fast_percent": 0.0,
      "latest_update": "20260714025112"
    },
    {
      "station_id": "BNBN0827",
      "name": "관악구 당곡중학교 공영주차장",
      "address": "서울특별시 관악구 봉천로13길 101",
      "lat": "37.4920597",
      "lng": "126.9331288",
      "total_count": 2,
      "available_count": 2,
      "total_percent": 100.0,
      "slow_total": 2,
      "slow_avail": 2,
      "slow_percent": 100.0,
      "fast_total": 0,
      "fast_avail": 0,
      "fast_percent": 0.0,
      "latest_update": "20260714111218"
    },
    {
      "station_id": "BNBN0830",
      "name": "관악구 민방위교육장",
      "address": "서울특별시 관악구 문성로16다길 135",
      "lat": "37.4692897",
      "lng": "126.9112814",
      "total_count": 2,
      "available_count": 2,
      "total_percent": 100.0,
      "slow_total": 2,
      "slow_avail": 2,
      "slow_percent": 100.0,
      "fast_total": 0,
      "fast_avail": 0,
      "fast_percent": 0.0,
      "latest_update": "20260714025112"
    },
    {
      "station_id": "BNBN0832",
      "name": "관악구 삼성동 제2공영주차장",
      "address": "서울특별시 관악구 호암로16길 36",
      "lat": "37.4641166",
      "lng": "126.9334857",
      "total_count": 2,
      "available_count": 2,
      "total_percent": 100.0,
      "slow_total": 2,
      "slow_avail": 2,
      "slow_percent": 100.0,
      "fast_total": 0,
      "fast_avail": 0,
      "fast_percent": 0.0,
      "latest_update": "20260714092419"
    },
    {
      "station_id": "BNBN1188",
      "name": "서울 신림동 공영주차장",
      "address": "서울특별시 관악구 신림로 24 (신림동)",
      "lat": "37.4690361",
      "lng": "126.9462484",
      "total_count": 2,
      "available_count": 0,
      "total_percent": 0.0,
      "slow_total": 2,
      "slow_avail": 0,
      "slow_percent": 0.0,
      "fast_total": 0,
      "fast_avail": 0,
      "fast_percent": 0.0,
      "latest_update": "20260714025115"
    },
    {
      "station_id": "CGA00235",
      "name": "관악 신림태흥아파트",
      "address": "서울특별시 관악구 호암로 541",
      "lat": "37.4660217",
      "lng": "126.931073",
      "total_count": 2,
      "available_count": 2,
      "total_percent": 100.0,
      "slow_total": 2,
      "slow_avail": 2,
      "slow_percent": 100.0,
      "fast_total": 0,
      "fast_avail": 0,
      "fast_percent": 0.0,
      "latest_update": "20260714023011"
    },
    {
      "station_id": "CV001088",
      "name": "관악구민종합체육센터",
      "address": "서울특별시 관악구 낙성대로3길 37",
      "lat": "37.472593",
      "lng": "126.959289",
      "total_count": 2,
      "available_count": 2,
      "total_percent": 100.0,
      "slow_total": 0,
      "slow_avail": 0,
      "slow_percent": 0.0,
      "fast_total": 2,
      "fast_avail": 2,
      "fast_percent": 100.0,
      "latest_update": "20260714093021"
    },
    {
      "station_id": "CV001912",
      "name": "은천초등학교",
      "address": "서울특별시 관악구 은천로 69",
      "lat": "37.4866003",
      "lng": "126.9420239",
      "total_count": 2,
      "available_count": 1,
      "total_percent": 50.0,
      "slow_total": 2,
      "slow_avail": 1,
      "slow_percent": 50.0,
      "fast_total": 0,
      "fast_avail": 0,
      "fast_percent": 0.0,
      "latest_update": "20260714114526"
    },
    {
      "station_id": "CV004298",
      "name": "관악가족행복센터",
      "address": "서울특별시 관악구 남부순환로 1491",
      "lat": "37.4826476",
      "lng": "126.9164502",
      "total_count": 2,
      "available_count": 2,
      "total_percent": 100.0,
      "slow_total": 0,
      "slow_avail": 0,
      "slow_percent": 0.0,
      "fast_total": 2,
      "fast_avail": 2,
      "fast_percent": 100.0,
      "latest_update": "20260708013518"
    },
    {
      "station_id": "DO000055",
      "name": "보라매 제1공영주차장",
      "address": "서울특별시 관악구 봉천로21길 38",
      "lat": "37.4885479",
      "lng": "126.9345267",
      "total_count": 2,
      "available_count": 1,
      "total_percent": 50.0,
      "slow_total": 0,
      "slow_avail": 0,
      "slow_percent": 0.0,
      "fast_total": 2,
      "fast_avail": 1,
      "fast_percent": 50.0,
      "latest_update": "20260714113223"
    },
    {
      "station_id": "EC000841",
      "name": "광신고등학교",
      "address": "서울특별시 관악구 광신길 141",
      "lat": "37.4649694",
      "lng": "126.926688",
      "total_count": 2,
      "available_count": 0,
      "total_percent": 0.0,
      "slow_total": 2,
      "slow_avail": 0,
      "slow_percent": 0.0,
      "fast_total": 0,
      "fast_avail": 0,
      "fast_percent": 0.0,
      "latest_update": "20260714110801"
    },
    {
      "station_id": "EC000843",
      "name": "영락고등학교",
      "address": "서울특별시 관악구 청룡16길 25",
      "lat": "37.476289",
      "lng": "126.9437274",
      "total_count": 2,
      "available_count": 2,
      "total_percent": 100.0,
      "slow_total": 2,
      "slow_avail": 2,
      "slow_percent": 100.0,
      "fast_total": 0,
      "fast_avail": 0,
      "fast_percent": 0.0,
      "latest_update": "20260714042001"
    },
    {
      "station_id": "EC002568",
      "name": "신림푸르지오1차 122동 지하2층 주차장 기둥B2-1",
      "address": "서울특별시 관악구 남부순환로 1430",
      "lat": "37.4784275",
      "lng": "126.9119144",
      "total_count": 2,
      "available_count": 2,
      "total_percent": 100.0,
      "slow_total": 2,
      "slow_avail": 2,
      "slow_percent": 100.0,
      "fast_total": 0,
      "fast_avail": 0,
      "fast_percent": 0.0,
      "latest_update": "20260713165401"
    },
    {
      "station_id": "EC002636",
      "name": "관악위버폴리스관리단 A동",
      "address": "서울특별시 관악구 관악로 195",
      "lat": "37.4826445",
      "lng": "126.9532554",
      "total_count": 2,
      "available_count": 0,
      "total_percent": 0.0,
      "slow_total": 2,
      "slow_avail": 0,
      "slow_percent": 0.0,
      "fast_total": 0,
      "fast_avail": 0,
      "fast_percent": 0.0,
      "latest_update": "20260602123201"
    },
    {
      "station_id": "ER000466",
      "name": "낙성대현대아파트",
      "address": "서울 관악구 남부순환로248길 56",
      "lat": "37.4736559",
      "lng": "126.9657211",
      "total_count": 2,
      "available_count": 2,
      "total_percent": 100.0,
      "slow_total": 2,
      "slow_avail": 2,
      "slow_percent": 100.0,
      "fast_total": 0,
      "fast_avail": 0,
      "fast_percent": 0.0,
      "latest_update": "20260714104254"
    },
    {
      "station_id": "EV003079",
      "name": "서울관악 서울대학교교수아파트",
      "address": "서울특별시 관악구 관악로 1",
      "lat": "37.4533585",
      "lng": "126.9571611",
      "total_count": 2,
      "available_count": 2,
      "total_percent": 100.0,
      "slow_total": 2,
      "slow_avail": 2,
      "slow_percent": 100.0,
      "fast_total": 0,
      "fast_avail": 0,
      "fast_percent": 0.0,
      "latest_update": "20260714081615"
    },
    {
      "station_id": "EV004028",
      "name": "서울관악 무학아파트",
      "address": "서울특별시 관악구 장군봉8길 16",
      "lat": "37.4812676",
      "lng": "126.9386624",
      "total_count": 2,
      "available_count": 2,
      "total_percent": 100.0,
      "slow_total": 2,
      "slow_avail": 2,
      "slow_percent": 100.0,
      "fast_total": 0,
      "fast_avail": 0,
      "fast_percent": 0.0,
      "latest_update": "20260713193039"
    },
    {
      "station_id": "EV004034",
      "name": "서울관악 관악문화관도서관",
      "address": "서울특별시 관악구 신림로3길 35",
      "lat": "37.4675977",
      "lng": "126.9448709",
      "total_count": 2,
      "available_count": 1,
      "total_percent": 50.0,
      "slow_total": 2,
      "slow_avail": 1,
      "slow_percent": 50.0,
      "fast_total": 0,
      "fast_avail": 0,
      "fast_percent": 0.0,
      "latest_update": "20260714100923"
    },
    {
      "station_id": "EV005672",
      "name": "서울관악 신대방역공영주차장(급속)",
      "address": "서울특별시 관악구 난곡로 374",
      "lat": "37.4877625",
      "lng": "126.9148832",
      "total_count": 2,
      "available_count": 2,
      "total_percent": 100.0,
      "slow_total": 0,
      "slow_avail": 0,
      "slow_percent": 0.0,
      "fast_total": 2,
      "fast_avail": 2,
      "fast_percent": 100.0,
      "latest_update": "20260713224643"
    },
    {
      "station_id": "EV007154",
      "name": "서울관악 신림건영아파트",
      "address": "서울특별시 관악구 문성로 74",
      "lat": "37.4767563",
      "lng": "126.9120581",
      "total_count": 2,
      "available_count": 2,
      "total_percent": 100.0,
      "slow_total": 2,
      "slow_avail": 2,
      "slow_percent": 100.0,
      "fast_total": 0,
      "fast_avail": 0,
      "fast_percent": 0.0,
      "latest_update": "20260714103539"
    },
    {
      "station_id": "EV007985",
      "name": "서울관악 현대아파트2",
      "address": "서울특별시 관악구 관악로40길 47",
      "lat": "37.491234615",
      "lng": "126.96085294",
      "total_count": 2,
      "available_count": 2,
      "total_percent": 100.0,
      "slow_total": 2,
      "slow_avail": 2,
      "slow_percent": 100.0,
      "fast_total": 0,
      "fast_avail": 0,
      "fast_percent": 0.0,
      "latest_update": "20260705132414"
    },
    {
      "station_id": "EV008415",
      "name": "서울관악 봉천벽산타운2차 2",
      "address": "서울특별시 관악구 구암5가길 49",
      "lat": "37.4925171",
      "lng": "126.946162",
      "total_count": 2,
      "available_count": 2,
      "total_percent": 100.0,
      "slow_total": 2,
      "slow_avail": 2,
      "slow_percent": 100.0,
      "fast_total": 0,
      "fast_avail": 0,
      "fast_percent": 0.0,
      "latest_update": "20260714084835"
    },
    {
      "station_id": "EV008871",
      "name": "서울관악 신림청화아파트",
      "address": "서울특별시 관악구 호암로16길 11",
      "lat": "37.4634832",
      "lng": "126.9324566",
      "total_count": 2,
      "available_count": 2,
      "total_percent": 100.0,
      "slow_total": 2,
      "slow_avail": 2,
      "slow_percent": 100.0,
      "fast_total": 0,
      "fast_avail": 0,
      "fast_percent": 0.0,
      "latest_update": "20260713191228"
    },
    {
      "station_id": "EV008993",
      "name": "서울관악 산이랑아파트",
      "address": "서울특별시 관악구 승방3나길 41",
      "lat": "37.4720597",
      "lng": "126.9790957",
      "total_count": 2,
      "available_count": 2,
      "total_percent": 100.0,
      "slow_total": 2,
      "slow_avail": 2,
      "slow_percent": 100.0,
      "fast_total": 0,
      "fast_avail": 0,
      "fast_percent": 0.0,
      "latest_update": "20260712092919"
    },
    {
      "station_id": "EV012461",
      "name": "서울관악 관악푸르지오아파트 2",
      "address": "서울특별시 관악구 관악로30길 27 (봉천동, 관악푸르지오)",
      "lat": "37.4889663",
      "lng": "126.9606433",
      "total_count": 2,
      "available_count": 2,
      "total_percent": 100.0,
      "slow_total": 2,
      "slow_avail": 2,
      "slow_percent": 100.0,
      "fast_total": 0,
      "fast_avail": 0,
      "fast_percent": 0.0,
      "latest_update": "20260714092055"
    },
    {
      "station_id": "EV012462",
      "name": "서울관악 관악푸르지오아파트 3",
      "address": "서울특별시 관악구 관악로30길 27 (봉천동, 관악푸르지오)",
      "lat": "37.4889663",
      "lng": "126.9606433",
      "total_count": 2,
      "available_count": 2,
      "total_percent": 100.0,
      "slow_total": 2,
      "slow_avail": 2,
      "slow_percent": 100.0,
      "fast_total": 0,
      "fast_avail": 0,
      "fast_percent": 0.0,
      "latest_update": "20260714095515"
    },
    {
      "station_id": "EV012463",
      "name": "서울관악 관악푸르지오아파트 4",
      "address": "서울특별시 관악구 관악로30길 27 (봉천동, 관악푸르지오)",
      "lat": "37.4889663",
      "lng": "126.9606433",
      "total_count": 2,
      "available_count": 2,
      "total_percent": 100.0,
      "slow_total": 2,
      "slow_avail": 2,
      "slow_percent": 100.0,
      "fast_total": 0,
      "fast_avail": 0,
      "fast_percent": 0.0,
      "latest_update": "20260713114135"
    },
    {
      "station_id": "EV012465",
      "name": "서울관악 관악푸르지오아파트 6",
      "address": "서울특별시 관악구 관악로30길 27 (봉천동, 관악푸르지오)",
      "lat": "37.4889663",
      "lng": "126.9606433",
      "total_count": 2,
      "available_count": 1,
      "total_percent": 50.0,
      "slow_total": 2,
      "slow_avail": 1,
      "slow_percent": 50.0,
      "fast_total": 0,
      "fast_avail": 0,
      "fast_percent": 0.0,
      "latest_update": "20260713231836"
    },
    {
      "station_id": "EV014504",
      "name": "서울관악 관악푸르지오아파트 7",
      "address": "서울특별시 관악구 관악로30길 27",
      "lat": "37.4889663",
      "lng": "126.9606433",
      "total_count": 2,
      "available_count": 2,
      "total_percent": 100.0,
      "slow_total": 2,
      "slow_avail": 2,
      "slow_percent": 100.0,
      "fast_total": 0,
      "fast_avail": 0,
      "fast_percent": 0.0,
      "latest_update": "20260714092458"
    },
    {
      "station_id": "EV014505",
      "name": "서울관악 관악푸르지오아파트 8",
      "address": "서울특별시 관악구 관악로30길 27",
      "lat": "37.4889563",
      "lng": "126.9605433",
      "total_count": 2,
      "available_count": 0,
      "total_percent": 0.0,
      "slow_total": 2,
      "slow_avail": 0,
      "slow_percent": 0.0,
      "fast_total": 0,
      "fast_avail": 0,
      "fast_percent": 0.0,
      "latest_update": "20260713223240"
    },
    {
      "station_id": "EV018898",
      "name": "서울관악 신림shvill아파트 1",
      "address": "서울특별시 관악구 난곡로 80",
      "lat": "37.4625382",
      "lng": "126.9195450",
      "total_count": 2,
      "available_count": 2,
      "total_percent": 100.0,
      "slow_total": 2,
      "slow_avail": 2,
      "slow_percent": 100.0,
      "fast_total": 0,
      "fast_avail": 0,
      "fast_percent": 0.0,
      "latest_update": "20260713075516"
    },
    {
      "station_id": "EV020830",
      "name": "서울관악 서울대학교교수아파트 2",
      "address": "서울 관악구 관악로 1",
      "lat": "37.4679693",
      "lng": "126.9572647",
      "total_count": 2,
      "available_count": 2,
      "total_percent": 100.0,
      "slow_total": 2,
      "slow_avail": 2,
      "slow_percent": 100.0,
      "fast_total": 0,
      "fast_avail": 0,
      "fast_percent": 0.0,
      "latest_update": "20260713091810"
    },
    {
      "station_id": "EZ200218",
      "name": "제창그로힐아파트입주자대표회의",
      "address": "서울특별시 관악구 조원로13길 36",
      "lat": "37.484694",
      "lng": "126.9104756",
      "total_count": 2,
      "available_count": 0,
      "total_percent": 0.0,
      "slow_total": 2,
      "slow_avail": 0,
      "slow_percent": 0.0,
      "fast_total": 0,
      "fast_avail": 0,
      "fast_percent": 0.0,
      "latest_update": "20260601113310"
    },
    {
      "station_id": "EZ200239",
      "name": "제창그로힐아파트 입주자대표회의",
      "address": "서울특별시 관악구 남부순환로 1979",
      "lat": "37.4758206",
      "lng": "126.9687631",
      "total_count": 2,
      "available_count": 0,
      "total_percent": 0.0,
      "slow_total": 2,
      "slow_avail": 0,
      "slow_percent": 0.0,
      "fast_total": 0,
      "fast_avail": 0,
      "fast_percent": 0.0,
      "latest_update": "20260601113310"
    },
    {
      "station_id": "HU200025",
      "name": "신림신도브래뉴",
      "address": "서울특별시 관악구 조원로16길 7",
      "lat": "37.4838366",
      "lng": "126.9109684",
      "total_count": 2,
      "available_count": 0,
      "total_percent": 0.0,
      "slow_total": 2,
      "slow_avail": 0,
      "slow_percent": 0.0,
      "fast_total": 0,
      "fast_avail": 0,
      "fast_percent": 0.0,
      "latest_update": "20260623110004"
    },
    {
      "station_id": "JA110081",
      "name": "서울 신림동 앰팰리스아파트 지상1층",
      "address": "서울특별시 관악구 신림로 194",
      "lat": "37.474846",
      "lng": "126.9366656",
      "total_count": 2,
      "available_count": 1,
      "total_percent": 50.0,
      "slow_total": 2,
      "slow_avail": 1,
      "slow_percent": 50.0,
      "fast_total": 0,
      "fast_avail": 0,
      "fast_percent": 0.0,
      "latest_update": "20260714034207"
    },
    {
      "station_id": "JA110088",
      "name": "관악푸르지오2단지 지하1층",
      "address": "서울특별시 관악구 청림5길 28",
      "lat": "37.4899054",
      "lng": "126.9602006",
      "total_count": 2,
      "available_count": 2,
      "total_percent": 100.0,
      "slow_total": 2,
      "slow_avail": 2,
      "slow_percent": 100.0,
      "fast_total": 0,
      "fast_avail": 0,
      "fast_percent": 0.0,
      "latest_update": "20260708210706"
    },
    {
      "station_id": "JA110089",
      "name": "관악푸르지오2단지 지하2층",
      "address": "서울특별시 관악구 청림5길 28",
      "lat": "37.4899167",
      "lng": "126.9601724",
      "total_count": 2,
      "available_count": 2,
      "total_percent": 100.0,
      "slow_total": 2,
      "slow_avail": 2,
      "slow_percent": 100.0,
      "fast_total": 0,
      "fast_avail": 0,
      "fast_percent": 0.0,
      "latest_update": "20260714082807"
    },
    {
      "station_id": "JA110090",
      "name": "관악푸르지오2단지 지하3층",
      "address": "서울특별시 관악구 청림5길 28",
      "lat": "37.4899122",
      "lng": "126.9602204",
      "total_count": 2,
      "available_count": 2,
      "total_percent": 100.0,
      "slow_total": 2,
      "slow_avail": 2,
      "slow_percent": 100.0,
      "fast_total": 0,
      "fast_avail": 0,
      "fast_percent": 0.0,
      "latest_update": "20260714082005"
    },
    {
      "station_id": "JA110193",
      "name": "서울대 노블루체 오피스텔",
      "address": "서울특별시 관악구 관악로12길 33",
      "lat": "37.478161040",
      "lng": "126.95447421",
      "total_count": 2,
      "available_count": 2,
      "total_percent": 100.0,
      "slow_total": 2,
      "slow_avail": 2,
      "slow_percent": 100.0,
      "fast_total": 0,
      "fast_avail": 0,
      "fast_percent": 0.0,
      "latest_update": "20260714112018"
    },
    {
      "station_id": "KE000950",
      "name": "서울대학교223동",
      "address": "서울특별시 관악구 관악로 1",
      "lat": "37.4654747",
      "lng": "126.9555954",
      "total_count": 2,
      "available_count": 2,
      "total_percent": 100.0,
      "slow_total": 2,
      "slow_avail": 2,
      "slow_percent": 100.0,
      "fast_total": 0,
      "fast_avail": 0,
      "fast_percent": 0.0,
      "latest_update": "20260712093610"
    },
    {
      "station_id": "KE000956",
      "name": "서울대학교28동",
      "address": "서울특별시 관악구 관악로 1",
      "lat": "37.4576294",
      "lng": "126.9502925",
      "total_count": 2,
      "available_count": 1,
      "total_percent": 50.0,
      "slow_total": 1,
      "slow_avail": 0,
      "slow_percent": 0.0,
      "fast_total": 1,
      "fast_avail": 1,
      "fast_percent": 100.0,
      "latest_update": "20260714100510"
    },
    {
      "station_id": "KE000963",
      "name": "서울대학교917동",
      "address": "서울특별시 관악구 관악로 1",
      "lat": "37.464007",
      "lng": "126.9522394",
      "total_count": 2,
      "available_count": 1,
      "total_percent": 50.0,
      "slow_total": 2,
      "slow_avail": 1,
      "slow_percent": 50.0,
      "fast_total": 0,
      "fast_avail": 0,
      "fast_percent": 0.0,
      "latest_update": "20260714003810"
    },
    {
      "station_id": "KE000993",
      "name": "서울대학교311동",
      "address": "서울특별시 관악구 관악로 1",
      "lat": "37.4488335",
      "lng": "126.9516939",
      "total_count": 2,
      "available_count": 1,
      "total_percent": 50.0,
      "slow_total": 1,
      "slow_avail": 0,
      "slow_percent": 0.0,
      "fast_total": 1,
      "fast_avail": 1,
      "fast_percent": 100.0,
      "latest_update": "20260714095210"
    },
    {
      "station_id": "KL200287",
      "name": "관악초공영주차장",
      "address": "서울특별시 관악구 청룡4길 49",
      "lat": "37.4810297",
      "lng": "126.9425705",
      "total_count": 2,
      "available_count": 2,
      "total_percent": 100.0,
      "slow_total": 0,
      "slow_avail": 0,
      "slow_percent": 0.0,
      "fast_total": 2,
      "fast_avail": 2,
      "fast_percent": 100.0,
      "latest_update": "20260714065456"
    },
    {
      "station_id": "KL200288",
      "name": "당곡중공영주차장",
      "address": "서울특별시 관악구 봉천로13길 101",
      "lat": "37.4923586",
      "lng": "126.9326787",
      "total_count": 2,
      "available_count": 2,
      "total_percent": 100.0,
      "slow_total": 0,
      "slow_avail": 0,
      "slow_percent": 0.0,
      "fast_total": 2,
      "fast_avail": 2,
      "fast_percent": 100.0,
      "latest_update": "20260713132940"
    },
    {
      "station_id": "KL200289",
      "name": "신림동제1공영주차장",
      "address": "서울특별시 관악구 관천로 98",
      "lat": "37.4873556",
      "lng": "126.9234633",
      "total_count": 2,
      "available_count": 2,
      "total_percent": 100.0,
      "slow_total": 0,
      "slow_avail": 0,
      "slow_percent": 0.0,
      "fast_total": 2,
      "fast_avail": 2,
      "fast_percent": 100.0,
      "latest_update": "20260714110837"
    },
    {
      "station_id": "KP000933",
      "name": "서울대입구아이원",
      "address": "서울특별시 관악구 봉천동 청룡길 78",
      "lat": "37.4783116175",
      "lng": "126.945375416",
      "total_count": 2,
      "available_count": 2,
      "total_percent": 100.0,
      "slow_total": 1,
      "slow_avail": 1,
      "slow_percent": 100.0,
      "fast_total": 1,
      "fast_avail": 1,
      "fast_percent": 100.0,
      "latest_update": "20260714005014"
    },
    {
      "station_id": "KP000936",
      "name": "은천2단지 아파트",
      "address": "서울특별시 관악구 봉천동 인헌12길 46-1",
      "lat": "37.4706639492",
      "lng": "126.9645625253",
      "total_count": 2,
      "available_count": 2,
      "total_percent": 100.0,
      "slow_total": 1,
      "slow_avail": 1,
      "slow_percent": 100.0,
      "fast_total": 1,
      "fast_avail": 1,
      "fast_percent": 100.0,
      "latest_update": "20260714070020"
    },
    {
      "station_id": "KP001270",
      "name": "관악동부센트레빌 아파트",
      "address": "서울특별시 관악구 봉천동 은천로33길 5",
      "lat": "37.4872985885",
      "lng": "126.9501540148",
      "total_count": 2,
      "available_count": 2,
      "total_percent": 100.0,
      "slow_total": 1,
      "slow_avail": 1,
      "slow_percent": 100.0,
      "fast_total": 1,
      "fast_avail": 1,
      "fast_percent": 100.0,
      "latest_update": "20260713042015"
    },
    {
      "station_id": "KP002851",
      "name": "신내7단지진로아파트",
      "address": "서울특별시 관악구 신림동 251-270",
      "lat": "37.4646192020",
      "lng": "126.940282920",
      "total_count": 2,
      "available_count": 2,
      "total_percent": 100.0,
      "slow_total": 1,
      "slow_avail": 1,
      "slow_percent": 100.0,
      "fast_total": 1,
      "fast_avail": 1,
      "fast_percent": 100.0,
      "latest_update": "20260713230017"
    },
    {
      "station_id": "KRC10172",
      "name": "낙성대골프연습장",
      "address": "서울특별시 관악구 낙성대로 42",
      "lat": "37.474089",
      "lng": "126.958024",
      "total_count": 2,
      "available_count": 2,
      "total_percent": 100.0,
      "slow_total": 2,
      "slow_avail": 2,
      "slow_percent": 100.0,
      "fast_total": 0,
      "fast_avail": 0,
      "fast_percent": 0.0,
      "latest_update": "20260711121324"
    },
    {
      "station_id": "ME174013",
      "name": "낙성대동주민센터",
      "address": "서울특별시 관악구 낙성대로4가길 5",
      "lat": "37.476296",
      "lng": "126.9583876",
      "total_count": 1,
      "available_count": 1,
      "total_percent": 100.0,
      "slow_total": 0,
      "slow_avail": 0,
      "slow_percent": 0.0,
      "fast_total": 1,
      "fast_avail": 1,
      "fast_percent": 100.0,
      "latest_update": "20260714114301"
    },
    {
      "station_id": "ME183006",
      "name": "난향동 주민센터",
      "address": "서울특별시 관악구 난곡로 67",
      "lat": "37.4616153",
      "lng": "126.9189711",
      "total_count": 1,
      "available_count": 1,
      "total_percent": 100.0,
      "slow_total": 0,
      "slow_avail": 0,
      "slow_percent": 0.0,
      "fast_total": 1,
      "fast_avail": 1,
      "fast_percent": 100.0,
      "latest_update": "20260714114406"
    },
    {
      "station_id": "BNBN0740",
      "name": "서울 관악구 행운동 제1공영주차장",
      "address": "서울특별시 관악구 행운4길 21",
      "lat": "37.479733",
      "lng": "126.960573",
      "total_count": 1,
      "available_count": 1,
      "total_percent": 100.0,
      "slow_total": 0,
      "slow_avail": 0,
      "slow_percent": 0.0,
      "fast_total": 1,
      "fast_avail": 1,
      "fast_percent": 100.0,
      "latest_update": "20260714112418"
    },
    {
      "station_id": "BNBN0823",
      "name": "관악구 신림동 제1공영주차장",
      "address": "서울특별시 관악구 관천로 98",
      "lat": "37.4797109",
      "lng": "126.9138393",
      "total_count": 1,
      "available_count": 1,
      "total_percent": 100.0,
      "slow_total": 1,
      "slow_avail": 1,
      "slow_percent": 100.0,
      "fast_total": 0,
      "fast_avail": 0,
      "fast_percent": 0.0,
      "latest_update": "20260714025112"
    },
    {
      "station_id": "BNBN0826",
      "name": "관악구 남부초등학교 공영주차장",
      "address": "서울특별시 관악구 남부순환로163길 14",
      "lat": "37.4848216",
      "lng": "126.9221162",
      "total_count": 1,
      "available_count": 0,
      "total_percent": 0.0,
      "slow_total": 1,
      "slow_avail": 0,
      "slow_percent": 0.0,
      "fast_total": 0,
      "fast_avail": 0,
      "fast_percent": 0.0,
      "latest_update": "20260714025112"
    },
    {
      "station_id": "BNBN0828",
      "name": "관악구 보라매 제1공영주차장",
      "address": "서울특별시 관악구 봉천로21길 38",
      "lat": "37.4885158",
      "lng": "126.9345037",
      "total_count": 1,
      "available_count": 1,
      "total_percent": 100.0,
      "slow_total": 1,
      "slow_avail": 1,
      "slow_percent": 100.0,
      "fast_total": 0,
      "fast_avail": 0,
      "fast_percent": 0.0,
      "latest_update": "20260714025112"
    },
    {
      "station_id": "BNBN0892",
      "name": "관악구 관악초등학교",
      "address": "서울특별시 관악구 청룡4길 49",
      "lat": "37.4806002",
      "lng": "126.9433087",
      "total_count": 1,
      "available_count": 1,
      "total_percent": 100.0,
      "slow_total": 1,
      "slow_avail": 1,
      "slow_percent": 100.0,
      "fast_total": 0,
      "fast_avail": 0,
      "fast_percent": 0.0,
      "latest_update": "20260714025112"
    },
    {
      "station_id": "CSSGI035",
      "name": "예광감리교회",
      "address": "서울특별시 관악구 법원단지5가길 9",
      "lat": "37.4750",
      "lng": "126.9201",
      "total_count": 1,
      "available_count": 0,
      "total_percent": 0.0,
      "slow_total": 1,
      "slow_avail": 0,
      "slow_percent": 0.0,
      "fast_total": 0,
      "fast_avail": 0,
      "fast_percent": 0.0,
      "latest_update": "20260707193001"
    },
    {
      "station_id": "CV000825",
      "name": "대학동주민센터",
      "address": "서울특별시 관악구 신림로 111",
      "lat": "37.4848041",
      "lng": "126.9227811",
      "total_count": 1,
      "available_count": 1,
      "total_percent": 100.0,
      "slow_total": 0,
      "slow_avail": 0,
      "slow_percent": 0.0,
      "fast_total": 1,
      "fast_avail": 1,
      "fast_percent": 100.0,
      "latest_update": "20260714092019"
    },
    {
      "station_id": "CV000885",
      "name": "남부초교공영주차장",
      "address": "서울특별시 관악구 남부순환로163길 14",
      "lat": "37.4848041",
      "lng": "126.9227811",
      "total_count": 1,
      "available_count": 1,
      "total_percent": 100.0,
      "slow_total": 0,
      "slow_avail": 0,
      "slow_percent": 0.0,
      "fast_total": 1,
      "fast_avail": 1,
      "fast_percent": 100.0,
      "latest_update": "20260713173019"
    },
    {
      "station_id": "DO000053",
      "name": "신림동 제1공영주차장",
      "address": "서울특별시 관악구 관천로 98",
      "lat": "37.4873199",
      "lng": "126.9234636",
      "total_count": 1,
      "available_count": 1,
      "total_percent": 100.0,
      "slow_total": 0,
      "slow_avail": 0,
      "slow_percent": 0.0,
      "fast_total": 1,
      "fast_avail": 1,
      "fast_percent": 100.0,
      "latest_update": "20260714103202"
    },
    {
      "station_id": "DO000054",
      "name": "난곡동 제1공영주차장",
      "address": "서울특별시 관악구 난곡로34나길 14",
      "lat": "37.472184",
      "lng": "126.923157",
      "total_count": 1,
      "available_count": 1,
      "total_percent": 100.0,
      "slow_total": 0,
      "slow_avail": 0,
      "slow_percent": 0.0,
      "fast_total": 1,
      "fast_avail": 1,
      "fast_percent": 100.0,
      "latest_update": "20260714084206"
    },
    {
      "station_id": "DO000056",
      "name": "원신 공영주차장",
      "address": "서울특별시 관악구 양지길 63",
      "lat": "37.470101",
      "lng": "126.9292166",
      "total_count": 1,
      "available_count": 1,
      "total_percent": 100.0,
      "slow_total": 0,
      "slow_avail": 0,
      "slow_percent": 0.0,
      "fast_total": 1,
      "fast_avail": 1,
      "fast_percent": 100.0,
      "latest_update": "20260714064525"
    },
    {
      "station_id": "EC004958",
      "name": "서울관악우체국",
      "address": "서울특별시 관악구 남부순환로 1643",
      "lat": "37.4850143",
      "lng": "126.9331367",
      "total_count": 1,
      "available_count": 0,
      "total_percent": 0.0,
      "slow_total": 1,
      "slow_avail": 0,
      "slow_percent": 0.0,
      "fast_total": 0,
      "fast_avail": 0,
      "fast_percent": 0.0,
      "latest_update": "20260714072602"
    },
    {
      "station_id": "ER110061",
      "name": "홍화브라운아파트",
      "address": "서울특별시 관악구 남현길 144",
      "lat": "37.4711399",
      "lng": "126.973033",
      "total_count": 1,
      "available_count": 1,
      "total_percent": 100.0,
      "slow_total": 1,
      "slow_avail": 1,
      "slow_percent": 100.0,
      "fast_total": 0,
      "fast_avail": 0,
      "fast_percent": 0.0,
      "latest_update": "20260713074842"
    },
    {
      "station_id": "EV007984",
      "name": "서울관악 현대아파트1",
      "address": "서울특별시 관악구 관악로40길 47",
      "lat": "37.492410510",
      "lng": "126.96109545",
      "total_count": 1,
      "available_count": 1,
      "total_percent": 100.0,
      "slow_total": 1,
      "slow_avail": 1,
      "slow_percent": 100.0,
      "fast_total": 0,
      "fast_avail": 0,
      "fast_percent": 0.0,
      "latest_update": "20260711075732"
    },
    {
      "station_id": "EV007986",
      "name": "서울관악 현대아파트3",
      "address": "서울특별시 관악구 관악로40길 47",
      "lat": "37.492392207",
      "lng": "126.96024737",
      "total_count": 1,
      "available_count": 0,
      "total_percent": 0.0,
      "slow_total": 1,
      "slow_avail": 0,
      "slow_percent": 0.0,
      "fast_total": 0,
      "fast_avail": 0,
      "fast_percent": 0.0,
      "latest_update": "20260711195310"
    },
    {
      "station_id": "EV007987",
      "name": "서울관악 현대아파트4",
      "address": "서울특별시 관악구 관악로40길 47",
      "lat": "37.492901263",
      "lng": "126.96020752",
      "total_count": 1,
      "available_count": 1,
      "total_percent": 100.0,
      "slow_total": 1,
      "slow_avail": 1,
      "slow_percent": 100.0,
      "fast_total": 0,
      "fast_avail": 0,
      "fast_percent": 0.0,
      "latest_update": "20260710061201"
    },
    {
      "station_id": "EV007988",
      "name": "서울관악 현대아파트5",
      "address": "서울특별시 관악구 관악로40길 47",
      "lat": "37.492946141",
      "lng": "126.95969865",
      "total_count": 1,
      "available_count": 1,
      "total_percent": 100.0,
      "slow_total": 1,
      "slow_avail": 1,
      "slow_percent": 100.0,
      "fast_total": 0,
      "fast_avail": 0,
      "fast_percent": 0.0,
      "latest_update": "20260710155138"
    },
    {
      "station_id": "EV007989",
      "name": "서울관악 현대아파트6",
      "address": "서울특별시 관악구 관악로40길 47",
      "lat": "37.491224396",
      "lng": "126.95735889",
      "total_count": 1,
      "available_count": 1,
      "total_percent": 100.0,
      "slow_total": 1,
      "slow_avail": 1,
      "slow_percent": 100.0,
      "fast_total": 0,
      "fast_avail": 0,
      "fast_percent": 0.0,
      "latest_update": "20260706081917"
    },
    {
      "station_id": "EV011544",
      "name": "서울관악 해창아트빌",
      "address": "서울특별시 관악구 국회단지18길 30 (봉천동)",
      "lat": "37.4893592",
      "lng": "126.9437710",
      "total_count": 1,
      "available_count": 1,
      "total_percent": 100.0,
      "slow_total": 1,
      "slow_avail": 1,
      "slow_percent": 100.0,
      "fast_total": 0,
      "fast_avail": 0,
      "fast_percent": 0.0,
      "latest_update": "20260714042204"
    },
    {
      "station_id": "EV012460",
      "name": "서울관악 관악푸르지오아파트 1",
      "address": "서울특별시 관악구 관악로30길 27 (봉천동, 관악푸르지오)",
      "lat": "37.4889663",
      "lng": "126.9606433",
      "total_count": 1,
      "available_count": 0,
      "total_percent": 0.0,
      "slow_total": 1,
      "slow_avail": 0,
      "slow_percent": 0.0,
      "fast_total": 0,
      "fast_avail": 0,
      "fast_percent": 0.0,
      "latest_update": "20260714090812"
    },
    {
      "station_id": "EV012464",
      "name": "서울관악 관악푸르지오아파트 5",
      "address": "서울특별시 관악구 관악로30길 27 (봉천동, 관악푸르지오)",
      "lat": "37.4889663",
      "lng": "126.9606433",
      "total_count": 1,
      "available_count": 1,
      "total_percent": 100.0,
      "slow_total": 1,
      "slow_avail": 1,
      "slow_percent": 100.0,
      "fast_total": 0,
      "fast_avail": 0,
      "fast_percent": 0.0,
      "latest_update": "20260714091252"
    },
    {
      "station_id": "EV014264",
      "name": "서울관악 한가람타운",
      "address": "서울특별시 관악구 은천로35마길 14",
      "lat": "37.4886011",
      "lng": "126.9531496",
      "total_count": 1,
      "available_count": 1,
      "total_percent": 100.0,
      "slow_total": 1,
      "slow_avail": 1,
      "slow_percent": 100.0,
      "fast_total": 0,
      "fast_avail": 0,
      "fast_percent": 0.0,
      "latest_update": "20260713175129"
    },
    {
      "station_id": "EZ100032",
      "name": "대창센세티2차 아파트",
      "address": "서울특별시 관악구 남부순환로260길 119",
      "lat": "37.4718182",
      "lng": "126.9720067",
      "total_count": 1,
      "available_count": 0,
      "total_percent": 0.0,
      "slow_total": 1,
      "slow_avail": 0,
      "slow_percent": 0.0,
      "fast_total": 0,
      "fast_avail": 0,
      "fast_percent": 0.0,
      "latest_update": "20260601113310"
    },
    {
      "station_id": "GS000060",
      "name": "락성주유소",
      "address": "서울특별시 관악구 남부순환로 1920",
      "lat": "37.477244155",
      "lng": "126.96229193",
      "total_count": 1,
      "available_count": 1,
      "total_percent": 100.0,
      "slow_total": 0,
      "slow_avail": 0,
      "slow_percent": 0.0,
      "fast_total": 1,
      "fast_avail": 1,
      "fast_percent": 100.0,
      "latest_update": "20260714105453"
    },
    {
      "station_id": "JA110050",
      "name": "서울 관악구 삼남빌딩",
      "address": "서울특별시 관악구 남부순환로 1485",
      "lat": "37.482649369",
      "lng": "126.91594014",
      "total_count": 1,
      "available_count": 0,
      "total_percent": 0.0,
      "slow_total": 1,
      "slow_avail": 0,
      "slow_percent": 0.0,
      "fast_total": 0,
      "fast_avail": 0,
      "fast_percent": 0.0,
      "latest_update": "20260714082806"
    },
    {
      "station_id": "JA110054",
      "name": "프라임빌(관악)",
      "address": "서울특별시 관악구 관천로26길 94",
      "lat": "37.4891345",
      "lng": "126.9261717",
      "total_count": 1,
      "available_count": 1,
      "total_percent": 100.0,
      "slow_total": 1,
      "slow_avail": 1,
      "slow_percent": 100.0,
      "fast_total": 0,
      "fast_avail": 0,
      "fast_percent": 0.0,
      "latest_update": "20260714085605"
    },
    {
      "station_id": "JA110129",
      "name": "서울관광고등학교",
      "address": "서울특별시 관악구 은천로15길 25",
      "lat": "37.4884932",
      "lng": "126.9438709",
      "total_count": 1,
      "available_count": 1,
      "total_percent": 100.0,
      "slow_total": 1,
      "slow_avail": 1,
      "slow_percent": 100.0,
      "fast_total": 0,
      "fast_avail": 0,
      "fast_percent": 0.0,
      "latest_update": "20260712131008"
    },
    {
      "station_id": "JA110130",
      "name": "관악프라자",
      "address": "서울특별시 관악구 관악로 212",
      "lat": "37.48336",
      "lng": "126.9551134",
      "total_count": 1,
      "available_count": 0,
      "total_percent": 0.0,
      "slow_total": 1,
      "slow_avail": 0,
      "slow_percent": 0.0,
      "fast_total": 0,
      "fast_avail": 0,
      "fast_percent": 0.0,
      "latest_update": "20260714083509"
    },
    {
      "station_id": "JA110132",
      "name": "관악 PREMIO 916C",
      "address": "서울특별시 관악구 청룡8길 16-10",
      "lat": "37.4802179",
      "lng": "126.9448381",
      "total_count": 1,
      "available_count": 1,
      "total_percent": 100.0,
      "slow_total": 1,
      "slow_avail": 1,
      "slow_percent": 100.0,
      "fast_total": 0,
      "fast_avail": 0,
      "fast_percent": 0.0,
      "latest_update": "20260709140709"
    },
    {
      "station_id": "KE000951",
      "name": "서울대학교85-1동",
      "address": "서울특별시 관악구 관악로 1",
      "lat": "37.4680871",
      "lng": "126.9535129",
      "total_count": 1,
      "available_count": 1,
      "total_percent": 100.0,
      "slow_total": 1,
      "slow_avail": 1,
      "slow_percent": 100.0,
      "fast_total": 0,
      "fast_avail": 0,
      "fast_percent": 0.0,
      "latest_update": "20260713181810"
    },
    {
      "station_id": "KE000954",
      "name": "서울대학교69동",
      "address": "서울특별시 관악구 관악로 1",
      "lat": "37.464007",
      "lng": "126.9522394",
      "total_count": 1,
      "available_count": 0,
      "total_percent": 0.0,
      "slow_total": 1,
      "slow_avail": 0,
      "slow_percent": 0.0,
      "fast_total": 0,
      "fast_avail": 0,
      "fast_percent": 0.0,
      "latest_update": "20260714085210"
    },
    {
      "station_id": "KE000962",
      "name": "서울대학교10-1동",
      "address": "서울특별시 관악구 관악로 1",
      "lat": "37.4596339",
      "lng": "126.9557298",
      "total_count": 1,
      "available_count": 0,
      "total_percent": 0.0,
      "slow_total": 1,
      "slow_avail": 0,
      "slow_percent": 0.0,
      "fast_total": 0,
      "fast_avail": 0,
      "fast_percent": 0.0,
      "latest_update": "20260714105809"
    },
    {
      "station_id": "KE000999",
      "name": "서울대학교43동",
      "address": "서울특별시 관악구 관악로 1",
      "lat": "37.4572358",
      "lng": "126.9516672",
      "total_count": 1,
      "available_count": 0,
      "total_percent": 0.0,
      "slow_total": 1,
      "slow_avail": 0,
      "slow_percent": 0.0,
      "fast_total": 0,
      "fast_avail": 0,
      "fast_percent": 0.0,
      "latest_update": "20260714111209"
    },
    {
      "station_id": "KE001042",
      "name": "서울관악예성그린캐슬3차아파트",
      "address": "서울특별시 관악구 남현길 141",
      "lat": "37.4713102",
      "lng": "126.9737652",
      "total_count": 1,
      "available_count": 1,
      "total_percent": 100.0,
      "slow_total": 1,
      "slow_avail": 1,
      "slow_percent": 100.0,
      "fast_total": 0,
      "fast_avail": 0,
      "fast_percent": 0.0,
      "latest_update": "20260712054909"
    },
    {
      "station_id": "KL200257",
      "name": "서울시보조금_관악푸르지오상가",
      "address": "서울특별시 관악구 청림6길 3",
      "lat": "37.487562161",
      "lng": "126.95993774",
      "total_count": 1,
      "available_count": 1,
      "total_percent": 100.0,
      "slow_total": 1,
      "slow_avail": 1,
      "slow_percent": 100.0,
      "fast_total": 0,
      "fast_avail": 0,
      "fast_percent": 0.0,
      "latest_update": "20260712143153"
    },
    {
      "station_id": "KP001272",
      "name": "대우신림2차푸르지오",
      "address": "서울특별시 관악구 신림동 난곡로 66",
      "lat": "37.4610661511",
      "lng": "126.9198746198",
      "total_count": 1,
      "available_count": 1,
      "total_percent": 100.0,
      "slow_total": 1,
      "slow_avail": 1,
      "slow_percent": 100.0,
      "fast_total": 0,
      "fast_avail": 0,
      "fast_percent": 0.0,
      "latest_update": "20260714092018"
    },
    {
      "station_id": "KP001275",
      "name": "신림동부센트레빌",
      "address": "서울특별시 관악구 신림동 미성3길 16",
      "lat": "37.4729532457",
      "lng": "126.9160634915",
      "total_count": 1,
      "available_count": 0,
      "total_percent": 0.0,
      "slow_total": 1,
      "slow_avail": 0,
      "slow_percent": 0.0,
      "fast_total": 0,
      "fast_avail": 0,
      "fast_percent": 0.0,
      "latest_update": "20260522162310"
    },
    {
      "station_id": "KP001276",
      "name": "신림쌍용 아파트",
      "address": "서울특별시 관악구 신림동 미성길 122",
      "lat": "37.472827882",
      "lng": "126.9121747586",
      "total_count": 1,
      "available_count": 1,
      "total_percent": 100.0,
      "slow_total": 0,
      "slow_avail": 0,
      "slow_percent": 0.0,
      "fast_total": 1,
      "fast_avail": 1,
      "fast_percent": 100.0,
      "latest_update": "20260711212019"
    },
    {
      "station_id": "KP002617",
      "name": "관악동작 견인차량 보관소",
      "address": "서울특별시 관악구 신사로 7",
      "lat": "37.4846968754",
      "lng": "126.904065304",
      "total_count": 1,
      "available_count": 0,
      "total_percent": 0.0,
      "slow_total": 0,
      "slow_avail": 0,
      "slow_percent": 0.0,
      "fast_total": 1,
      "fast_avail": 0,
      "fast_percent": 0.0,
      "latest_update": "20260713214024"
    },
    {
      "station_id": "KP004054",
      "name": "관악구 평생학습관",
      "address": "서울특별시 관악구 남부순환로 1646",
      "lat": "37.484478416765",
      "lng": "126.9336329584",
      "total_count": 1,
      "available_count": 1,
      "total_percent": 100.0,
      "slow_total": 0,
      "slow_avail": 0,
      "slow_percent": 0.0,
      "fast_total": 1,
      "fast_avail": 1,
      "fast_percent": 100.0,
      "latest_update": "20260519112142"
    },
    {
      "station_id": "KP004524",
      "name": "관악구 종합체육센타",
      "address": "서울특별시 관악구 낙성대로3길 37",
      "lat": "37.482950598",
      "lng": "126.92242741",
      "total_count": 1,
      "available_count": 0,
      "total_percent": 0.0,
      "slow_total": 0,
      "slow_avail": 0,
      "slow_percent": 0.0,
      "fast_total": 1,
      "fast_avail": 0,
      "fast_percent": 0.0,
      "latest_update": "20260519112017"
    },
    {
      "station_id": "L3000184",
      "name": "신림신도브래뉴",
      "address": "서울특별시 관악구 조원로16길 7(신림동, 신림동신도브래뉴아파트)",
      "lat": "37.4838366",
      "lng": "126.9109684",
      "total_count": 1,
      "available_count": 0,
      "total_percent": 0.0,
      "slow_total": 1,
      "slow_avail": 0,
      "slow_percent": 0.0,
      "fast_total": 0,
      "fast_avail": 0,
      "fast_percent": 0.0,
      "latest_update": "20260519112015"
    }
  ],
  "collected_at_kst": "2026-07-14T11:28:55.368653+09:00",
  "collected_at_utc": "2026-07-14T02:28:55.368653+00:00"
}