{
  "district": "강남구",
  "zscode": "11680",
  "summary": {
    "total_count": 3500,
    "available_count": 2396,
    "total_percent": 68.5,
    "slow_total": 3252,
    "slow_avail": 2194,
    "slow_percent": 67.5,
    "fast_total": 248,
    "fast_avail": 202,
    "fast_percent": 81.5,
    "station_count": 767
  },
  "stations": [
    {
      "station_id": "PI761352",
      "name": "도곡렉슬아파트",
      "address": "서울특별시 강남구 선릉로 221",
      "lat": "37.4942068",
      "lng": "127.0497348",
      "total_count": 75,
      "available_count": 42,
      "total_percent": 56.0,
      "slow_total": 75,
      "slow_avail": 42,
      "slow_percent": 56.0,
      "fast_total": 0,
      "fast_avail": 0,
      "fast_percent": 0.0,
      "latest_update": "20260713201025"
    },
    {
      "station_id": "PI001456",
      "name": "도곡렉슬아파트",
      "address": "서울특별시 강남구 선릉로 221",
      "lat": "37.4930268",
      "lng": "127.048955",
      "total_count": 70,
      "available_count": 57,
      "total_percent": 81.4,
      "slow_total": 70,
      "slow_avail": 57,
      "slow_percent": 81.4,
      "fast_total": 0,
      "fast_avail": 0,
      "fast_percent": 0.0,
      "latest_update": "20260713201221"
    },
    {
      "station_id": "NT102153",
      "name": "강남 래미안강남힐즈아파트",
      "address": "서울특별시 강남구 자곡로 101",
      "lat": "37.47265",
      "lng": "127.0958",
      "total_count": 63,
      "available_count": 53,
      "total_percent": 84.1,
      "slow_total": 63,
      "slow_avail": 53,
      "slow_percent": 84.1,
      "fast_total": 0,
      "fast_avail": 0,
      "fast_percent": 0.0,
      "latest_update": "20260713200850"
    },
    {
      "station_id": "LU101686",
      "name": "개포래미안포레스트",
      "address": "서울특별시 강남구 개포로 264",
      "lat": "37.4797504",
      "lng": "127.0522282",
      "total_count": 51,
      "available_count": 11,
      "total_percent": 21.6,
      "slow_total": 51,
      "slow_avail": 11,
      "slow_percent": 21.6,
      "fast_total": 0,
      "fast_avail": 0,
      "fast_percent": 0.0,
      "latest_update": "20260713201250"
    },
    {
      "station_id": "PI200894",
      "name": "서울시 강남구 래미안대치팰리스1단지",
      "address": "서울특별시 강남구 삼성로51길 37",
      "lat": "37.4934362",
      "lng": "127.0576977",
      "total_count": 48,
      "available_count": 34,
      "total_percent": 70.8,
      "slow_total": 47,
      "slow_avail": 33,
      "slow_percent": 70.2,
      "fast_total": 1,
      "fast_avail": 1,
      "fast_percent": 100.0,
      "latest_update": "20260713200829"
    },
    {
      "station_id": "PI712449",
      "name": "디에이치자이개포",
      "address": "서울특별시 강남구 영동대로 22",
      "lat": "37.490890649",
      "lng": "127.07504846",
      "total_count": 46,
      "available_count": 36,
      "total_percent": 78.3,
      "slow_total": 46,
      "slow_avail": 36,
      "slow_percent": 78.3,
      "fast_total": 0,
      "fast_avail": 0,
      "fast_percent": 0.0,
      "latest_update": "20260713194535"
    },
    {
      "station_id": "LU003842",
      "name": "래미안블레스티지",
      "address": "서울특별시 강남구 선릉로 8",
      "lat": "37.480058",
      "lng": "127.064153",
      "total_count": 42,
      "available_count": 30,
      "total_percent": 71.4,
      "slow_total": 42,
      "slow_avail": 30,
      "slow_percent": 71.4,
      "fast_total": 0,
      "fast_avail": 0,
      "fast_percent": 0.0,
      "latest_update": "20260713201206"
    },
    {
      "station_id": "HY000893",
      "name": "강남 타이거318 스케일타워",
      "address": "서울특별시 강남구 강남대로 350",
      "lat": "37.5061648",
      "lng": "127.0257813",
      "total_count": 39,
      "available_count": 24,
      "total_percent": 61.5,
      "slow_total": 37,
      "slow_avail": 22,
      "slow_percent": 59.5,
      "fast_total": 2,
      "fast_avail": 2,
      "fast_percent": 100.0,
      "latest_update": "20260713185604"
    },
    {
      "station_id": "PC000672",
      "name": "대림아크로빌(강남)",
      "address": "서울특별시 강남구 언주로30길 13",
      "lat": "37.4881276",
      "lng": "127.0506866",
      "total_count": 39,
      "available_count": 33,
      "total_percent": 84.6,
      "slow_total": 39,
      "slow_avail": 33,
      "slow_percent": 84.6,
      "fast_total": 0,
      "fast_avail": 0,
      "fast_percent": 0.0,
      "latest_update": "20260713193443"
    },
    {
      "station_id": "CPCP1072",
      "name": "수서역 환승주차장",
      "address": "서울특별시 강남구 밤고개로15길 31",
      "lat": "37.4853",
      "lng": "127.1065",
      "total_count": 36,
      "available_count": 34,
      "total_percent": 94.4,
      "slow_total": 36,
      "slow_avail": 34,
      "slow_percent": 94.4,
      "fast_total": 0,
      "fast_avail": 0,
      "fast_percent": 0.0,
      "latest_update": "20260713195043"
    },
    {
      "station_id": "PI716788",
      "name": "강남한양수자인",
      "address": "서울특별시 강남구 자곡로 260",
      "lat": "37.4765634",
      "lng": "127.1117521",
      "total_count": 28,
      "available_count": 17,
      "total_percent": 60.7,
      "slow_total": 28,
      "slow_avail": 17,
      "slow_percent": 60.7,
      "fast_total": 0,
      "fast_avail": 0,
      "fast_percent": 0.0,
      "latest_update": "20260713200057"
    },
    {
      "station_id": "NT102799",
      "name": "강남 삼성동힐스테이트1단지",
      "address": "서울특별시 강남구 학동로68길 29",
      "lat": "37.51656",
      "lng": "127.04718",
      "total_count": 26,
      "available_count": 15,
      "total_percent": 57.7,
      "slow_total": 26,
      "slow_avail": 15,
      "slow_percent": 57.7,
      "fast_total": 0,
      "fast_avail": 0,
      "fast_percent": 0.0,
      "latest_update": "20260713201150"
    },
    {
      "station_id": "PI200330",
      "name": "서울시 강남구 포스코센터",
      "address": "서울특별시 강남구 테헤란로 440",
      "lat": "37.5058133",
      "lng": "127.0561329",
      "total_count": 23,
      "available_count": 21,
      "total_percent": 91.3,
      "slow_total": 23,
      "slow_avail": 21,
      "slow_percent": 91.3,
      "fast_total": 0,
      "fast_avail": 0,
      "fast_percent": 0.0,
      "latest_update": "20260713185611"
    },
    {
      "station_id": "NT102482",
      "name": "강남 자곡힐스테이트",
      "address": "서울특별시 강남구 자곡로3길 21",
      "lat": "37.47185",
      "lng": "127.08823",
      "total_count": 22,
      "available_count": 19,
      "total_percent": 86.4,
      "slow_total": 22,
      "slow_avail": 19,
      "slow_percent": 86.4,
      "fast_total": 0,
      "fast_avail": 0,
      "fast_percent": 0.0,
      "latest_update": "20260713191150"
    },
    {
      "station_id": "PI200806",
      "name": "서울시 강남구 센터필드",
      "address": "서울특별시 강남구 테헤란로 231",
      "lat": "37.503579763",
      "lng": "127.04175468",
      "total_count": 22,
      "available_count": 21,
      "total_percent": 95.5,
      "slow_total": 18,
      "slow_avail": 18,
      "slow_percent": 100.0,
      "fast_total": 4,
      "fast_avail": 3,
      "fast_percent": 75.0,
      "latest_update": "20260713195453"
    },
    {
      "station_id": "PI711248",
      "name": "타워팰리스2차아파트",
      "address": "서울특별시 강남구 언주로30길 57",
      "lat": "37.4894573",
      "lng": "127.0539647",
      "total_count": 22,
      "available_count": 18,
      "total_percent": 81.8,
      "slow_total": 22,
      "slow_avail": 18,
      "slow_percent": 81.8,
      "fast_total": 0,
      "fast_avail": 0,
      "fast_percent": 0.0,
      "latest_update": "20260713183021"
    },
    {
      "station_id": "CV003815",
      "name": "삼성서울병원(P2주차장)",
      "address": "서울특별시 강남구 일원로 81",
      "lat": "37.488528",
      "lng": "127.086668",
      "total_count": 21,
      "available_count": 16,
      "total_percent": 76.2,
      "slow_total": 20,
      "slow_avail": 15,
      "slow_percent": 75.0,
      "fast_total": 1,
      "fast_avail": 1,
      "fast_percent": 100.0,
      "latest_update": "20260713200547"
    },
    {
      "station_id": "LU003518",
      "name": "강남자곡힐스테이트",
      "address": "서울특별시 강남구 자곡로3길 21",
      "lat": "37.471853",
      "lng": "127.088231",
      "total_count": 21,
      "available_count": 14,
      "total_percent": 66.7,
      "slow_total": 21,
      "slow_avail": 14,
      "slow_percent": 66.7,
      "fast_total": 0,
      "fast_avail": 0,
      "fast_percent": 0.0,
      "latest_update": "20260713195616"
    },
    {
      "station_id": "PI711602",
      "name": "강남자곡힐스테이트",
      "address": "서울특별시 강남구 자곡로3길 21",
      "lat": "37.471769609",
      "lng": "127.08811600",
      "total_count": 21,
      "available_count": 15,
      "total_percent": 71.4,
      "slow_total": 21,
      "slow_avail": 15,
      "slow_percent": 71.4,
      "fast_total": 0,
      "fast_avail": 0,
      "fast_percent": 0.0,
      "latest_update": "20260713192523"
    },
    {
      "station_id": "CV003814",
      "name": "삼성서울병원(P1주차장)",
      "address": "서울특별시 강남구 일원로 81",
      "lat": "37.4871555",
      "lng": "127.0848424",
      "total_count": 20,
      "available_count": 13,
      "total_percent": 65.0,
      "slow_total": 19,
      "slow_avail": 12,
      "slow_percent": 63.2,
      "fast_total": 1,
      "fast_avail": 1,
      "fast_percent": 100.0,
      "latest_update": "20260713201050"
    },
    {
      "station_id": "EZ210043",
      "name": "한국지식재산센터/한국발명진흥회",
      "address": "서울특별시 강남구 테헤란로 131",
      "lat": "37.5000287",
      "lng": "127.0329141",
      "total_count": 20,
      "available_count": 0,
      "total_percent": 0.0,
      "slow_total": 20,
      "slow_avail": 0,
      "slow_percent": 0.0,
      "fast_total": 0,
      "fast_avail": 0,
      "fast_percent": 0.0,
      "latest_update": "20260601113310"
    },
    {
      "station_id": "LU002979",
      "name": "강남센트럴아이파크",
      "address": "서울특별시 강남구 테헤란로44길 26",
      "lat": "37.501206",
      "lng": "127.045717",
      "total_count": 20,
      "available_count": 16,
      "total_percent": 80.0,
      "slow_total": 20,
      "slow_avail": 16,
      "slow_percent": 80.0,
      "fast_total": 0,
      "fast_avail": 0,
      "fast_percent": 0.0,
      "latest_update": "20260713185508"
    },
    {
      "station_id": "NT101802",
      "name": "강남 도곡타워팰리스2차",
      "address": "서울특별시 강남구 언주로30길 57",
      "lat": "37.48945",
      "lng": "127.05396",
      "total_count": 20,
      "available_count": 18,
      "total_percent": 90.0,
      "slow_total": 20,
      "slow_avail": 18,
      "slow_percent": 90.0,
      "fast_total": 0,
      "fast_avail": 0,
      "fast_percent": 0.0,
      "latest_update": "20260713194250"
    },
    {
      "station_id": "NT102301",
      "name": "강남 데시앙파크아파트",
      "address": "서울특별시 강남구 헌릉로590길 63",
      "lat": "37.46104",
      "lng": "127.10154",
      "total_count": 20,
      "available_count": 18,
      "total_percent": 90.0,
      "slow_total": 20,
      "slow_avail": 18,
      "slow_percent": 90.0,
      "fast_total": 0,
      "fast_avail": 0,
      "fast_percent": 0.0,
      "latest_update": "20260713140350"
    },
    {
      "station_id": "CGA00155",
      "name": "강남더샵포레스트아파트",
      "address": "서울특별시 강남구 광평로34길 35",
      "lat": "37.4821109",
      "lng": "127.0949060",
      "total_count": 18,
      "available_count": 11,
      "total_percent": 61.1,
      "slow_total": 18,
      "slow_avail": 11,
      "slow_percent": 61.1,
      "fast_total": 0,
      "fast_avail": 0,
      "fast_percent": 0.0,
      "latest_update": "20260713200018"
    },
    {
      "station_id": "EV018848",
      "name": "서울강남 삼성코엑스옥상 B존",
      "address": "서울 강남구 영동대로 513",
      "lat": "37.5118239",
      "lng": "127.0591590",
      "total_count": 18,
      "available_count": 16,
      "total_percent": 88.9,
      "slow_total": 18,
      "slow_avail": 16,
      "slow_percent": 88.9,
      "fast_total": 0,
      "fast_avail": 0,
      "fast_percent": 0.0,
      "latest_update": "20260713190216"
    },
    {
      "station_id": "HM110198",
      "name": "강남파이낸스센터(GFC) 지하4층",
      "address": "서울특별시 강남구 테헤란로 152",
      "lat": "37.5000242",
      "lng": "127.0365086",
      "total_count": 18,
      "available_count": 12,
      "total_percent": 66.7,
      "slow_total": 16,
      "slow_avail": 10,
      "slow_percent": 62.5,
      "fast_total": 2,
      "fast_avail": 2,
      "fast_percent": 100.0,
      "latest_update": "20260713195221"
    },
    {
      "station_id": "HM000689",
      "name": "래미안 개포 루체하임아파트",
      "address": "서울특별시 강남구 개포로110길 50",
      "lat": "37.4906944",
      "lng": "127.0800861",
      "total_count": 17,
      "available_count": 7,
      "total_percent": 41.2,
      "slow_total": 17,
      "slow_avail": 7,
      "slow_percent": 41.2,
      "fast_total": 0,
      "fast_avail": 0,
      "fast_percent": 0.0,
      "latest_update": "20260713194211"
    },
    {
      "station_id": "CV003816",
      "name": "삼성서울병원(P5주차장)",
      "address": "서울특별시 강남구 일원로 81",
      "lat": "37.488528",
      "lng": "127.086668",
      "total_count": 16,
      "available_count": 13,
      "total_percent": 81.2,
      "slow_total": 15,
      "slow_avail": 12,
      "slow_percent": 80.0,
      "fast_total": 1,
      "fast_avail": 1,
      "fast_percent": 100.0,
      "latest_update": "20260713200547"
    },
    {
      "station_id": "ER000399",
      "name": "진흥아파트",
      "address": "서울 강남구 학동로87길 9",
      "lat": "37.5203861",
      "lng": "127.0516919",
      "total_count": 16,
      "available_count": 13,
      "total_percent": 81.2,
      "slow_total": 16,
      "slow_avail": 13,
      "slow_percent": 81.2,
      "fast_total": 0,
      "fast_avail": 0,
      "fast_percent": 0.0,
      "latest_update": "20260713195821"
    },
    {
      "station_id": "PC001153",
      "name": "역삼래미안아파트(강남)",
      "address": "서울특별시 강남구 선릉로69길 19",
      "lat": "37.4974835",
      "lng": "127.0500744",
      "total_count": 16,
      "available_count": 12,
      "total_percent": 75.0,
      "slow_total": 14,
      "slow_avail": 10,
      "slow_percent": 71.4,
      "fast_total": 2,
      "fast_avail": 2,
      "fast_percent": 100.0,
      "latest_update": "20260713195546"
    },
    {
      "station_id": "PI200861",
      "name": "서울시 강남구 래미안블레스티지아파트",
      "address": "서울특별시 강남구 선릉로 8",
      "lat": "37.4800576",
      "lng": "127.0641534",
      "total_count": 16,
      "available_count": 9,
      "total_percent": 56.2,
      "slow_total": 16,
      "slow_avail": 9,
      "slow_percent": 56.2,
      "fast_total": 0,
      "fast_avail": 0,
      "fast_percent": 0.0,
      "latest_update": "20260713200130"
    },
    {
      "station_id": "EC000219",
      "name": "강남엘에이치1단지 B2",
      "address": "서울특별시 강남구 헌릉로571길 20",
      "lat": "37.4669924",
      "lng": "127.1019364",
      "total_count": 15,
      "available_count": 0,
      "total_percent": 0.0,
      "slow_total": 15,
      "slow_avail": 0,
      "slow_percent": 0.0,
      "fast_total": 0,
      "fast_avail": 0,
      "fast_percent": 0.0,
      "latest_update": "20260702173401"
    },
    {
      "station_id": "NT102182",
      "name": "강남 삼성아이파크아파트",
      "address": "서울특별시 강남구 영동대로 640",
      "lat": "37.51839",
      "lng": "127.05954",
      "total_count": 15,
      "available_count": 9,
      "total_percent": 60.0,
      "slow_total": 15,
      "slow_avail": 9,
      "slow_percent": 60.0,
      "fast_total": 0,
      "fast_avail": 0,
      "fast_percent": 0.0,
      "latest_update": "20260713195650"
    },
    {
      "station_id": "NT102514",
      "name": "강남 서울강남3단지에버시움아파트",
      "address": "서울특별시 강남구 자곡로3길 22",
      "lat": "37.46997",
      "lng": "127.09102",
      "total_count": 15,
      "available_count": 12,
      "total_percent": 80.0,
      "slow_total": 15,
      "slow_avail": 12,
      "slow_percent": 80.0,
      "fast_total": 0,
      "fast_avail": 0,
      "fast_percent": 0.0,
      "latest_update": "20260713193050"
    },
    {
      "station_id": "PC001761",
      "name": "개나리래미안아파트(강남)",
      "address": "서울특별시 강남구 역삼로 306",
      "lat": "37.4988903",
      "lng": "127.0469315",
      "total_count": 15,
      "available_count": 10,
      "total_percent": 66.7,
      "slow_total": 15,
      "slow_avail": 10,
      "slow_percent": 66.7,
      "fast_total": 0,
      "fast_avail": 0,
      "fast_percent": 0.0,
      "latest_update": "20260713200824"
    },
    {
      "station_id": "LU101661",
      "name": "강남데시앙포레",
      "address": "서울특별시 강남구 광평로34길 55",
      "lat": "37.4808561",
      "lng": "127.0921723",
      "total_count": 14,
      "available_count": 7,
      "total_percent": 50.0,
      "slow_total": 14,
      "slow_avail": 7,
      "slow_percent": 50.0,
      "fast_total": 0,
      "fast_avail": 0,
      "fast_percent": 0.0,
      "latest_update": "20260713200235"
    },
    {
      "station_id": "NT102578",
      "name": "강남 푸른마을아파트",
      "address": "서울특별시 강남구 일원로14길 25",
      "lat": "37.48476",
      "lng": "127.08087",
      "total_count": 14,
      "available_count": 5,
      "total_percent": 35.7,
      "slow_total": 14,
      "slow_avail": 5,
      "slow_percent": 35.7,
      "fast_total": 0,
      "fast_avail": 0,
      "fast_percent": 0.0,
      "latest_update": "20260713195450"
    },
    {
      "station_id": "PI306170",
      "name": "우성캐릭터199",
      "address": "서울특별시 강남구 언주로 118",
      "lat": "37.486519",
      "lng": "127.051886",
      "total_count": 14,
      "available_count": 8,
      "total_percent": 57.1,
      "slow_total": 14,
      "slow_avail": 8,
      "slow_percent": 57.1,
      "fast_total": 0,
      "fast_avail": 0,
      "fast_percent": 0.0,
      "latest_update": "20260713191646"
    },
    {
      "station_id": "PI723121",
      "name": "포스코더샵",
      "address": "서울특별시 강남구 삼성로 417",
      "lat": "37.5039604",
      "lng": "127.0570408",
      "total_count": 14,
      "available_count": 6,
      "total_percent": 42.9,
      "slow_total": 14,
      "slow_avail": 6,
      "slow_percent": 42.9,
      "fast_total": 0,
      "fast_avail": 0,
      "fast_percent": 0.0,
      "latest_update": "20260713193751"
    },
    {
      "station_id": "LU003300",
      "name": "강남데시앙파크아파트",
      "address": "서울특별시 강남구 헌릉로590길 63",
      "lat": "37.461047",
      "lng": "127.101541",
      "total_count": 13,
      "available_count": 12,
      "total_percent": 92.3,
      "slow_total": 13,
      "slow_avail": 12,
      "slow_percent": 92.3,
      "fast_total": 0,
      "fast_avail": 0,
      "fast_percent": 0.0,
      "latest_update": "20260713173943"
    },
    {
      "station_id": "PI019158",
      "name": "삼성동센트럴아이파크",
      "address": "서울특별시 강남구 삼성로 629",
      "lat": "37.515557324",
      "lng": "127.05081039",
      "total_count": 13,
      "available_count": 12,
      "total_percent": 92.3,
      "slow_total": 13,
      "slow_avail": 12,
      "slow_percent": 92.3,
      "fast_total": 0,
      "fast_avail": 0,
      "fast_percent": 0.0,
      "latest_update": "20260713184557"
    },
    {
      "station_id": "PI715645",
      "name": "그랜드 인터컨티넨탈 서울 파르나스",
      "address": "서울특별시 강남구 테헤란로 521",
      "lat": "37.509182478",
      "lng": "127.06085249",
      "total_count": 13,
      "available_count": 7,
      "total_percent": 53.8,
      "slow_total": 13,
      "slow_avail": 7,
      "slow_percent": 53.8,
      "fast_total": 0,
      "fast_avail": 0,
      "fast_percent": 0.0,
      "latest_update": "20260713193541"
    },
    {
      "station_id": "EV010466",
      "name": "서울강남 디에이치아너힐즈아파트1 (콘센트)",
      "address": "서울특별시 강남구 삼성로 11",
      "lat": "37.482418135",
      "lng": "127.06894588",
      "total_count": 12,
      "available_count": 12,
      "total_percent": 100.0,
      "slow_total": 12,
      "slow_avail": 12,
      "slow_percent": 100.0,
      "fast_total": 0,
      "fast_avail": 0,
      "fast_percent": 0.0,
      "latest_update": "20260713073304"
    },
    {
      "station_id": "EV010469",
      "name": "서울강남 디에이치아너힐즈아파트4 (콘센트)",
      "address": "서울특별시 강남구 삼성로 11",
      "lat": "37.484906215",
      "lng": "127.06668683",
      "total_count": 12,
      "available_count": 10,
      "total_percent": 83.3,
      "slow_total": 12,
      "slow_avail": 10,
      "slow_percent": 83.3,
      "fast_total": 0,
      "fast_avail": 0,
      "fast_percent": 0.0,
      "latest_update": "20260713184159"
    },
    {
      "station_id": "LU002224",
      "name": "타워팰리스G동",
      "address": "서울특별시 강남구 언주로30길 26",
      "lat": "37.487763",
      "lng": "127.05253",
      "total_count": 12,
      "available_count": 7,
      "total_percent": 58.3,
      "slow_total": 12,
      "slow_avail": 7,
      "slow_percent": 58.3,
      "fast_total": 0,
      "fast_avail": 0,
      "fast_percent": 0.0,
      "latest_update": "20260713194623"
    },
    {
      "station_id": "NT102513",
      "name": "강남 서울수서주공1단지",
      "address": "서울특별시 강남구 광평로51길 49",
      "lat": "37.49213",
      "lng": "127.09976",
      "total_count": 12,
      "available_count": 10,
      "total_percent": 83.3,
      "slow_total": 12,
      "slow_avail": 10,
      "slow_percent": 83.3,
      "fast_total": 0,
      "fast_avail": 0,
      "fast_percent": 0.0,
      "latest_update": "20260713200750"
    },
    {
      "station_id": "PI700072",
      "name": "래미안강남힐즈아파트",
      "address": "서울특별시 강남구 자곡로 101",
      "lat": "37.472963",
      "lng": "127.098095",
      "total_count": 12,
      "available_count": 7,
      "total_percent": 58.3,
      "slow_total": 12,
      "slow_avail": 7,
      "slow_percent": 58.3,
      "fast_total": 0,
      "fast_avail": 0,
      "fast_percent": 0.0,
      "latest_update": "20260713181502"
    },
    {
      "station_id": "EV010468",
      "name": "서울강남 디에이치아너힐즈아파트3 (콘센트)",
      "address": "서울특별시 강남구 삼성로 11",
      "lat": "37.484032314",
      "lng": "127.06655037",
      "total_count": 11,
      "available_count": 10,
      "total_percent": 90.9,
      "slow_total": 11,
      "slow_avail": 10,
      "slow_percent": 90.9,
      "fast_total": 0,
      "fast_avail": 0,
      "fast_percent": 0.0,
      "latest_update": "20260713085154"
    },
    {
      "station_id": "HY000019",
      "name": "현대모비스 본사",
      "address": "서울특별시 강남구 테헤란로 203",
      "lat": "37.501667",
      "lng": "127.037778",
      "total_count": 11,
      "available_count": 6,
      "total_percent": 54.5,
      "slow_total": 11,
      "slow_avail": 6,
      "slow_percent": 54.5,
      "fast_total": 0,
      "fast_avail": 0,
      "fast_percent": 0.0,
      "latest_update": "20260713181701"
    },
    {
      "station_id": "OS300004",
      "name": "수서현대벤쳐빌",
      "address": "서울특별시 강남구 밤고개로1길 10",
      "lat": "37.488001",
      "lng": "127.101643",
      "total_count": 11,
      "available_count": 9,
      "total_percent": 81.8,
      "slow_total": 11,
      "slow_avail": 9,
      "slow_percent": 81.8,
      "fast_total": 0,
      "fast_avail": 0,
      "fast_percent": 0.0,
      "latest_update": "20260713195304"
    },
    {
      "station_id": "PI715650",
      "name": "웨스틴 서울 파르나스",
      "address": "서울특별시 강남구 봉은사로 524",
      "lat": "37.5128321",
      "lng": "127.0572509",
      "total_count": 11,
      "available_count": 7,
      "total_percent": 63.6,
      "slow_total": 11,
      "slow_avail": 7,
      "slow_percent": 63.6,
      "fast_total": 0,
      "fast_avail": 0,
      "fast_percent": 0.0,
      "latest_update": "20260713194050"
    },
    {
      "station_id": "EP220166",
      "name": "아이파크삼성동 충전소",
      "address": "서울특별시 강남구 영동대로 640",
      "lat": "37.518398249",
      "lng": "127.05954928",
      "total_count": 10,
      "available_count": 10,
      "total_percent": 100.0,
      "slow_total": 10,
      "slow_avail": 10,
      "slow_percent": 100.0,
      "fast_total": 0,
      "fast_avail": 0,
      "fast_percent": 0.0,
      "latest_update": "20260712180814"
    },
    {
      "station_id": "EV010580",
      "name": "서울강남 래미안대치하이스턴2(콘센트)",
      "address": "서울특별시 강남구 도곡로93길 12",
      "lat": "37.500638487",
      "lng": "127.06545682",
      "total_count": 10,
      "available_count": 8,
      "total_percent": 80.0,
      "slow_total": 10,
      "slow_avail": 8,
      "slow_percent": 80.0,
      "fast_total": 0,
      "fast_avail": 0,
      "fast_percent": 0.0,
      "latest_update": "20260713185409"
    },
    {
      "station_id": "EV017932",
      "name": "서울강남 개포자이프레지던스 22",
      "address": "서울특별시 강남구 삼성로 14",
      "lat": "37.4861548",
      "lng": "127.0684510",
      "total_count": 10,
      "available_count": 7,
      "total_percent": 70.0,
      "slow_total": 10,
      "slow_avail": 7,
      "slow_percent": 70.0,
      "fast_total": 0,
      "fast_avail": 0,
      "fast_percent": 0.0,
      "latest_update": "20260713183156"
    },
    {
      "station_id": "EV018986",
      "name": "서울강남 강남역센트럴푸르지오시티 1",
      "address": "서울 강남구 테헤란로4길 6",
      "lat": "37.4976674",
      "lng": "127.0292864",
      "total_count": 10,
      "available_count": 2,
      "total_percent": 20.0,
      "slow_total": 10,
      "slow_avail": 2,
      "slow_percent": 20.0,
      "fast_total": 0,
      "fast_avail": 0,
      "fast_percent": 0.0,
      "latest_update": "20260713195249"
    },
    {
      "station_id": "HM000078",
      "name": "삼성제일빌딩_강남",
      "address": "서울특별시 강남구 테헤란로 309",
      "lat": "37.5035576",
      "lng": "127.0444318",
      "total_count": 10,
      "available_count": 10,
      "total_percent": 100.0,
      "slow_total": 10,
      "slow_avail": 10,
      "slow_percent": 100.0,
      "fast_total": 0,
      "fast_avail": 0,
      "fast_percent": 0.0,
      "latest_update": "20260713192001"
    },
    {
      "station_id": "HM110249",
      "name": "강남파이낸스센터(GFC) 지하3층",
      "address": "서울특별시 강남구 테헤란로 152",
      "lat": "37.5000242",
      "lng": "127.0365086",
      "total_count": 10,
      "available_count": 9,
      "total_percent": 90.0,
      "slow_total": 6,
      "slow_avail": 5,
      "slow_percent": 83.3,
      "fast_total": 4,
      "fast_avail": 4,
      "fast_percent": 100.0,
      "latest_update": "20260713200823"
    },
    {
      "station_id": "JA110167",
      "name": "롯데백화점 강남점",
      "address": "서울특별시 강남구 도곡로 401",
      "lat": "37.497197898",
      "lng": "127.05407177",
      "total_count": 10,
      "available_count": 9,
      "total_percent": 90.0,
      "slow_total": 9,
      "slow_avail": 8,
      "slow_percent": 88.9,
      "fast_total": 1,
      "fast_avail": 1,
      "fast_percent": 100.0,
      "latest_update": "20260713184213"
    },
    {
      "station_id": "KL002416",
      "name": "한아름아파트1",
      "address": "서울특별시 강남구 광평로51길 22",
      "lat": "37.49022",
      "lng": "127.10396",
      "total_count": 10,
      "available_count": 7,
      "total_percent": 70.0,
      "slow_total": 10,
      "slow_avail": 7,
      "slow_percent": 70.0,
      "fast_total": 0,
      "fast_avail": 0,
      "fast_percent": 0.0,
      "latest_update": "20260713190301"
    },
    {
      "station_id": "PC001170",
      "name": "아카데미스위트(강남)",
      "address": "서울특별시 강남구 언주로30길 21",
      "lat": "37.488652727",
      "lng": "127.05210946",
      "total_count": 10,
      "available_count": 6,
      "total_percent": 60.0,
      "slow_total": 9,
      "slow_avail": 5,
      "slow_percent": 55.6,
      "fast_total": 1,
      "fast_avail": 1,
      "fast_percent": 100.0,
      "latest_update": "20260713190915"
    },
    {
      "station_id": "PI000710",
      "name": "서울시 강남구 서울주택도시공사",
      "address": "서울특별시 강남구 개포로 621",
      "lat": "37.4941305",
      "lng": "127.0787811",
      "total_count": 10,
      "available_count": 10,
      "total_percent": 100.0,
      "slow_total": 10,
      "slow_avail": 10,
      "slow_percent": 100.0,
      "fast_total": 0,
      "fast_avail": 0,
      "fast_percent": 0.0,
      "latest_update": "20260713175653"
    },
    {
      "station_id": "PI001479",
      "name": "대치현대아파트",
      "address": "서울특별시 강남구 삼성로64길 5",
      "lat": "37.500815",
      "lng": "127.060959",
      "total_count": 10,
      "available_count": 10,
      "total_percent": 100.0,
      "slow_total": 10,
      "slow_avail": 10,
      "slow_percent": 100.0,
      "fast_total": 0,
      "fast_avail": 0,
      "fast_percent": 0.0,
      "latest_update": "20260713201220"
    },
    {
      "station_id": "CV002636",
      "name": "은마아파트",
      "address": "서울특별시 강남구 삼성로 212",
      "lat": "37.4975089",
      "lng": "127.0649519",
      "total_count": 9,
      "available_count": 1,
      "total_percent": 11.1,
      "slow_total": 9,
      "slow_avail": 1,
      "slow_percent": 11.1,
      "fast_total": 0,
      "fast_avail": 0,
      "fast_percent": 0.0,
      "latest_update": "20260713184029"
    },
    {
      "station_id": "EV010583",
      "name": "서울강남 래미안대치하이스턴5(콘센트)",
      "address": "서울특별시 강남구 도곡로93길 12",
      "lat": "37.501124932",
      "lng": "127.06563254",
      "total_count": 9,
      "available_count": 7,
      "total_percent": 77.8,
      "slow_total": 9,
      "slow_avail": 7,
      "slow_percent": 77.8,
      "fast_total": 0,
      "fast_avail": 0,
      "fast_percent": 0.0,
      "latest_update": "20260713171303"
    },
    {
      "station_id": "EV017922",
      "name": "서울강남 개포자이프레지던스 12",
      "address": "서울특별시 강남구 삼성로 14",
      "lat": "37.4861548",
      "lng": "127.0684550",
      "total_count": 9,
      "available_count": 1,
      "total_percent": 11.1,
      "slow_total": 9,
      "slow_avail": 1,
      "slow_percent": 11.1,
      "fast_total": 0,
      "fast_avail": 0,
      "fast_percent": 0.0,
      "latest_update": "20260713195453"
    },
    {
      "station_id": "EV017930",
      "name": "서울강남 개포자이프레지던스 20",
      "address": "서울특별시 강남구 삼성로 14",
      "lat": "37.4861548",
      "lng": "127.0684510",
      "total_count": 9,
      "available_count": 8,
      "total_percent": 88.9,
      "slow_total": 9,
      "slow_avail": 8,
      "slow_percent": 88.9,
      "fast_total": 0,
      "fast_avail": 0,
      "fast_percent": 0.0,
      "latest_update": "20260713195048"
    },
    {
      "station_id": "EV018847",
      "name": "서울강남 삼성코엑스옥상 A존",
      "address": "서울 강남구 영동대로 513",
      "lat": "37.5118239",
      "lng": "127.0591590",
      "total_count": 9,
      "available_count": 9,
      "total_percent": 100.0,
      "slow_total": 9,
      "slow_avail": 9,
      "slow_percent": 100.0,
      "fast_total": 0,
      "fast_avail": 0,
      "fast_percent": 0.0,
      "latest_update": "20260713193034"
    },
    {
      "station_id": "EV018849",
      "name": "서울강남 삼성코엑스옥상 C존",
      "address": "서울 강남구 영동대로 513",
      "lat": "37.5118239",
      "lng": "127.0591590",
      "total_count": 9,
      "available_count": 8,
      "total_percent": 88.9,
      "slow_total": 9,
      "slow_avail": 8,
      "slow_percent": 88.9,
      "fast_total": 0,
      "fast_avail": 0,
      "fast_percent": 0.0,
      "latest_update": "20260712164152"
    },
    {
      "station_id": "IN120012",
      "name": "역삼KB라이프타워",
      "address": "서울특별시 강남구 강남대로 298",
      "lat": "37.49",
      "lng": "127.0318",
      "total_count": 9,
      "available_count": 4,
      "total_percent": 44.4,
      "slow_total": 7,
      "slow_avail": 2,
      "slow_percent": 28.6,
      "fast_total": 2,
      "fast_avail": 2,
      "fast_percent": 100.0,
      "latest_update": "20260713164134"
    },
    {
      "station_id": "KL002401",
      "name": "역삼푸르지오아파트",
      "address": "서울특별시 강남구 언주로 332",
      "lat": "37.49822",
      "lng": "127.0474",
      "total_count": 9,
      "available_count": 8,
      "total_percent": 88.9,
      "slow_total": 9,
      "slow_avail": 8,
      "slow_percent": 88.9,
      "fast_total": 0,
      "fast_avail": 0,
      "fast_percent": 0.0,
      "latest_update": "20260713170402"
    },
    {
      "station_id": "LU000336",
      "name": "개포현대1차",
      "address": "서울특별시 강남구 개포로 303",
      "lat": "37.4832803",
      "lng": "127.0543931",
      "total_count": 9,
      "available_count": 5,
      "total_percent": 55.6,
      "slow_total": 9,
      "slow_avail": 5,
      "slow_percent": 55.6,
      "fast_total": 0,
      "fast_avail": 0,
      "fast_percent": 0.0,
      "latest_update": "20260713193356"
    },
    {
      "station_id": "LU002331",
      "name": "도곡한신아파트",
      "address": "서울특별시 강남구 논현로 205",
      "lat": "37.487948",
      "lng": "127.040618",
      "total_count": 9,
      "available_count": 9,
      "total_percent": 100.0,
      "slow_total": 9,
      "slow_avail": 9,
      "slow_percent": 100.0,
      "fast_total": 0,
      "fast_avail": 0,
      "fast_percent": 0.0,
      "latest_update": "20260713095027"
    },
    {
      "station_id": "LU004206",
      "name": "래미안개포루체하임",
      "address": "서울특별시 강남구 개포로110길 50",
      "lat": "37.489541",
      "lng": "127.079624",
      "total_count": 9,
      "available_count": 7,
      "total_percent": 77.8,
      "slow_total": 9,
      "slow_avail": 7,
      "slow_percent": 77.8,
      "fast_total": 0,
      "fast_avail": 0,
      "fast_percent": 0.0,
      "latest_update": "20260713200108"
    },
    {
      "station_id": "NT102378",
      "name": "강남 도곡렉슬아파트",
      "address": "서울특별시 강남구 선릉로 221",
      "lat": "37.49420",
      "lng": "127.04973",
      "total_count": 9,
      "available_count": 5,
      "total_percent": 55.6,
      "slow_total": 9,
      "slow_avail": 5,
      "slow_percent": 55.6,
      "fast_total": 0,
      "fast_avail": 0,
      "fast_percent": 0.0,
      "latest_update": "20260713200750"
    },
    {
      "station_id": "PI001668",
      "name": "강남훼미리타운 A동 오피스텔",
      "address": "서울특별시 강남구 밤고개로 231",
      "lat": "37.4737975",
      "lng": "127.107265",
      "total_count": 9,
      "available_count": 8,
      "total_percent": 88.9,
      "slow_total": 9,
      "slow_avail": 8,
      "slow_percent": 88.9,
      "fast_total": 0,
      "fast_avail": 0,
      "fast_percent": 0.0,
      "latest_update": "20260713094900"
    },
    {
      "station_id": "PI710890",
      "name": "역삼역센트럴푸르지오시티",
      "address": "서울특별시 강남구 언주로85길 32",
      "lat": "37.5009284",
      "lng": "127.0407513",
      "total_count": 9,
      "available_count": 4,
      "total_percent": 44.4,
      "slow_total": 9,
      "slow_avail": 4,
      "slow_percent": 44.4,
      "fast_total": 0,
      "fast_avail": 0,
      "fast_percent": 0.0,
      "latest_update": "20260713201025"
    },
    {
      "station_id": "PI752102",
      "name": "대치현대아파트",
      "address": "서울특별시 강남구 삼성로64길 5",
      "lat": "37.5004469",
      "lng": "127.0605134",
      "total_count": 9,
      "available_count": 7,
      "total_percent": 77.8,
      "slow_total": 9,
      "slow_avail": 7,
      "slow_percent": 77.8,
      "fast_total": 0,
      "fast_avail": 0,
      "fast_percent": 0.0,
      "latest_update": "20260713165042"
    },
    {
      "station_id": "EV010467",
      "name": "서울강남 디에이치아너힐즈아파트2 (콘센트)",
      "address": "서울특별시 강남구 삼성로 11",
      "lat": "37.482391302",
      "lng": "127.06860667",
      "total_count": 8,
      "available_count": 8,
      "total_percent": 100.0,
      "slow_total": 8,
      "slow_avail": 8,
      "slow_percent": 100.0,
      "fast_total": 0,
      "fast_avail": 0,
      "fast_percent": 0.0,
      "latest_update": "20260713103658"
    },
    {
      "station_id": "EV010584",
      "name": "서울강남 래미안대치하이스턴6(콘센트)",
      "address": "서울특별시 강남구 도곡로93길 12",
      "lat": "37.501214841",
      "lng": "127.06597755",
      "total_count": 8,
      "available_count": 6,
      "total_percent": 75.0,
      "slow_total": 8,
      "slow_avail": 6,
      "slow_percent": 75.0,
      "fast_total": 0,
      "fast_avail": 0,
      "fast_percent": 0.0,
      "latest_update": "20260713185610"
    },
    {
      "station_id": "EV011231",
      "name": "서울강남 디에이치아너힐즈 4",
      "address": "서울특별시 강남구 삼성로 11",
      "lat": "37.482490371",
      "lng": "127.06868025",
      "total_count": 8,
      "available_count": 4,
      "total_percent": 50.0,
      "slow_total": 8,
      "slow_avail": 4,
      "slow_percent": 50.0,
      "fast_total": 0,
      "fast_avail": 0,
      "fast_percent": 0.0,
      "latest_update": "20260713200903"
    },
    {
      "station_id": "EV017926",
      "name": "서울강남 개포자이프레지던스 16",
      "address": "서울특별시 강남구 삼성로 14",
      "lat": "37.4861548",
      "lng": "127.0684510",
      "total_count": 8,
      "available_count": 7,
      "total_percent": 87.5,
      "slow_total": 8,
      "slow_avail": 7,
      "slow_percent": 87.5,
      "fast_total": 0,
      "fast_avail": 0,
      "fast_percent": 0.0,
      "latest_update": "20260713192229"
    },
    {
      "station_id": "EZ210017",
      "name": "마일스디오빌",
      "address": "서울특별시 강남구 학동로 165",
      "lat": "37.5137746",
      "lng": "127.0290436",
      "total_count": 8,
      "available_count": 0,
      "total_percent": 0.0,
      "slow_total": 8,
      "slow_avail": 0,
      "slow_percent": 0.0,
      "fast_total": 0,
      "fast_avail": 0,
      "fast_percent": 0.0,
      "latest_update": "20260601113310"
    },
    {
      "station_id": "HY000899",
      "name": "현대백화점 무역센터점",
      "address": "서울특별시 강남구 테헤란로 517",
      "lat": "37.5086151",
      "lng": "127.0597651",
      "total_count": 8,
      "available_count": 8,
      "total_percent": 100.0,
      "slow_total": 2,
      "slow_avail": 2,
      "slow_percent": 100.0,
      "fast_total": 6,
      "fast_avail": 6,
      "fast_percent": 100.0,
      "latest_update": "20260713194205"
    },
    {
      "station_id": "IN120105",
      "name": "삼성동현대아파트",
      "address": "서울특별시 강남구 학동로64길 14",
      "lat": "37.5168",
      "lng": "127.0449",
      "total_count": 8,
      "available_count": 0,
      "total_percent": 0.0,
      "slow_total": 8,
      "slow_avail": 0,
      "slow_percent": 0.0,
      "fast_total": 0,
      "fast_avail": 0,
      "fast_percent": 0.0,
      "latest_update": "20260615122841"
    },
    {
      "station_id": "LU001982",
      "name": "글라스타워",
      "address": "서울특별시 강남구 테헤란로 534",
      "lat": "37.508038",
      "lng": "127.062796",
      "total_count": 8,
      "available_count": 8,
      "total_percent": 100.0,
      "slow_total": 8,
      "slow_avail": 8,
      "slow_percent": 100.0,
      "fast_total": 0,
      "fast_avail": 0,
      "fast_percent": 0.0,
      "latest_update": "20260713174850"
    },
    {
      "station_id": "LU003820",
      "name": "강남청담대림아파트",
      "address": "서울특별시 강남구 학동로77길 27",
      "lat": "37.520885",
      "lng": "127.047789",
      "total_count": 8,
      "available_count": 7,
      "total_percent": 87.5,
      "slow_total": 8,
      "slow_avail": 7,
      "slow_percent": 87.5,
      "fast_total": 0,
      "fast_avail": 0,
      "fast_percent": 0.0,
      "latest_update": "20260713194058"
    },
    {
      "station_id": "LU101758",
      "name": "수서삼익아파트",
      "address": "서울특별시 강남구 광평로51길 27",
      "lat": "37.4896147",
      "lng": "127.1007301",
      "total_count": 8,
      "available_count": 4,
      "total_percent": 50.0,
      "slow_total": 8,
      "slow_avail": 4,
      "slow_percent": 50.0,
      "fast_total": 0,
      "fast_avail": 0,
      "fast_percent": 0.0,
      "latest_update": "20260713201030"
    },
    {
      "station_id": "MO910140",
      "name": "수서효성빌딩",
      "address": "서울특별시 강남구 광평로 281",
      "lat": "37.4881219",
      "lng": "127.103087",
      "total_count": 8,
      "available_count": 7,
      "total_percent": 87.5,
      "slow_total": 8,
      "slow_avail": 7,
      "slow_percent": 87.5,
      "fast_total": 0,
      "fast_avail": 0,
      "fast_percent": 0.0,
      "latest_update": "20260713200619"
    },
    {
      "station_id": "NT100344",
      "name": "역삼자이",
      "address": "서울특별시 강남구 언주로 420",
      "lat": "37.5004757",
      "lng": "127.0440479",
      "total_count": 8,
      "available_count": 5,
      "total_percent": 62.5,
      "slow_total": 8,
      "slow_avail": 5,
      "slow_percent": 62.5,
      "fast_total": 0,
      "fast_avail": 0,
      "fast_percent": 0.0,
      "latest_update": "20260713174050"
    },
    {
      "station_id": "NT102562",
      "name": "강남 한솔마을아파트",
      "address": "서울특별시 강남구 광평로10길 6",
      "lat": "37.48262",
      "lng": "127.07652",
      "total_count": 8,
      "available_count": 4,
      "total_percent": 50.0,
      "slow_total": 8,
      "slow_avail": 4,
      "slow_percent": 50.0,
      "fast_total": 0,
      "fast_avail": 0,
      "fast_percent": 0.0,
      "latest_update": "20260713200850"
    },
    {
      "station_id": "PI001667",
      "name": "강남훼미리타운 B동 오피스텔",
      "address": "서울특별시 강남구 밤고개로 227",
      "lat": "37.474077",
      "lng": "127.107141",
      "total_count": 8,
      "available_count": 7,
      "total_percent": 87.5,
      "slow_total": 8,
      "slow_avail": 7,
      "slow_percent": 87.5,
      "fast_total": 0,
      "fast_avail": 0,
      "fast_percent": 0.0,
      "latest_update": "20260713040538"
    },
    {
      "station_id": "PI200273",
      "name": "서울시 강남구 논현아파트",
      "address": "서울특별시 강남구 강남대로146길 28",
      "lat": "37.5150435",
      "lng": "127.0229029",
      "total_count": 8,
      "available_count": 8,
      "total_percent": 100.0,
      "slow_total": 8,
      "slow_avail": 8,
      "slow_percent": 100.0,
      "fast_total": 0,
      "fast_avail": 0,
      "fast_percent": 0.0,
      "latest_update": "20260713190620"
    },
    {
      "station_id": "PI202644",
      "name": "청담4차이편한세상아파트",
      "address": "서울특별시 강남구 학동로73길 33",
      "lat": "37.5207",
      "lng": "127.047",
      "total_count": 8,
      "available_count": 8,
      "total_percent": 100.0,
      "slow_total": 8,
      "slow_avail": 8,
      "slow_percent": 100.0,
      "fast_total": 0,
      "fast_avail": 0,
      "fast_percent": 0.0,
      "latest_update": "20260713180639"
    },
    {
      "station_id": "PI714162",
      "name": "역삼한솔필리아",
      "address": "서울특별시 강남구 역삼로 310",
      "lat": "37.4992355",
      "lng": "127.0484209",
      "total_count": 8,
      "available_count": 7,
      "total_percent": 87.5,
      "slow_total": 8,
      "slow_avail": 7,
      "slow_percent": 87.5,
      "fast_total": 0,
      "fast_avail": 0,
      "fast_percent": 0.0,
      "latest_update": "20260713190554"
    },
    {
      "station_id": "PI722666",
      "name": "삼성동센트럴아이파크B",
      "address": "서울특별시 강남구 삼성로 629",
      "lat": "37.515374539",
      "lng": "127.05157378",
      "total_count": 8,
      "available_count": 6,
      "total_percent": 75.0,
      "slow_total": 8,
      "slow_avail": 6,
      "slow_percent": 75.0,
      "fast_total": 0,
      "fast_avail": 0,
      "fast_percent": 0.0,
      "latest_update": "20260713195616"
    },
    {
      "station_id": "PI762622",
      "name": "개나리skview아파트",
      "address": "서울특별시 강남구 역삼로 315-1",
      "lat": "37.5005684",
      "lng": "127.050071",
      "total_count": 8,
      "available_count": 6,
      "total_percent": 75.0,
      "slow_total": 8,
      "slow_avail": 6,
      "slow_percent": 75.0,
      "fast_total": 0,
      "fast_avail": 0,
      "fast_percent": 0.0,
      "latest_update": "20260713195122"
    },
    {
      "station_id": "CGA00304",
      "name": "강남 샘터마을아파트⑤_관리사무소 앞",
      "address": "서울특별시 강남구 일원로 120",
      "lat": "37.4841710",
      "lng": "127.0823514",
      "total_count": 7,
      "available_count": 6,
      "total_percent": 85.7,
      "slow_total": 7,
      "slow_avail": 6,
      "slow_percent": 85.7,
      "fast_total": 0,
      "fast_avail": 0,
      "fast_percent": 0.0,
      "latest_update": "20260713154509"
    },
    {
      "station_id": "CV001284",
      "name": "아세아타워빌딩1",
      "address": "서울특별시 강남구 논현로 430",
      "lat": "37.499563",
      "lng": "127.038455",
      "total_count": 7,
      "available_count": 7,
      "total_percent": 100.0,
      "slow_total": 7,
      "slow_avail": 7,
      "slow_percent": 100.0,
      "fast_total": 0,
      "fast_avail": 0,
      "fast_percent": 0.0,
      "latest_update": "20260713162522"
    },
    {
      "station_id": "EP190075",
      "name": "서울 광림교회",
      "address": "서울특별시 강남구 논현로163길 33",
      "lat": "37.5238944",
      "lng": "127.0255799",
      "total_count": 7,
      "available_count": 0,
      "total_percent": 0.0,
      "slow_total": 7,
      "slow_avail": 0,
      "slow_percent": 0.0,
      "fast_total": 0,
      "fast_avail": 0,
      "fast_percent": 0.0,
      "latest_update": "20260324150039"
    },
    {
      "station_id": "EP230339",
      "name": "서울 섬유센터빌딩 급속충전소",
      "address": "서울특별시 강남구 테헤란로 518",
      "lat": "37.507591083",
      "lng": "127.06057941",
      "total_count": 7,
      "available_count": 7,
      "total_percent": 100.0,
      "slow_total": 0,
      "slow_avail": 0,
      "slow_percent": 0.0,
      "fast_total": 7,
      "fast_avail": 7,
      "fast_percent": 100.0,
      "latest_update": "20260713194215"
    },
    {
      "station_id": "EV009037",
      "name": "서울강남 수서삼성아파트2",
      "address": "서울특별시 강남구 광평로31길 27",
      "lat": "37.485291794",
      "lng": "127.08988295",
      "total_count": 7,
      "available_count": 3,
      "total_percent": 42.9,
      "slow_total": 7,
      "slow_avail": 3,
      "slow_percent": 42.9,
      "fast_total": 0,
      "fast_avail": 0,
      "fast_percent": 0.0,
      "latest_update": "20260713200500"
    },
    {
      "station_id": "EV010581",
      "name": "서울강남 래미안대치하이스턴3(콘센트)",
      "address": "서울특별시 강남구 도곡로93길 12",
      "lat": "37.500746416",
      "lng": "127.06580184",
      "total_count": 7,
      "available_count": 6,
      "total_percent": 85.7,
      "slow_total": 7,
      "slow_avail": 6,
      "slow_percent": 85.7,
      "fast_total": 0,
      "fast_avail": 0,
      "fast_percent": 0.0,
      "latest_update": "20260713075918"
    },
    {
      "station_id": "EV014597",
      "name": "서울강남 수서1단지SH아파트 3",
      "address": "서울특별시 강남구 양재대로55길 10",
      "lat": "37.4928365",
      "lng": "127.0914355",
      "total_count": 7,
      "available_count": 1,
      "total_percent": 14.3,
      "slow_total": 7,
      "slow_avail": 1,
      "slow_percent": 14.3,
      "fast_total": 0,
      "fast_avail": 0,
      "fast_percent": 0.0,
      "latest_update": "20260713194041"
    },
    {
      "station_id": "EV018375",
      "name": "서울강남 개포자이프레지던스 25",
      "address": "서울특별시 강남구 삼성로 14",
      "lat": "37.4861548",
      "lng": "127.0684510",
      "total_count": 7,
      "available_count": 5,
      "total_percent": 71.4,
      "slow_total": 7,
      "slow_avail": 5,
      "slow_percent": 71.4,
      "fast_total": 0,
      "fast_avail": 0,
      "fast_percent": 0.0,
      "latest_update": "20260713163827"
    },
    {
      "station_id": "HE192472",
      "name": "강남효성해링턴코트",
      "address": "서울특별시 강남구 자곡로 36",
      "lat": "37.467826",
      "lng": "127.094787",
      "total_count": 7,
      "available_count": 1,
      "total_percent": 14.3,
      "slow_total": 7,
      "slow_avail": 1,
      "slow_percent": 14.3,
      "fast_total": 0,
      "fast_avail": 0,
      "fast_percent": 0.0,
      "latest_update": "20260713192900"
    },
    {
      "station_id": "KE001318",
      "name": "서울상록회관(공무원연금공단)2",
      "address": "서울특별시 강남구 언주로 508",
      "lat": "37.503998",
      "lng": "127.0429532",
      "total_count": 7,
      "available_count": 7,
      "total_percent": 100.0,
      "slow_total": 7,
      "slow_avail": 7,
      "slow_percent": 100.0,
      "fast_total": 0,
      "fast_avail": 0,
      "fast_percent": 0.0,
      "latest_update": "20260713174310"
    },
    {
      "station_id": "KL002358",
      "name": "개포우성9차(개포더샵트리에)",
      "address": "서울특별시 강남구 개포로 311",
      "lat": "37.48504",
      "lng": "127.05698",
      "total_count": 7,
      "available_count": 3,
      "total_percent": 42.9,
      "slow_total": 7,
      "slow_avail": 3,
      "slow_percent": 42.9,
      "fast_total": 0,
      "fast_avail": 0,
      "fast_percent": 0.0,
      "latest_update": "20260713192702"
    },
    {
      "station_id": "KL200239",
      "name": "강남신동아파밀리에2단지",
      "address": "서울특별시 강남구 헌릉로590길 10",
      "lat": "37.4645127",
      "lng": "127.1027373",
      "total_count": 7,
      "available_count": 7,
      "total_percent": 100.0,
      "slow_total": 7,
      "slow_avail": 7,
      "slow_percent": 100.0,
      "fast_total": 0,
      "fast_avail": 0,
      "fast_percent": 0.0,
      "latest_update": "20260713064038"
    },
    {
      "station_id": "LU002220",
      "name": "동일타워",
      "address": "서울특별시 강남구 테헤란로114길 38",
      "lat": "37.507124",
      "lng": "127.066993",
      "total_count": 7,
      "available_count": 0,
      "total_percent": 0.0,
      "slow_total": 7,
      "slow_avail": 0,
      "slow_percent": 0.0,
      "fast_total": 0,
      "fast_avail": 0,
      "fast_percent": 0.0,
      "latest_update": "20260627123431"
    },
    {
      "station_id": "LU003910",
      "name": "수서동익",
      "address": "서울특별시 강남구 광평로39길 3",
      "lat": "37.485766",
      "lng": "127.097263",
      "total_count": 7,
      "available_count": 3,
      "total_percent": 42.9,
      "slow_total": 7,
      "slow_avail": 3,
      "slow_percent": 42.9,
      "fast_total": 0,
      "fast_avail": 0,
      "fast_percent": 0.0,
      "latest_update": "20260713201149"
    },
    {
      "station_id": "NT102373",
      "name": "강남 역삼금호어울림아파트",
      "address": "서울특별시 강남구 도곡로7길 22",
      "lat": "37.49237",
      "lng": "127.03477",
      "total_count": 7,
      "available_count": 6,
      "total_percent": 85.7,
      "slow_total": 7,
      "slow_avail": 6,
      "slow_percent": 85.7,
      "fast_total": 0,
      "fast_avail": 0,
      "fast_percent": 0.0,
      "latest_update": "20260713130750"
    },
    {
      "station_id": "PC001861",
      "name": "역삼대우디오빌(강남)",
      "address": "서울특별시 강남구 언주로 427",
      "lat": "37.5014765",
      "lng": "127.0426905",
      "total_count": 7,
      "available_count": 3,
      "total_percent": 42.9,
      "slow_total": 7,
      "slow_avail": 3,
      "slow_percent": 42.9,
      "fast_total": 0,
      "fast_avail": 0,
      "fast_percent": 0.0,
      "latest_update": "20260713181401"
    },
    {
      "station_id": "PI200813",
      "name": "서울시 강남구 오토웨이타워",
      "address": "서울특별시 강남구 영동대로 417",
      "lat": "37.5062884",
      "lng": "127.0636926",
      "total_count": 7,
      "available_count": 7,
      "total_percent": 100.0,
      "slow_total": 5,
      "slow_avail": 5,
      "slow_percent": 100.0,
      "fast_total": 2,
      "fast_avail": 2,
      "fast_percent": 100.0,
      "latest_update": "20260713193655"
    },
    {
      "station_id": "PI203062",
      "name": "삼성롯데캐슬킹덤아파트",
      "address": "서울특별시 강남구 선릉로112길 53",
      "lat": "37.513012",
      "lng": "127.047847",
      "total_count": 7,
      "available_count": 4,
      "total_percent": 57.1,
      "slow_total": 7,
      "slow_avail": 4,
      "slow_percent": 57.1,
      "fast_total": 0,
      "fast_avail": 0,
      "fast_percent": 0.0,
      "latest_update": "20260713200127"
    },
    {
      "station_id": "PI204125",
      "name": "서울시 강남구 래미안대치팰리스2단지",
      "address": "서울특별시 강남구 삼성로51길 35",
      "lat": "37.494904225",
      "lng": "127.06017869",
      "total_count": 7,
      "available_count": 6,
      "total_percent": 85.7,
      "slow_total": 7,
      "slow_avail": 6,
      "slow_percent": 85.7,
      "fast_total": 0,
      "fast_avail": 0,
      "fast_percent": 0.0,
      "latest_update": "20260713191141"
    },
    {
      "station_id": "PI204128",
      "name": "서울시 강남구 노보텔앰배서더강남",
      "address": "서울특별시 강남구 봉은사로 130",
      "lat": "37.5052806",
      "lng": "127.0289194",
      "total_count": 7,
      "available_count": 4,
      "total_percent": 57.1,
      "slow_total": 6,
      "slow_avail": 3,
      "slow_percent": 50.0,
      "fast_total": 1,
      "fast_avail": 1,
      "fast_percent": 100.0,
      "latest_update": "20260713200847"
    },
    {
      "station_id": "PI204291",
      "name": "서울시 강남구 도곡스타클래스",
      "address": "서울특별시 강남구 남부순환로 2615",
      "lat": "37.485131376",
      "lng": "127.03570944",
      "total_count": 7,
      "available_count": 6,
      "total_percent": 85.7,
      "slow_total": 7,
      "slow_avail": 6,
      "slow_percent": 85.7,
      "fast_total": 0,
      "fast_avail": 0,
      "fast_percent": 0.0,
      "latest_update": "20260713151203"
    },
    {
      "station_id": "PI721806",
      "name": "대치SK뷰아파트",
      "address": "서울특별시 강남구 삼성로51길 25",
      "lat": "37.4957704",
      "lng": "127.0603502",
      "total_count": 7,
      "available_count": 5,
      "total_percent": 71.4,
      "slow_total": 7,
      "slow_avail": 5,
      "slow_percent": 71.4,
      "fast_total": 0,
      "fast_avail": 0,
      "fast_percent": 0.0,
      "latest_update": "20260713195129"
    },
    {
      "station_id": "PI755093",
      "name": "GS타워",
      "address": "서울특별시 강남구 논현로 508",
      "lat": "37.502029270",
      "lng": "127.03730362",
      "total_count": 7,
      "available_count": 5,
      "total_percent": 71.4,
      "slow_total": 5,
      "slow_avail": 3,
      "slow_percent": 60.0,
      "fast_total": 2,
      "fast_avail": 2,
      "fast_percent": 100.0,
      "latest_update": "20260713201013"
    },
    {
      "station_id": "AM900055",
      "name": "강남일옥빌딩(신한강남L타워)",
      "address": "서울특별시 강남구 테헤란로 318",
      "lat": "37.50317135",
      "lng": "127.0460709",
      "total_count": 6,
      "available_count": 3,
      "total_percent": 50.0,
      "slow_total": 6,
      "slow_avail": 3,
      "slow_percent": 50.0,
      "fast_total": 0,
      "fast_avail": 0,
      "fast_percent": 0.0,
      "latest_update": "20260713191119"
    },
    {
      "station_id": "CV001063",
      "name": "학여울역 환승공영주차장",
      "address": "서울특별시 강남구 남부순환로 3104",
      "lat": "37.496508",
      "lng": "127.072735",
      "total_count": 6,
      "available_count": 6,
      "total_percent": 100.0,
      "slow_total": 6,
      "slow_avail": 6,
      "slow_percent": 100.0,
      "fast_total": 0,
      "fast_avail": 0,
      "fast_percent": 0.0,
      "latest_update": "20260713195520"
    },
    {
      "station_id": "EV009036",
      "name": "서울강남 수서삼성아파트1",
      "address": "서울특별시 강남구 광평로31길 27",
      "lat": "37.485161444",
      "lng": "127.08949271",
      "total_count": 6,
      "available_count": 4,
      "total_percent": 66.7,
      "slow_total": 6,
      "slow_avail": 4,
      "slow_percent": 66.7,
      "fast_total": 0,
      "fast_avail": 0,
      "fast_percent": 0.0,
      "latest_update": "20260713195652"
    },
    {
      "station_id": "EV010470",
      "name": "서울강남 디에이치아너힐즈아파트5 (콘센트)",
      "address": "서울특별시 강남구 삼성로 11",
      "lat": "37.485378753",
      "lng": "127.06755222",
      "total_count": 6,
      "available_count": 6,
      "total_percent": 100.0,
      "slow_total": 6,
      "slow_avail": 6,
      "slow_percent": 100.0,
      "fast_total": 0,
      "fast_avail": 0,
      "fast_percent": 0.0,
      "latest_update": "20260706072044"
    },
    {
      "station_id": "EV010471",
      "name": "서울강남 디에이치아너힐즈아파트6 (콘센트)",
      "address": "서울특별시 강남구 삼성로 11",
      "lat": "37.485004954",
      "lng": "127.06734271",
      "total_count": 6,
      "available_count": 6,
      "total_percent": 100.0,
      "slow_total": 6,
      "slow_avail": 6,
      "slow_percent": 100.0,
      "fast_total": 0,
      "fast_avail": 0,
      "fast_percent": 0.0,
      "latest_update": "20260709075855"
    },
    {
      "station_id": "EV010472",
      "name": "서울강남 디에이치아너힐즈아파트7 (콘센트)",
      "address": "서울특별시 강남구 삼성로 11",
      "lat": "37.485009249",
      "lng": "127.06771018",
      "total_count": 6,
      "available_count": 6,
      "total_percent": 100.0,
      "slow_total": 6,
      "slow_avail": 6,
      "slow_percent": 100.0,
      "fast_total": 0,
      "fast_avail": 0,
      "fast_percent": 0.0,
      "latest_update": "20260713021955"
    },
    {
      "station_id": "EV010579",
      "name": "서울강남 래미안대치하이스턴1(콘센트)",
      "address": "서울특별시 강남구 도곡로93길 12",
      "lat": "37.500571064",
      "lng": "127.06517969",
      "total_count": 6,
      "available_count": 4,
      "total_percent": 66.7,
      "slow_total": 6,
      "slow_avail": 4,
      "slow_percent": 66.7,
      "fast_total": 0,
      "fast_avail": 0,
      "fast_percent": 0.0,
      "latest_update": "20260713185812"
    },
    {
      "station_id": "EV011228",
      "name": "서울강남 디에이치아너힐즈 1",
      "address": "서울특별시 강남구 삼성로 11",
      "lat": "37.485291458",
      "lng": "127.06657693",
      "total_count": 6,
      "available_count": 5,
      "total_percent": 83.3,
      "slow_total": 6,
      "slow_avail": 5,
      "slow_percent": 83.3,
      "fast_total": 0,
      "fast_avail": 0,
      "fast_percent": 0.0,
      "latest_update": "20260713140907"
    },
    {
      "station_id": "EV012998",
      "name": "서울강남 대치선경2차아파트 1",
      "address": "서울특별시 강남구 삼성로 151",
      "lat": "37.493155",
      "lng": "127.063",
      "total_count": 6,
      "available_count": 2,
      "total_percent": 33.3,
      "slow_total": 6,
      "slow_avail": 2,
      "slow_percent": 33.3,
      "fast_total": 0,
      "fast_avail": 0,
      "fast_percent": 0.0,
      "latest_update": "20260713194243"
    },
    {
      "station_id": "EV013620",
      "name": "서울강남 역삼삼익아파트",
      "address": "서울특별시 강남구 논현로 218",
      "lat": "37.4912792",
      "lng": "127.0421606",
      "total_count": 6,
      "available_count": 2,
      "total_percent": 33.3,
      "slow_total": 6,
      "slow_avail": 2,
      "slow_percent": 33.3,
      "fast_total": 0,
      "fast_avail": 0,
      "fast_percent": 0.0,
      "latest_update": "20260713200256"
    },
    {
      "station_id": "EV013891",
      "name": "서울강남 서희스타힐스오피스텔",
      "address": "서울특별시 강남구 도곡로3길 19",
      "lat": "37.4913753",
      "lng": "127.0325108",
      "total_count": 6,
      "available_count": 5,
      "total_percent": 83.3,
      "slow_total": 6,
      "slow_avail": 5,
      "slow_percent": 83.3,
      "fast_total": 0,
      "fast_avail": 0,
      "fast_percent": 0.0,
      "latest_update": "20260713201102"
    },
    {
      "station_id": "EV014654",
      "name": "서울강남 수서6단지아파트",
      "address": "서울특별시 강남구 광평로56길 11 (수서동, 수서6단지아파트)",
      "lat": "37.4878822",
      "lng": "127.1057797",
      "total_count": 6,
      "available_count": 3,
      "total_percent": 50.0,
      "slow_total": 6,
      "slow_avail": 3,
      "slow_percent": 50.0,
      "fast_total": 0,
      "fast_avail": 0,
      "fast_percent": 0.0,
      "latest_update": "20260713195854"
    },
    {
      "station_id": "EV015295",
      "name": "서울강남 대치선경2차아파트 3",
      "address": "서울특별시 강남구 삼성로 151 (대치동, 선경아파트)",
      "lat": "37.4931550",
      "lng": "127.0630000",
      "total_count": 6,
      "available_count": 0,
      "total_percent": 0.0,
      "slow_total": 6,
      "slow_avail": 0,
      "slow_percent": 0.0,
      "fast_total": 0,
      "fast_avail": 0,
      "fast_percent": 0.0,
      "latest_update": "20260713193437"
    },
    {
      "station_id": "EV015391",
      "name": "서울강남 압구정현대아파트 2",
      "address": "서울특별시 강남구 압구정로29길 57 (압구정동, 현대아파트)",
      "lat": "37.5312338",
      "lng": "127.0269367",
      "total_count": 6,
      "available_count": 2,
      "total_percent": 33.3,
      "slow_total": 6,
      "slow_avail": 2,
      "slow_percent": 33.3,
      "fast_total": 0,
      "fast_avail": 0,
      "fast_percent": 0.0,
      "latest_update": "20260713191624"
    },
    {
      "station_id": "EV016447",
      "name": "서울강남 가람아파트 1",
      "address": "서울특별시 강남구 일원로 127 (일원동, 가람아파트)",
      "lat": "37.4831593",
      "lng": "127.0853838",
      "total_count": 6,
      "available_count": 6,
      "total_percent": 100.0,
      "slow_total": 6,
      "slow_avail": 6,
      "slow_percent": 100.0,
      "fast_total": 0,
      "fast_avail": 0,
      "fast_percent": 0.0,
      "latest_update": "20260713163238"
    },
    {
      "station_id": "EV016823",
      "name": "서울강남 코엑스옥상 2",
      "address": "서울 강남구 영동대로 513",
      "lat": "37.5118239",
      "lng": "127.0591590",
      "total_count": 6,
      "available_count": 0,
      "total_percent": 0.0,
      "slow_total": 6,
      "slow_avail": 0,
      "slow_percent": 0.0,
      "fast_total": 0,
      "fast_avail": 0,
      "fast_percent": 0.0,
      "latest_update": "20260713184808"
    },
    {
      "station_id": "EV017915",
      "name": "서울강남 개포자이프레지던스 4",
      "address": "서울특별시 강남구 삼성로 14",
      "lat": "37.4861548",
      "lng": "127.0684513",
      "total_count": 6,
      "available_count": 4,
      "total_percent": 66.7,
      "slow_total": 6,
      "slow_avail": 4,
      "slow_percent": 66.7,
      "fast_total": 0,
      "fast_avail": 0,
      "fast_percent": 0.0,
      "latest_update": "20260713200659"
    },
    {
      "station_id": "EV017917",
      "name": "서울강남 개포자이프레지던스 6",
      "address": "서울특별시 강남구 삼성로 14",
      "lat": "37.4861548",
      "lng": "127.0684515",
      "total_count": 6,
      "available_count": 3,
      "total_percent": 50.0,
      "slow_total": 6,
      "slow_avail": 3,
      "slow_percent": 50.0,
      "fast_total": 0,
      "fast_avail": 0,
      "fast_percent": 0.0,
      "latest_update": "20260713193400"
    },
    {
      "station_id": "EV017924",
      "name": "서울강남 개포자이프레지던스 14",
      "address": "서울특별시 강남구 삼성로 14",
      "lat": "37.4861548",
      "lng": "127.0684510",
      "total_count": 6,
      "available_count": 1,
      "total_percent": 16.7,
      "slow_total": 6,
      "slow_avail": 1,
      "slow_percent": 16.7,
      "fast_total": 0,
      "fast_avail": 0,
      "fast_percent": 0.0,
      "latest_update": "20260713194243"
    },
    {
      "station_id": "EV017928",
      "name": "서울강남 개포자이프레지던스 18",
      "address": "서울특별시 강남구 삼성로 14",
      "lat": "37.4861548",
      "lng": "127.0684510",
      "total_count": 6,
      "available_count": 3,
      "total_percent": 50.0,
      "slow_total": 6,
      "slow_avail": 3,
      "slow_percent": 50.0,
      "fast_total": 0,
      "fast_avail": 0,
      "fast_percent": 0.0,
      "latest_update": "20260713194644"
    },
    {
      "station_id": "EV018544",
      "name": "서울강남 논현아파트 1",
      "address": "서울 강남구 강남대로146길 28",
      "lat": "37.5150255",
      "lng": "127.0230305",
      "total_count": 6,
      "available_count": 3,
      "total_percent": 50.0,
      "slow_total": 6,
      "slow_avail": 3,
      "slow_percent": 50.0,
      "fast_total": 0,
      "fast_avail": 0,
      "fast_percent": 0.0,
      "latest_update": "20260713201103"
    },
    {
      "station_id": "EV018798",
      "name": "서울강남 개포2차현대아파트 1",
      "address": "서울특별시 강남구 언주로 107",
      "lat": "37.4835863",
      "lng": "127.0519555",
      "total_count": 6,
      "available_count": 5,
      "total_percent": 83.3,
      "slow_total": 6,
      "slow_avail": 5,
      "slow_percent": 83.3,
      "fast_total": 0,
      "fast_avail": 0,
      "fast_percent": 0.0,
      "latest_update": "20260713195453"
    },
    {
      "station_id": "EV020127",
      "name": "서울강남 역삼아이파크1",
      "address": "서울 강남구 역삼로 307",
      "lat": "37.4990489",
      "lng": "127.0448764",
      "total_count": 6,
      "available_count": 6,
      "total_percent": 100.0,
      "slow_total": 6,
      "slow_avail": 6,
      "slow_percent": 100.0,
      "fast_total": 0,
      "fast_avail": 0,
      "fast_percent": 0.0,
      "latest_update": "20260713170657"
    },
    {
      "station_id": "HE001043",
      "name": "코엑스",
      "address": "서울특별시 강남구 영동대로 513",
      "lat": "37.512094",
      "lng": "127.059498",
      "total_count": 6,
      "available_count": 3,
      "total_percent": 50.0,
      "slow_total": 0,
      "slow_avail": 0,
      "slow_percent": 0.0,
      "fast_total": 6,
      "fast_avail": 3,
      "fast_percent": 50.0,
      "latest_update": "20260713141620"
    },
    {
      "station_id": "HM000223",
      "name": "_더피나클강남",
      "address": "서울특별시 강남구 학동로 343",
      "lat": "37.5174413",
      "lng": "127.0406117",
      "total_count": 6,
      "available_count": 6,
      "total_percent": 100.0,
      "slow_total": 6,
      "slow_avail": 6,
      "slow_percent": 100.0,
      "fast_total": 0,
      "fast_avail": 0,
      "fast_percent": 0.0,
      "latest_update": "20260713180003"
    },
    {
      "station_id": "HM110111",
      "name": " _캠코양재타워",
      "address": "서울특별시 강남구 강남대로 262",
      "lat": "37.4869604",
      "lng": "127.0334452",
      "total_count": 6,
      "available_count": 6,
      "total_percent": 100.0,
      "slow_total": 0,
      "slow_avail": 0,
      "slow_percent": 0.0,
      "fast_total": 6,
      "fast_avail": 6,
      "fast_percent": 100.0,
      "latest_update": "20260713161020"
    },
    {
      "station_id": "HY001681",
      "name": "강남 개포우성1차2차",
      "address": "서울특별시 강남구 선릉로 120",
      "lat": "37.49028",
      "lng": "127.0609",
      "total_count": 6,
      "available_count": 2,
      "total_percent": 33.3,
      "slow_total": 6,
      "slow_avail": 2,
      "slow_percent": 33.3,
      "fast_total": 0,
      "fast_avail": 0,
      "fast_percent": 0.0,
      "latest_update": "20260713194205"
    },
    {
      "station_id": "HY001897",
      "name": "강남 삼성청담공원아파트",
      "address": "서울특별시 강남구 도산대로96길 39",
      "lat": "37.52106819",
      "lng": "127.03414",
      "total_count": 6,
      "available_count": 4,
      "total_percent": 66.7,
      "slow_total": 6,
      "slow_avail": 4,
      "slow_percent": 66.7,
      "fast_total": 0,
      "fast_avail": 0,
      "fast_percent": 0.0,
      "latest_update": "20260713194307"
    },
    {
      "station_id": "IM000277",
      "name": "도곡1차아이파크",
      "address": "서울특별시 강남구 도곡로28길 8",
      "lat": "36.8000000",
      "lng": "127.1000000",
      "total_count": 6,
      "available_count": 5,
      "total_percent": 83.3,
      "slow_total": 6,
      "slow_avail": 5,
      "slow_percent": 83.3,
      "fast_total": 0,
      "fast_avail": 0,
      "fast_percent": 0.0,
      "latest_update": "20260713193928"
    },
    {
      "station_id": "IN120076",
      "name": "해성2빌딩",
      "address": "서울특별시 강남구 테헤란로 508",
      "lat": "37.5068",
      "lng": "127.058",
      "total_count": 6,
      "available_count": 0,
      "total_percent": 0.0,
      "slow_total": 6,
      "slow_avail": 0,
      "slow_percent": 0.0,
      "fast_total": 0,
      "fast_avail": 0,
      "fast_percent": 0.0,
      "latest_update": "20260615122840"
    },
    {
      "station_id": "KE000644",
      "name": "서울강남삼일프라자오피스텔",
      "address": "서울특별시 강남구 도곡로1길 14",
      "lat": "37.4909772",
      "lng": "127.0324631",
      "total_count": 6,
      "available_count": 5,
      "total_percent": 83.3,
      "slow_total": 6,
      "slow_avail": 5,
      "slow_percent": 83.3,
      "fast_total": 0,
      "fast_avail": 0,
      "fast_percent": 0.0,
      "latest_update": "20260713190409"
    },
    {
      "station_id": "KE000722",
      "name": "서울강남개포우성3차2",
      "address": "서울특별시 강남구 개포로 307",
      "lat": "37.4839674",
      "lng": "127.0560485",
      "total_count": 6,
      "available_count": 4,
      "total_percent": 66.7,
      "slow_total": 6,
      "slow_avail": 4,
      "slow_percent": 66.7,
      "fast_total": 0,
      "fast_avail": 0,
      "fast_percent": 0.0,
      "latest_update": "20260713201010"
    },
    {
      "station_id": "KE001331",
      "name": "서울강남삼일프라자오피스텔(지상)",
      "address": "서울특별시 강남구 도곡로1길 14",
      "lat": "37.4908945",
      "lng": "127.032442",
      "total_count": 6,
      "available_count": 6,
      "total_percent": 100.0,
      "slow_total": 6,
      "slow_avail": 6,
      "slow_percent": 100.0,
      "fast_total": 0,
      "fast_avail": 0,
      "fast_percent": 0.0,
      "latest_update": "20260713161410"
    },
    {
      "station_id": "LU002030",
      "name": "아크플레이스",
      "address": "서울특별시 강남구 테헤란로 142",
      "lat": "37.499744",
      "lng": "127.034955",
      "total_count": 6,
      "available_count": 6,
      "total_percent": 100.0,
      "slow_total": 6,
      "slow_avail": 6,
      "slow_percent": 100.0,
      "fast_total": 0,
      "fast_avail": 0,
      "fast_percent": 0.0,
      "latest_update": "20260713195553"
    },
    {
      "station_id": "LU002993",
      "name": "도곡현대비젼21",
      "address": "서울특별시 강남구 언주로30길 10",
      "lat": "37.487339",
      "lng": "127.051554",
      "total_count": 6,
      "available_count": 4,
      "total_percent": 66.7,
      "slow_total": 6,
      "slow_avail": 4,
      "slow_percent": 66.7,
      "fast_total": 0,
      "fast_avail": 0,
      "fast_percent": 0.0,
      "latest_update": "20260713200342"
    },
    {
      "station_id": "NT100434",
      "name": "강남 유탑유블레스오피스텔",
      "address": "서울특별시 강남구 자곡로 180",
      "lat": "37.4736734",
      "lng": "127.103202",
      "total_count": 6,
      "available_count": 5,
      "total_percent": 83.3,
      "slow_total": 6,
      "slow_avail": 5,
      "slow_percent": 83.3,
      "fast_total": 0,
      "fast_avail": 0,
      "fast_percent": 0.0,
      "latest_update": "20260713193750"
    },
    {
      "station_id": "NT101939",
      "name": "강남 상록수아파트",
      "address": "서울특별시 강남구 광평로10길 15",
      "lat": "37.48289",
      "lng": "127.08344",
      "total_count": 6,
      "available_count": 6,
      "total_percent": 100.0,
      "slow_total": 6,
      "slow_avail": 6,
      "slow_percent": 100.0,
      "fast_total": 0,
      "fast_avail": 0,
      "fast_percent": 0.0,
      "latest_update": "20260713122750"
    },
    {
      "station_id": "NT102218",
      "name": "강남 역삼푸르지오아파트",
      "address": "서울특별시 강남구 언주로 332",
      "lat": "37.49822",
      "lng": "127.04739",
      "total_count": 6,
      "available_count": 1,
      "total_percent": 16.7,
      "slow_total": 6,
      "slow_avail": 1,
      "slow_percent": 16.7,
      "fast_total": 0,
      "fast_avail": 0,
      "fast_percent": 0.0,
      "latest_update": "20260713200850"
    },
    {
      "station_id": "PC001171",
      "name": "도곡동경남아파트(강남)",
      "address": "서울특별시 강남구 논현로 209",
      "lat": "37.4887112",
      "lng": "127.0407966",
      "total_count": 6,
      "available_count": 2,
      "total_percent": 33.3,
      "slow_total": 6,
      "slow_avail": 2,
      "slow_percent": 33.3,
      "fast_total": 0,
      "fast_avail": 0,
      "fast_percent": 0.0,
      "latest_update": "20260713184230"
    },
    {
      "station_id": "PI204158",
      "name": "BMW차징스테이션 파르나스호텔",
      "address": "서울특별시 강남구 테헤란로 521",
      "lat": "37.509178025",
      "lng": "127.06075069",
      "total_count": 6,
      "available_count": 6,
      "total_percent": 100.0,
      "slow_total": 4,
      "slow_avail": 4,
      "slow_percent": 100.0,
      "fast_total": 2,
      "fast_avail": 2,
      "fast_percent": 100.0,
      "latest_update": "20260713194148"
    },
    {
      "station_id": "PI204245",
      "name": "서울시 강남구 린스퀘어",
      "address": "서울특별시 강남구 언주로30길 39",
      "lat": "37.488746210",
      "lng": "127.05321413",
      "total_count": 6,
      "available_count": 6,
      "total_percent": 100.0,
      "slow_total": 6,
      "slow_avail": 6,
      "slow_percent": 100.0,
      "fast_total": 0,
      "fast_avail": 0,
      "fast_percent": 0.0,
      "latest_update": "20260713193645"
    },
    {
      "station_id": "PI204250",
      "name": "서울시 강남구 록산개발",
      "address": "서울특별시 강남구 논현로 201",
      "lat": "37.4859562",
      "lng": "127.0409445",
      "total_count": 6,
      "available_count": 6,
      "total_percent": 100.0,
      "slow_total": 5,
      "slow_avail": 5,
      "slow_percent": 100.0,
      "fast_total": 1,
      "fast_avail": 1,
      "fast_percent": 100.0,
      "latest_update": "20260713145643"
    },
    {
      "station_id": "PI760636",
      "name": "강남브리즈힐",
      "address": "서울특별시 강남구 자곡로3길 45",
      "lat": "37.4722255",
      "lng": "127.0906853",
      "total_count": 6,
      "available_count": 4,
      "total_percent": 66.7,
      "slow_total": 6,
      "slow_avail": 4,
      "slow_percent": 66.7,
      "fast_total": 0,
      "fast_avail": 0,
      "fast_percent": 0.0,
      "latest_update": "20260713195109"
    },
    {
      "station_id": "BT000136",
      "name": "탄천2호 공영주차장",
      "address": "서울특별시 강남구 양재대로55길 28",
      "lat": "37.49413683",
      "lng": "127.0876941",
      "total_count": 5,
      "available_count": 1,
      "total_percent": 20.0,
      "slow_total": 0,
      "slow_avail": 0,
      "slow_percent": 0.0,
      "fast_total": 5,
      "fast_avail": 1,
      "fast_percent": 20.0,
      "latest_update": "20260713183647"
    },
    {
      "station_id": "CI0I0007",
      "name": "유니온센터",
      "address": "서울특별시 강남구 강남대로 310",
      "lat": "37.4909898",
      "lng": "127.0315025",
      "total_count": 5,
      "available_count": 5,
      "total_percent": 100.0,
      "slow_total": 5,
      "slow_avail": 5,
      "slow_percent": 100.0,
      "fast_total": 0,
      "fast_avail": 0,
      "fast_percent": 0.0,
      "latest_update": "20260713193413"
    },
    {
      "station_id": "CU200032",
      "name": "아남타워",
      "address": "서울특별시 강남구 테헤란로 311",
      "lat": "37.5038134",
      "lng": "127.044811",
      "total_count": 5,
      "available_count": 4,
      "total_percent": 80.0,
      "slow_total": 5,
      "slow_avail": 4,
      "slow_percent": 80.0,
      "fast_total": 0,
      "fast_avail": 0,
      "fast_percent": 0.0,
      "latest_update": "20260713181513"
    },
    {
      "station_id": "CV000883",
      "name": "밤고개로21길 공영주차장",
      "address": "서울특별시 강남구 밤고개로21길 71",
      "lat": "37.473817",
      "lng": "127.114743",
      "total_count": 5,
      "available_count": 5,
      "total_percent": 100.0,
      "slow_total": 0,
      "slow_avail": 0,
      "slow_percent": 0.0,
      "fast_total": 5,
      "fast_avail": 5,
      "fast_percent": 100.0,
      "latest_update": "20260713195020"
    },
    {
      "station_id": "CV001064",
      "name": "수서역공영주차장",
      "address": "서울특별시 강남구 수서동 735번지",
      "lat": "37.4874652",
      "lng": "127.099921",
      "total_count": 5,
      "available_count": 4,
      "total_percent": 80.0,
      "slow_total": 3,
      "slow_avail": 2,
      "slow_percent": 66.7,
      "fast_total": 2,
      "fast_avail": 2,
      "fast_percent": 100.0,
      "latest_update": "20260713190021"
    },
    {
      "station_id": "CV003959",
      "name": "청담스퀘어",
      "address": "서울특별시 강남구 도산대로 420",
      "lat": "37.523051000",
      "lng": "127.04208800",
      "total_count": 5,
      "available_count": 4,
      "total_percent": 80.0,
      "slow_total": 4,
      "slow_avail": 3,
      "slow_percent": 75.0,
      "fast_total": 1,
      "fast_avail": 1,
      "fast_percent": 100.0,
      "latest_update": "20260713195050"
    },
    {
      "station_id": "CV003990",
      "name": "도곡동타워팰리스",
      "address": "서울특별시 강남구 언주로30길 26",
      "lat": "37.48775",
      "lng": "127.052532",
      "total_count": 5,
      "available_count": 3,
      "total_percent": 60.0,
      "slow_total": 5,
      "slow_avail": 3,
      "slow_percent": 60.0,
      "fast_total": 0,
      "fast_avail": 0,
      "fast_percent": 0.0,
      "latest_update": "20260713195544"
    },
    {
      "station_id": "EC004070",
      "name": "대치동 KTNG",
      "address": "서울특별시 강남구 영동대로 416",
      "lat": "37.5066326",
      "lng": "127.0652019",
      "total_count": 5,
      "available_count": 2,
      "total_percent": 40.0,
      "slow_total": 5,
      "slow_avail": 2,
      "slow_percent": 40.0,
      "fast_total": 0,
      "fast_avail": 0,
      "fast_percent": 0.0,
      "latest_update": "20260713200002"
    },
    {
      "station_id": "EV001727",
      "name": "LH강남브리즈힐",
      "address": "서울특별시 강남구 자곡로3길 45 (자곡동, LH 강남브리즈힐)",
      "lat": "37.4722238",
      "lng": "127.0906869",
      "total_count": 5,
      "available_count": 3,
      "total_percent": 60.0,
      "slow_total": 5,
      "slow_avail": 3,
      "slow_percent": 60.0,
      "fast_total": 0,
      "fast_avail": 0,
      "fast_percent": 0.0,
      "latest_update": "20260713185007"
    },
    {
      "station_id": "EV001923",
      "name": "도곡1차아이파크",
      "address": "서울특별시 강남구 도곡로28길 8",
      "lat": "37.4923",
      "lng": "127.0439477",
      "total_count": 5,
      "available_count": 2,
      "total_percent": 40.0,
      "slow_total": 5,
      "slow_avail": 2,
      "slow_percent": 40.0,
      "fast_total": 0,
      "fast_avail": 0,
      "fast_percent": 0.0,
      "latest_update": "20260713184159"
    },
    {
      "station_id": "EV002850",
      "name": "서울강남 역삼아이파크205동",
      "address": "서울특별시 강남구 역삼로 307",
      "lat": "37.4997371",
      "lng": "127.0472995",
      "total_count": 5,
      "available_count": 3,
      "total_percent": 60.0,
      "slow_total": 5,
      "slow_avail": 3,
      "slow_percent": 60.0,
      "fast_total": 0,
      "fast_avail": 0,
      "fast_percent": 0.0,
      "latest_update": "20260713173318"
    },
    {
      "station_id": "EV002851",
      "name": "서울강남 역삼아이파크204동",
      "address": "서울특별시 강남구 역삼로 307",
      "lat": "37.4994131",
      "lng": "127.0465133",
      "total_count": 5,
      "available_count": 1,
      "total_percent": 20.0,
      "slow_total": 5,
      "slow_avail": 1,
      "slow_percent": 20.0,
      "fast_total": 0,
      "fast_avail": 0,
      "fast_percent": 0.0,
      "latest_update": "20260713182145"
    },
    {
      "station_id": "EV003254",
      "name": "서울강남_청담린든그로브",
      "address": "서울특별시 강남구 학동로97길 51",
      "lat": "37.5227273",
      "lng": "127.053165",
      "total_count": 5,
      "available_count": 5,
      "total_percent": 100.0,
      "slow_total": 5,
      "slow_avail": 5,
      "slow_percent": 100.0,
      "fast_total": 0,
      "fast_avail": 0,
      "fast_percent": 0.0,
      "latest_update": "20260713154920"
    },
    {
      "station_id": "EV003466",
      "name": "서울_강남센트럴푸르지오시티1",
      "address": "서울특별시 강남구 테헤란로4길 6",
      "lat": "37.4976674",
      "lng": "127.0292863",
      "total_count": 5,
      "available_count": 0,
      "total_percent": 0.0,
      "slow_total": 5,
      "slow_avail": 0,
      "slow_percent": 0.0,
      "fast_total": 0,
      "fast_avail": 0,
      "fast_percent": 0.0,
      "latest_update": "20260324152923"
    },
    {
      "station_id": "EV005606",
      "name": "서울강남 대치아이파크아파트2",
      "address": "서울특별시 강남구 선릉로 222",
      "lat": "37.496220486",
      "lng": "127.05367528",
      "total_count": 5,
      "available_count": 4,
      "total_percent": 80.0,
      "slow_total": 5,
      "slow_avail": 4,
      "slow_percent": 80.0,
      "fast_total": 0,
      "fast_avail": 0,
      "fast_percent": 0.0,
      "latest_update": "20260713192229"
    },
    {
      "station_id": "EV005993",
      "name": "서울강남 청담파라곤2차2단지",
      "address": "서울특별시 강남구 선릉로190길 68",
      "lat": "37.5288003",
      "lng": "127.0470468",
      "total_count": 5,
      "available_count": 5,
      "total_percent": 100.0,
      "slow_total": 5,
      "slow_avail": 5,
      "slow_percent": 100.0,
      "fast_total": 0,
      "fast_avail": 0,
      "fast_percent": 0.0,
      "latest_update": "20260710154937"
    },
    {
      "station_id": "EV010582",
      "name": "서울강남 래미안대치하이스턴4(콘센트)",
      "address": "서울특별시 강남구 도곡로93길 12",
      "lat": "37.501066605",
      "lng": "127.06520274",
      "total_count": 5,
      "available_count": 4,
      "total_percent": 80.0,
      "slow_total": 5,
      "slow_avail": 4,
      "slow_percent": 80.0,
      "fast_total": 0,
      "fast_avail": 0,
      "fast_percent": 0.0,
      "latest_update": "20260713100441"
    },
    {
      "station_id": "EV010585",
      "name": "서울강남 래미안대치하이스턴7(콘센트)",
      "address": "서울특별시 강남구 도곡로93길 12",
      "lat": "37.5015124",
      "lng": "127.0654747",
      "total_count": 5,
      "available_count": 4,
      "total_percent": 80.0,
      "slow_total": 5,
      "slow_avail": 4,
      "slow_percent": 80.0,
      "fast_total": 0,
      "fast_avail": 0,
      "fast_percent": 0.0,
      "latest_update": "20260713184602"
    },
    {
      "station_id": "EV012999",
      "name": "서울강남 대치선경2차아파트 2",
      "address": "서울특별시 강남구 삼성로 151",
      "lat": "37.493155",
      "lng": "127.063",
      "total_count": 5,
      "available_count": 1,
      "total_percent": 20.0,
      "slow_total": 5,
      "slow_avail": 1,
      "slow_percent": 20.0,
      "fast_total": 0,
      "fast_avail": 0,
      "fast_percent": 0.0,
      "latest_update": "20260713185413"
    },
    {
      "station_id": "EV015296",
      "name": "서울강남 대치선경2차아파트 4",
      "address": "서울특별시 강남구 삼성로 151 (대치동, 선경아파트)",
      "lat": "37.4931550",
      "lng": "127.0630000",
      "total_count": 5,
      "available_count": 0,
      "total_percent": 0.0,
      "slow_total": 5,
      "slow_avail": 0,
      "slow_percent": 0.0,
      "fast_total": 0,
      "fast_avail": 0,
      "fast_percent": 0.0,
      "latest_update": "20260713193638"
    },
    {
      "station_id": "EV017934",
      "name": "서울강남 개포자이프레지던스 24",
      "address": "서울특별시 강남구 삼성로 14",
      "lat": "37.4861548",
      "lng": "127.0684510",
      "total_count": 5,
      "available_count": 3,
      "total_percent": 60.0,
      "slow_total": 5,
      "slow_avail": 3,
      "slow_percent": 60.0,
      "fast_total": 0,
      "fast_avail": 0,
      "fast_percent": 0.0,
      "latest_update": "20260713195652"
    },
    {
      "station_id": "HE212804",
      "name": "역삼동부센트레빌아파트",
      "address": "서울특별시 강남구 선릉로 423",
      "lat": "37.502366",
      "lng": "127.049404",
      "total_count": 5,
      "available_count": 4,
      "total_percent": 80.0,
      "slow_total": 5,
      "slow_avail": 4,
      "slow_percent": 80.0,
      "fast_total": 0,
      "fast_avail": 0,
      "fast_percent": 0.0,
      "latest_update": "20260713182900"
    },
    {
      "station_id": "HM110101",
      "name": " _카이트타워",
      "address": "서울특별시 강남구 테헤란로 306",
      "lat": "37.5025953",
      "lng": "127.044102",
      "total_count": 5,
      "available_count": 5,
      "total_percent": 100.0,
      "slow_total": 5,
      "slow_avail": 5,
      "slow_percent": 100.0,
      "fast_total": 0,
      "fast_avail": 0,
      "fast_percent": 0.0,
      "latest_update": "20260713190416"
    },
    {
      "station_id": "HM110167",
      "name": "_메리츠화재 강남사옥",
      "address": "서울특별시 강남구 강남대로 382",
      "lat": "37.4970487",
      "lng": "127.0286271",
      "total_count": 5,
      "available_count": 5,
      "total_percent": 100.0,
      "slow_total": 5,
      "slow_avail": 5,
      "slow_percent": 100.0,
      "fast_total": 0,
      "fast_avail": 0,
      "fast_percent": 0.0,
      "latest_update": "20260713180819"
    },
    {
      "station_id": "HY001705",
      "name": "강남 동부센트레빌",
      "address": "서울특별시 강남구 선릉로 423",
      "lat": "37.5024375",
      "lng": "127.0493601",
      "total_count": 5,
      "available_count": 5,
      "total_percent": 100.0,
      "slow_total": 5,
      "slow_avail": 5,
      "slow_percent": 100.0,
      "fast_total": 0,
      "fast_avail": 0,
      "fast_percent": 0.0,
      "latest_update": "20260711142203"
    },
    {
      "station_id": "HY001730",
      "name": "대치 롯데캐슬",
      "address": "서울특별시 강남구 삼성로85길 11",
      "lat": "37.5045993",
      "lng": "127.0561865",
      "total_count": 5,
      "available_count": 3,
      "total_percent": 60.0,
      "slow_total": 5,
      "slow_avail": 3,
      "slow_percent": 60.0,
      "fast_total": 0,
      "fast_avail": 0,
      "fast_percent": 0.0,
      "latest_update": "20260713193305"
    },
    {
      "station_id": "IN120062",
      "name": "거평타운오피스텔",
      "address": "서울특별시 강남구 봉은사로 129",
      "lat": "37.5058",
      "lng": "127.0282",
      "total_count": 5,
      "available_count": 0,
      "total_percent": 0.0,
      "slow_total": 5,
      "slow_avail": 0,
      "slow_percent": 0.0,
      "fast_total": 0,
      "fast_avail": 0,
      "fast_percent": 0.0,
      "latest_update": "20260615122839"
    },
    {
      "station_id": "IN120097",
      "name": "삼성동롯데아파트",
      "address": "서울특별시 강남구 학동로 432",
      "lat": "37.5178",
      "lng": "127.0486",
      "total_count": 5,
      "available_count": 0,
      "total_percent": 0.0,
      "slow_total": 5,
      "slow_avail": 0,
      "slow_percent": 0.0,
      "fast_total": 0,
      "fast_avail": 0,
      "fast_percent": 0.0,
      "latest_update": "20260615122841"
    },
    {
      "station_id": "KE000195",
      "name": "서울강남삼성풍림1차",
      "address": "서울특별시 강남구 영동대로112길 15",
      "lat": "37.5155186",
      "lng": "127.0615148",
      "total_count": 5,
      "available_count": 4,
      "total_percent": 80.0,
      "slow_total": 5,
      "slow_avail": 4,
      "slow_percent": 80.0,
      "fast_total": 0,
      "fast_avail": 0,
      "fast_percent": 0.0,
      "latest_update": "20260713175210"
    },
    {
      "station_id": "KE000672",
      "name": "서울강남현대까르띠에710",
      "address": "서울특별시 강남구 언주로86길 12",
      "lat": "37.5017675",
      "lng": "127.0445268",
      "total_count": 5,
      "available_count": 3,
      "total_percent": 60.0,
      "slow_total": 5,
      "slow_avail": 3,
      "slow_percent": 60.0,
      "fast_total": 0,
      "fast_avail": 0,
      "fast_percent": 0.0,
      "latest_update": "20260713195411"
    },
    {
      "station_id": "KE000699",
      "name": "서울강남대치쌍용",
      "address": "서울특별시 강남구 영동대로 210",
      "lat": "37.4989572",
      "lng": "127.0721507",
      "total_count": 5,
      "available_count": 3,
      "total_percent": 60.0,
      "slow_total": 5,
      "slow_avail": 3,
      "slow_percent": 60.0,
      "fast_total": 0,
      "fast_avail": 0,
      "fast_percent": 0.0,
      "latest_update": "20260713192710"
    },
    {
      "station_id": "KL001940",
      "name": "삼성동힐스테이트1단지",
      "address": "서울특별시 강남구 학동로68길 29",
      "lat": "37.5166086",
      "lng": "127.0488347",
      "total_count": 5,
      "available_count": 4,
      "total_percent": 80.0,
      "slow_total": 5,
      "slow_avail": 4,
      "slow_percent": 80.0,
      "fast_total": 0,
      "fast_avail": 0,
      "fast_percent": 0.0,
      "latest_update": "20260713191001"
    },
    {
      "station_id": "KL001949",
      "name": "한아름아파트",
      "address": "서울특별시 강남구 광평로51길 22",
      "lat": "37.4893132",
      "lng": "127.1034314",
      "total_count": 5,
      "available_count": 4,
      "total_percent": 80.0,
      "slow_total": 5,
      "slow_avail": 4,
      "slow_percent": 80.0,
      "fast_total": 0,
      "fast_avail": 0,
      "fast_percent": 0.0,
      "latest_update": "20260713183502"
    },
    {
      "station_id": "KL002025",
      "name": "래미안대치팰리스2단지아파트",
      "address": "서울특별시 강남구 삼성로51길 37",
      "lat": "37.4943775",
      "lng": "127.0578382",
      "total_count": 5,
      "available_count": 2,
      "total_percent": 40.0,
      "slow_total": 5,
      "slow_avail": 2,
      "slow_percent": 40.0,
      "fast_total": 0,
      "fast_avail": 0,
      "fast_percent": 0.0,
      "latest_update": "20260713183401"
    },
    {
      "station_id": "KP000743",
      "name": "타워팰리스1차",
      "address": "서울특별시 강남구 도곡동 언주로30길 56",
      "lat": "37.4880682608",
      "lng": "127.0534828799",
      "total_count": 5,
      "available_count": 3,
      "total_percent": 60.0,
      "slow_total": 4,
      "slow_avail": 2,
      "slow_percent": 50.0,
      "fast_total": 1,
      "fast_avail": 1,
      "fast_percent": 100.0,
      "latest_update": "20260713201009"
    },
    {
      "station_id": "KP001814",
      "name": "강남한양수자인",
      "address": "서울특별시 강남구 자곡동 자곡로 260",
      "lat": "37.475905",
      "lng": "127.112986",
      "total_count": 5,
      "available_count": 4,
      "total_percent": 80.0,
      "slow_total": 4,
      "slow_avail": 3,
      "slow_percent": 75.0,
      "fast_total": 1,
      "fast_avail": 1,
      "fast_percent": 100.0,
      "latest_update": "20260713195009"
    },
    {
      "station_id": "KP002357",
      "name": "LH강남힐스테이트",
      "address": "서울특별시 강남구 자곡동 자곡로3길 21 ",
      "lat": "37.4717680762",
      "lng": "127.0881179237",
      "total_count": 5,
      "available_count": 4,
      "total_percent": 80.0,
      "slow_total": 4,
      "slow_avail": 3,
      "slow_percent": 75.0,
      "fast_total": 1,
      "fast_avail": 1,
      "fast_percent": 100.0,
      "latest_update": "20260713191022"
    },
    {
      "station_id": "KP002891",
      "name": "역삼래미안",
      "address": "서울특별시 강남구 역삼동 757",
      "lat": "37.4981410336",
      "lng": "127.050493262",
      "total_count": 5,
      "available_count": 2,
      "total_percent": 40.0,
      "slow_total": 4,
      "slow_avail": 1,
      "slow_percent": 25.0,
      "fast_total": 1,
      "fast_avail": 1,
      "fast_percent": 100.0,
      "latest_update": "20260713190018"
    },
    {
      "station_id": "LU001193",
      "name": "DB금융센터",
      "address": "서울특별시 강남구 테헤란로 432",
      "lat": "37.505881",
      "lng": "127.054811",
      "total_count": 5,
      "available_count": 5,
      "total_percent": 100.0,
      "slow_total": 5,
      "slow_avail": 5,
      "slow_percent": 100.0,
      "fast_total": 0,
      "fast_avail": 0,
      "fast_percent": 0.0,
      "latest_update": "20260713165617"
    },
    {
      "station_id": "LU001881",
      "name": "압구정한양아파트2단지",
      "address": "서울특별시 강남구 압구정로 313",
      "lat": "37.529874",
      "lng": "127.035996",
      "total_count": 5,
      "available_count": 1,
      "total_percent": 20.0,
      "slow_total": 5,
      "slow_avail": 1,
      "slow_percent": 20.0,
      "fast_total": 0,
      "fast_avail": 0,
      "fast_percent": 0.0,
      "latest_update": "20260713200918"
    },
    {
      "station_id": "NT101110",
      "name": "강남 대우아이빌명문가아파트",
      "address": "서울특별시 강남구 선릉로90길 56",
      "lat": "37.505031125",
      "lng": "127.05383129",
      "total_count": 5,
      "available_count": 2,
      "total_percent": 40.0,
      "slow_total": 5,
      "slow_avail": 2,
      "slow_percent": 40.0,
      "fast_total": 0,
      "fast_avail": 0,
      "fast_percent": 0.0,
      "latest_update": "20260713195150"
    },
    {
      "station_id": "PI121926",
      "name": "역삼자이아파트",
      "address": "서울특별시 강남구 언주로 420 (역삼동, 역삼자이아파트) 101동~103동",
      "lat": "37.5013",
      "lng": "127.044",
      "total_count": 5,
      "available_count": 3,
      "total_percent": 60.0,
      "slow_total": 5,
      "slow_avail": 3,
      "slow_percent": 60.0,
      "fast_total": 0,
      "fast_avail": 0,
      "fast_percent": 0.0,
      "latest_update": "20260713182252"
    },
    {
      "station_id": "PI200740",
      "name": "서울시 강남구 강남더샵라르고",
      "address": "서울특별시 강남구 자곡로 201",
      "lat": "37.475377585",
      "lng": "127.10471385",
      "total_count": 5,
      "available_count": 5,
      "total_percent": 100.0,
      "slow_total": 5,
      "slow_avail": 5,
      "slow_percent": 100.0,
      "fast_total": 0,
      "fast_avail": 0,
      "fast_percent": 0.0,
      "latest_update": "20260713125625"
    },
    {
      "station_id": "PI200751",
      "name": "서울시 강남구 디에이치포레센트",
      "address": "서울특별시 강남구 개포로110길 38",
      "lat": "37.4903572",
      "lng": "127.0781799",
      "total_count": 5,
      "available_count": 3,
      "total_percent": 60.0,
      "slow_total": 5,
      "slow_avail": 3,
      "slow_percent": 60.0,
      "fast_total": 0,
      "fast_avail": 0,
      "fast_percent": 0.0,
      "latest_update": "20260713200128"
    },
    {
      "station_id": "PI200771",
      "name": "서울시 강남구 강남에이스타워",
      "address": "서울특별시 강남구 자곡로 174-10",
      "lat": "37.472674243",
      "lng": "127.10301933",
      "total_count": 5,
      "available_count": 3,
      "total_percent": 60.0,
      "slow_total": 5,
      "slow_avail": 3,
      "slow_percent": 60.0,
      "fast_total": 0,
      "fast_avail": 0,
      "fast_percent": 0.0,
      "latest_update": "20260713194620"
    },
    {
      "station_id": "PI200776",
      "name": "서울시 강남구 선릉대림아크로텔",
      "address": "서울특별시 강남구 선릉로 524",
      "lat": "37.506655067",
      "lng": "127.04838618",
      "total_count": 5,
      "available_count": 4,
      "total_percent": 80.0,
      "slow_total": 5,
      "slow_avail": 4,
      "slow_percent": 80.0,
      "fast_total": 0,
      "fast_avail": 0,
      "fast_percent": 0.0,
      "latest_update": "20260713191710"
    },
    {
      "station_id": "BNAJ5402",
      "name": "서울본부세관",
      "address": "서울특별시 강남구 언주로 721",
      "lat": "37.518303",
      "lng": "127.033965",
      "total_count": 4,
      "available_count": 4,
      "total_percent": 100.0,
      "slow_total": 2,
      "slow_avail": 2,
      "slow_percent": 100.0,
      "fast_total": 2,
      "fast_avail": 2,
      "fast_percent": 100.0,
      "latest_update": "20260713142022"
    },
    {
      "station_id": "BT000130",
      "name": "도곡초등학교 공영주차장",
      "address": "서울특별시 강남구 선릉로64길 33",
      "lat": "37.49906117",
      "lng": "127.0546703",
      "total_count": 4,
      "available_count": 2,
      "total_percent": 50.0,
      "slow_total": 4,
      "slow_avail": 2,
      "slow_percent": 50.0,
      "fast_total": 0,
      "fast_avail": 0,
      "fast_percent": 0.0,
      "latest_update": "20260713200202"
    },
    {
      "station_id": "BT000131",
      "name": "신구초등학교 공영주차장",
      "address": "서울특별시 강남구 압구정로18길 28",
      "lat": "37.52311907",
      "lng": "127.0241859",
      "total_count": 4,
      "available_count": 2,
      "total_percent": 50.0,
      "slow_total": 4,
      "slow_avail": 2,
      "slow_percent": 50.0,
      "fast_total": 0,
      "fast_avail": 0,
      "fast_percent": 0.0,
      "latest_update": "20260713195443"
    },
    {
      "station_id": "BT000142",
      "name": "언북초등학교 공영주차장",
      "address": "서울특별시 강남구 삼성로135길 42",
      "lat": "37.52012517",
      "lng": "127.0447158",
      "total_count": 4,
      "available_count": 2,
      "total_percent": 50.0,
      "slow_total": 0,
      "slow_avail": 0,
      "slow_percent": 0.0,
      "fast_total": 4,
      "fast_avail": 2,
      "fast_percent": 50.0,
      "latest_update": "20260713175045"
    },
    {
      "station_id": "CV000605",
      "name": "아세아타워빌딩2",
      "address": "서울특별시 강남구 논현로 430",
      "lat": "37.499563",
      "lng": "127.038455",
      "total_count": 4,
      "available_count": 4,
      "total_percent": 100.0,
      "slow_total": 4,
      "slow_avail": 4,
      "slow_percent": 100.0,
      "fast_total": 0,
      "fast_avail": 0,
      "fast_percent": 0.0,
      "latest_update": "20260713112518"
    },
    {
      "station_id": "CV001442",
      "name": "헌릉로745길 공영노상주차장",
      "address": "서울특별시 강남구 헌릉로745길 51",
      "lat": "37.470347",
      "lng": "127.1179658",
      "total_count": 4,
      "available_count": 3,
      "total_percent": 75.0,
      "slow_total": 0,
      "slow_avail": 0,
      "slow_percent": 0.0,
      "fast_total": 4,
      "fast_avail": 3,
      "fast_percent": 75.0,
      "latest_update": "20260713194522"
    },
    {
      "station_id": "CV001458",
      "name": "역삼문화공원 지하3층주차장",
      "address": "서울특별시 강남구 테헤란로7길 21",
      "lat": "37.500888",
      "lng": "127.029673",
      "total_count": 4,
      "available_count": 4,
      "total_percent": 100.0,
      "slow_total": 0,
      "slow_avail": 0,
      "slow_percent": 0.0,
      "fast_total": 4,
      "fast_avail": 4,
      "fast_percent": 100.0,
      "latest_update": "20260713191521"
    },
    {
      "station_id": "CV002017",
      "name": "역삼문화공원 지하4층주차장",
      "address": "서울특별시 강남구 테헤란로7길 21",
      "lat": "37.50050350",
      "lng": "127.0302568",
      "total_count": 4,
      "available_count": 4,
      "total_percent": 100.0,
      "slow_total": 0,
      "slow_avail": 0,
      "slow_percent": 0.0,
      "fast_total": 4,
      "fast_avail": 4,
      "fast_percent": 100.0,
      "latest_update": "20260713154030"
    },
    {
      "station_id": "CV003960",
      "name": "삼성생명일원역빌딩 지하3층",
      "address": "서울특별시 강남구 일원로 115",
      "lat": "37.484027999",
      "lng": "127.084446",
      "total_count": 4,
      "available_count": 4,
      "total_percent": 100.0,
      "slow_total": 3,
      "slow_avail": 3,
      "slow_percent": 100.0,
      "fast_total": 1,
      "fast_avail": 1,
      "fast_percent": 100.0,
      "latest_update": "20260713193047"
    },
    {
      "station_id": "CV004684",
      "name": "까치마을아파트 5동",
      "address": "서울특별시 강남구 광평로19길 10",
      "lat": "37.484084",
      "lng": "127.087335",
      "total_count": 4,
      "available_count": 1,
      "total_percent": 25.0,
      "slow_total": 4,
      "slow_avail": 1,
      "slow_percent": 25.0,
      "fast_total": 0,
      "fast_avail": 0,
      "fast_percent": 0.0,
      "latest_update": "20260713201053"
    },
    {
      "station_id": "CV004685",
      "name": "까치마을아파트 3동",
      "address": "서울특별시 강남구 광평로19길 10",
      "lat": "37.484084",
      "lng": "127.087335",
      "total_count": 4,
      "available_count": 2,
      "total_percent": 50.0,
      "slow_total": 4,
      "slow_avail": 2,
      "slow_percent": 50.0,
      "fast_total": 0,
      "fast_avail": 0,
      "fast_percent": 0.0,
      "latest_update": "20260713201053"
    },
    {
      "station_id": "CV004686",
      "name": "까치마을아파트 1동",
      "address": "서울특별시 강남구 광평로19길 10",
      "lat": "37.484084",
      "lng": "127.087335",
      "total_count": 4,
      "available_count": 4,
      "total_percent": 100.0,
      "slow_total": 4,
      "slow_avail": 4,
      "slow_percent": 100.0,
      "fast_total": 0,
      "fast_avail": 0,
      "fast_percent": 0.0,
      "latest_update": "20260713194047"
    },
    {
      "station_id": "EP200401",
      "name": "서울 포스코트아파트",
      "address": "서울특별시 강남구 남부순환로381길 15",
      "lat": "37.4879363",
      "lng": "127.0476656",
      "total_count": 4,
      "available_count": 0,
      "total_percent": 0.0,
      "slow_total": 4,
      "slow_avail": 0,
      "slow_percent": 0.0,
      "fast_total": 0,
      "fast_avail": 0,
      "fast_percent": 0.0,
      "latest_update": "20260324150039"
    },
    {
      "station_id": "EP210111",
      "name": "개포래미안포레스트1(A블럭 105동 B4F)",
      "address": "서울특별시 강남구 개포로 264",
      "lat": "37.4800746",
      "lng": "127.0533075",
      "total_count": 4,
      "available_count": 0,
      "total_percent": 0.0,
      "slow_total": 4,
      "slow_avail": 0,
      "slow_percent": 0.0,
      "fast_total": 0,
      "fast_avail": 0,
      "fast_percent": 0.0,
      "latest_update": "20260324150039"
    },
    {
      "station_id": "EP210112",
      "name": "개포래미안포레스트2(A블럭 108동 B4F)",
      "address": "서울특별시 강남구 개포로 264",
      "lat": "37.4797231",
      "lng": "127.05359",
      "total_count": 4,
      "available_count": 0,
      "total_percent": 0.0,
      "slow_total": 4,
      "slow_avail": 0,
      "slow_percent": 0.0,
      "fast_total": 0,
      "fast_avail": 0,
      "fast_percent": 0.0,
      "latest_update": "20260324150039"
    },
    {
      "station_id": "EP220045",
      "name": "군인공제회관(직원전용)",
      "address": "서울특별시 강남구 남부순환로 2806",
      "lat": "37.4891092",
      "lng": "127.0529141",
      "total_count": 4,
      "available_count": 0,
      "total_percent": 0.0,
      "slow_total": 4,
      "slow_avail": 0,
      "slow_percent": 0.0,
      "fast_total": 0,
      "fast_avail": 0,
      "fast_percent": 0.0,
      "latest_update": "20260324150039"
    },
    {
      "station_id": "EV005820",
      "name": "서울강남 도곡쌍용예가아파트",
      "address": "서울특별시 강남구 남부순환로363길 30",
      "lat": "37.488450718",
      "lng": "127.03848695",
      "total_count": 4,
      "available_count": 4,
      "total_percent": 100.0,
      "slow_total": 4,
      "slow_avail": 4,
      "slow_percent": 100.0,
      "fast_total": 0,
      "fast_avail": 0,
      "fast_percent": 0.0,
      "latest_update": "20260713031837"
    },
    {
      "station_id": "EV006829",
      "name": "서울강남 강남역효성헤링턴타워",
      "address": "서울특별시 강남구 강남대로84길 15",
      "lat": "37.4970034",
      "lng": "127.0298357",
      "total_count": 4,
      "available_count": 3,
      "total_percent": 75.0,
      "slow_total": 4,
      "slow_avail": 3,
      "slow_percent": 75.0,
      "fast_total": 0,
      "fast_avail": 0,
      "fast_percent": 0.0,
      "latest_update": "20260713195652"
    },