{
  "district": "용산구",
  "zscode": "11170",
  "summary": {
    "total_count": 2129,
    "available_count": 1538,
    "total_percent": 72.2,
    "slow_total": 1994,
    "slow_avail": 1432,
    "slow_percent": 71.8,
    "fast_total": 135,
    "fast_avail": 106,
    "fast_percent": 78.5,
    "station_count": 382
  },
  "stations": [
    {
      "station_id": "SF002749",
      "name": "도원삼성래미안아파트",
      "address": "서울특별시 용산구 새창로 70",
      "lat": "37.538603053",
      "lng": "126.95494349",
      "total_count": 100,
      "available_count": 92,
      "total_percent": 92.0,
      "slow_total": 100,
      "slow_avail": 92,
      "slow_percent": 92.0,
      "fast_total": 0,
      "fast_avail": 0,
      "fast_percent": 0.0,
      "latest_update": "20260713200440"
    },
    {
      "station_id": "SF002809",
      "name": "용산e편한세상",
      "address": "서울특별시 용산구 원효로 216",
      "lat": "37.536723363",
      "lng": "126.96652716",
      "total_count": 100,
      "available_count": 98,
      "total_percent": 98.0,
      "slow_total": 100,
      "slow_avail": 98,
      "slow_percent": 98.0,
      "fast_total": 0,
      "fast_avail": 0,
      "fast_percent": 0.0,
      "latest_update": "20260713182933"
    },
    {
      "station_id": "PIH00124",
      "name": "서울 한강로3가 용산센트럴파크아파트",
      "address": "서울특별시 용산구 서빙고로 17",
      "lat": "37.525645962",
      "lng": "126.96734833",
      "total_count": 99,
      "available_count": 89,
      "total_percent": 89.9,
      "slow_total": 99,
      "slow_avail": 89,
      "slow_percent": 89.9,
      "fast_total": 0,
      "fast_avail": 0,
      "fast_percent": 0.0,
      "latest_update": "20260713200244"
    },
    {
      "station_id": "SF002966",
      "name": "도원삼성래미안아파트 (2)",
      "address": "서울특별시 용산구 새창로 70",
      "lat": "37.538603053",
      "lng": "126.95494349",
      "total_count": 45,
      "available_count": 45,
      "total_percent": 100.0,
      "slow_total": 45,
      "slow_avail": 45,
      "slow_percent": 100.0,
      "fast_total": 0,
      "fast_avail": 0,
      "fast_percent": 0.0,
      "latest_update": "20260713155430"
    },
    {
      "station_id": "NT100477",
      "name": "용산 HDC아이파크몰",
      "address": "서울특별시 용산구 한강대로23길 55",
      "lat": "37.5297718",
      "lng": "126.9647415",
      "total_count": 44,
      "available_count": 37,
      "total_percent": 84.1,
      "slow_total": 36,
      "slow_avail": 30,
      "slow_percent": 83.3,
      "fast_total": 8,
      "fast_avail": 7,
      "fast_percent": 87.5,
      "latest_update": "20260713195750"
    },
    {
      "station_id": "PWE00619",
      "name": "한가람아파트",
      "address": "서울특별시 용산구 이촌로65길 8",
      "lat": "37.52049",
      "lng": "126.97298",
      "total_count": 40,
      "available_count": 36,
      "total_percent": 90.0,
      "slow_total": 40,
      "slow_avail": 36,
      "slow_percent": 90.0,
      "fast_total": 0,
      "fast_avail": 0,
      "fast_percent": 0.0,
      "latest_update": "20260713200324"
    },
    {
      "station_id": "ME22M302",
      "name": "용산 전쟁기념관 지하 주차장",
      "address": "서울특별시 용산구 이태원로 29",
      "lat": "37.5355",
      "lng": "126.9772",
      "total_count": 36,
      "available_count": 32,
      "total_percent": 88.9,
      "slow_total": 32,
      "slow_avail": 28,
      "slow_percent": 87.5,
      "fast_total": 4,
      "fast_avail": 4,
      "fast_percent": 100.0,
      "latest_update": "20260713200606"
    },
    {
      "station_id": "NT100114",
      "name": "용산 센트럴파크해링턴",
      "address": "서울특별시 용산구 서빙고로 17",
      "lat": "37.5269056",
      "lng": "126.9665662",
      "total_count": 32,
      "available_count": 25,
      "total_percent": 78.1,
      "slow_total": 32,
      "slow_avail": 25,
      "slow_percent": 78.1,
      "fast_total": 0,
      "fast_avail": 0,
      "fast_percent": 0.0,
      "latest_update": "20260713195350"
    },
    {
      "station_id": "PL001850",
      "name": "파크타워",
      "address": "서울 용산구 서빙고로 67",
      "lat": "37.5248628",
      "lng": "126.9704127",
      "total_count": 30,
      "available_count": 18,
      "total_percent": 60.0,
      "slow_total": 30,
      "slow_avail": 18,
      "slow_percent": 60.0,
      "fast_total": 0,
      "fast_avail": 0,
      "fast_percent": 0.0,
      "latest_update": "20260713193021"
    },
    {
      "station_id": "ER000477",
      "name": "나인원한남",
      "address": "서울 용산구 한남대로 91",
      "lat": "37.5365601",
      "lng": "127.0021341",
      "total_count": 25,
      "available_count": 16,
      "total_percent": 64.0,
      "slow_total": 25,
      "slow_avail": 16,
      "slow_percent": 64.0,
      "fast_total": 0,
      "fast_avail": 0,
      "fast_percent": 0.0,
      "latest_update": "20260713191223"
    },
    {
      "station_id": "KP000120",
      "name": "용산역 아이파크몰",
      "address": "서울특별시 용산구 한강대로 23길 55",
      "lat": "37.52975177180",
      "lng": "126.9655646796",
      "total_count": 24,
      "available_count": 0,
      "total_percent": 0.0,
      "slow_total": 24,
      "slow_avail": 0,
      "slow_percent": 0.0,
      "fast_total": 0,
      "fast_avail": 0,
      "fast_percent": 0.0,
      "latest_update": "20260324153346"
    },
    {
      "station_id": "PI204258",
      "name": "서울시 용산구 용산파크타워1단지지하4층",
      "address": "서울특별시 용산구 서빙고로 67",
      "lat": "37.523279917",
      "lng": "126.97261532",
      "total_count": 21,
      "available_count": 17,
      "total_percent": 81.0,
      "slow_total": 21,
      "slow_avail": 17,
      "slow_percent": 81.0,
      "fast_total": 0,
      "fast_avail": 0,
      "fast_percent": 0.0,
      "latest_update": "20260713193218"
    },
    {
      "station_id": "SF003177",
      "name": "용산센트럴파크 (완속충전기)",
      "address": "서울특별시 용산구 서빙고로 17",
      "lat": "37.526905614",
      "lng": "126.96656617",
      "total_count": 21,
      "available_count": 20,
      "total_percent": 95.2,
      "slow_total": 21,
      "slow_avail": 20,
      "slow_percent": 95.2,
      "fast_total": 0,
      "fast_avail": 0,
      "fast_percent": 0.0,
      "latest_update": "20260713190938"
    },
    {
      "station_id": "HM110233",
      "name": "_숙명여자대학교",
      "address": "서울특별시 용산구 청파로47길 100",
      "lat": "37.5454741",
      "lng": "126.9650744",
      "total_count": 19,
      "available_count": 17,
      "total_percent": 89.5,
      "slow_total": 18,
      "slow_avail": 16,
      "slow_percent": 88.9,
      "fast_total": 1,
      "fast_avail": 1,
      "fast_percent": 100.0,
      "latest_update": "20260713190417"
    },
    {
      "station_id": "PIH00123",
      "name": "서울 한강로3가 용산센트럴파크아파트B",
      "address": "서울특별시 용산구 서빙고로 17",
      "lat": "37.525274402",
      "lng": "126.96772464",
      "total_count": 19,
      "available_count": 18,
      "total_percent": 94.7,
      "slow_total": 19,
      "slow_avail": 18,
      "slow_percent": 94.7,
      "fast_total": 0,
      "fast_avail": 0,
      "fast_percent": 0.0,
      "latest_update": "20260713182406"
    },
    {
      "station_id": "NT101346",
      "name": "용산 시티파크1단지아파트",
      "address": "서울특별시 용산구 서빙고로 35",
      "lat": "37.5244556",
      "lng": "126.9686832",
      "total_count": 17,
      "available_count": 11,
      "total_percent": 64.7,
      "slow_total": 17,
      "slow_avail": 11,
      "slow_percent": 64.7,
      "fast_total": 0,
      "fast_avail": 0,
      "fast_percent": 0.0,
      "latest_update": "20260713192550"
    },
    {
      "station_id": "SF001381",
      "name": "용산 아크로타워",
      "address": "서울특별시 용산구 백범로90길 26",
      "lat": "37.536599194",
      "lng": "126.96844842",
      "total_count": 16,
      "available_count": 14,
      "total_percent": 87.5,
      "slow_total": 16,
      "slow_avail": 14,
      "slow_percent": 87.5,
      "fast_total": 0,
      "fast_avail": 0,
      "fast_percent": 0.0,
      "latest_update": "20260713180944"
    },
    {
      "station_id": "SF002506",
      "name": "SK 청암대",
      "address": "서울특별시 용산구 삼개로 56",
      "lat": "37.5354718",
      "lng": "126.9475842",
      "total_count": 16,
      "available_count": 15,
      "total_percent": 93.8,
      "slow_total": 16,
      "slow_avail": 15,
      "slow_percent": 93.8,
      "fast_total": 0,
      "fast_avail": 0,
      "fast_percent": 0.0,
      "latest_update": "20260713191517"
    },
    {
      "station_id": "HM001659",
      "name": "국립중앙박물관",
      "address": "서울특별시 용산구 서빙고로 137",
      "lat": "37.5247677",
      "lng": "126.9777479",
      "total_count": 15,
      "available_count": 14,
      "total_percent": 93.3,
      "slow_total": 15,
      "slow_avail": 14,
      "slow_percent": 93.3,
      "fast_total": 0,
      "fast_avail": 0,
      "fast_percent": 0.0,
      "latest_update": "20260713194018"
    },
    {
      "station_id": "PI200716",
      "name": "서울시 용산구 용산푸르지오써밋",
      "address": "서울특별시 용산구 한강대로 69",
      "lat": "37.5270405",
      "lng": "126.9648922",
      "total_count": 15,
      "available_count": 8,
      "total_percent": 53.3,
      "slow_total": 15,
      "slow_avail": 8,
      "slow_percent": 53.3,
      "fast_total": 0,
      "fast_avail": 0,
      "fast_percent": 0.0,
      "latest_update": "20260713200128"
    },
    {
      "station_id": "PIH00423",
      "name": "전쟁기념관",
      "address": "서울특별시 용산구 이태원로 29",
      "lat": "37.537314046",
      "lng": "126.97846606",
      "total_count": 15,
      "available_count": 14,
      "total_percent": 93.3,
      "slow_total": 15,
      "slow_avail": 14,
      "slow_percent": 93.3,
      "fast_total": 0,
      "fast_avail": 0,
      "fast_percent": 0.0,
      "latest_update": "20260712142713"
    },
    {
      "station_id": "PL032806",
      "name": "센트레빌아스테리움서울",
      "address": "서울 용산구 한강대로 372",
      "lat": "37.5516316",
      "lng": "126.9729122",
      "total_count": 14,
      "available_count": 9,
      "total_percent": 64.3,
      "slow_total": 14,
      "slow_avail": 9,
      "slow_percent": 64.3,
      "fast_total": 0,
      "fast_avail": 0,
      "fast_percent": 0.0,
      "latest_update": "20260713193409"
    },
    {
      "station_id": "PL033048",
      "name": "한강대우아파트",
      "address": "서울 용산구 이촌로 181",
      "lat": "37.5221513",
      "lng": "126.9706636",
      "total_count": 14,
      "available_count": 10,
      "total_percent": 71.4,
      "slow_total": 14,
      "slow_avail": 10,
      "slow_percent": 71.4,
      "fast_total": 0,
      "fast_avail": 0,
      "fast_percent": 0.0,
      "latest_update": "20260713195739"
    },
    {
      "station_id": "NT102797",
      "name": "용산 이촌동삼성리버스위트",
      "address": "서울특별시 용산구 이촌로88길 30",
      "lat": "37.51687",
      "lng": "126.97589",
      "total_count": 13,
      "available_count": 8,
      "total_percent": 61.5,
      "slow_total": 13,
      "slow_avail": 8,
      "slow_percent": 61.5,
      "fast_total": 0,
      "fast_avail": 0,
      "fast_percent": 0.0,
      "latest_update": "20260713190150"
    },
    {
      "station_id": "PC001385",
      "name": "용산푸르지오파크타운",
      "address": "서울특별시 용산구 녹사평대로 66",
      "lat": "37.5244971",
      "lng": "126.9942645",
      "total_count": 13,
      "available_count": 11,
      "total_percent": 84.6,
      "slow_total": 13,
      "slow_avail": 11,
      "slow_percent": 84.6,
      "fast_total": 0,
      "fast_avail": 0,
      "fast_percent": 0.0,
      "latest_update": "20260713175125"
    },
    {
      "station_id": "PL032552",
      "name": "용산파크타워2단지아파트",
      "address": "서울 용산구 서빙고로 69",
      "lat": "37.5237114",
      "lng": "126.9723515",
      "total_count": 13,
      "available_count": 10,
      "total_percent": 76.9,
      "slow_total": 13,
      "slow_avail": 10,
      "slow_percent": 76.9,
      "fast_total": 0,
      "fast_avail": 0,
      "fast_percent": 0.0,
      "latest_update": "20260713184304"
    },
    {
      "station_id": "SF001010",
      "name": "용산구청",
      "address": "서울특별시 용산구 녹사평대로 150",
      "lat": "37.532452294",
      "lng": "126.99047882",
      "total_count": 13,
      "available_count": 12,
      "total_percent": 92.3,
      "slow_total": 13,
      "slow_avail": 12,
      "slow_percent": 92.3,
      "fast_total": 0,
      "fast_avail": 0,
      "fast_percent": 0.0,
      "latest_update": "20260713195047"
    },
    {
      "station_id": "NT100084",
      "name": "용산더프라임",
      "address": "서울특별시 용산구 원효로90길 11",
      "lat": "37.5403958",
      "lng": "126.9697185",
      "total_count": 12,
      "available_count": 9,
      "total_percent": 75.0,
      "slow_total": 12,
      "slow_avail": 9,
      "slow_percent": 75.0,
      "fast_total": 0,
      "fast_avail": 0,
      "fast_percent": 0.0,
      "latest_update": "20260713190850"
    },
    {
      "station_id": "PL031153",
      "name": "나인원한남 상가동",
      "address": "서울 용산구 한남대로 91",
      "lat": "37.5365601",
      "lng": "127.0021341",
      "total_count": 12,
      "available_count": 12,
      "total_percent": 100.0,
      "slow_total": 9,
      "slow_avail": 9,
      "slow_percent": 100.0,
      "fast_total": 3,
      "fast_avail": 3,
      "fast_percent": 100.0,
      "latest_update": "20260713133759"
    },
    {
      "station_id": "PW013757",
      "name": "용산CJ나인파크 입주자대표회의",
      "address": "서울특별시 용산구 백범로90다길 12",
      "lat": "37.5363523",
      "lng": "126.9692127",
      "total_count": 12,
      "available_count": 6,
      "total_percent": 50.0,
      "slow_total": 12,
      "slow_avail": 6,
      "slow_percent": 50.0,
      "fast_total": 0,
      "fast_avail": 0,
      "fast_percent": 0.0,
      "latest_update": "20260713194941"
    },
    {
      "station_id": "SF000860",
      "name": "삼성리버빌아파트",
      "address": "서울특별시 용산구 보광로5길 40",
      "lat": "37.524069390",
      "lng": "127.00128273",
      "total_count": 12,
      "available_count": 9,
      "total_percent": 75.0,
      "slow_total": 12,
      "slow_avail": 9,
      "slow_percent": 75.0,
      "fast_total": 0,
      "fast_avail": 0,
      "fast_percent": 0.0,
      "latest_update": "20260713165211"
    },
    {
      "station_id": "EZ100036",
      "name": "삼성리버스위트아파트",
      "address": "서울특별시 용산구 이촌로88길 30",
      "lat": "37.5175344",
      "lng": "126.9768008",
      "total_count": 11,
      "available_count": 0,
      "total_percent": 0.0,
      "slow_total": 11,
      "slow_avail": 0,
      "slow_percent": 0.0,
      "fast_total": 0,
      "fast_avail": 0,
      "fast_percent": 0.0,
      "latest_update": "20260601113310"
    },
    {
      "station_id": "IN120111",
      "name": "용산파크자이",
      "address": "서울특별시 용산구 한강대로 205",
      "lat": "37.5363",
      "lng": "126.9732",
      "total_count": 11,
      "available_count": 0,
      "total_percent": 0.0,
      "slow_total": 10,
      "slow_avail": 0,
      "slow_percent": 0.0,
      "fast_total": 1,
      "fast_avail": 0,
      "fast_percent": 0.0,
      "latest_update": "20260615122841"
    },
    {
      "station_id": "JA110170",
      "name": "삼각지역공영주차장",
      "address": "서울특별시 용산구 한강대로54길 17",
      "lat": "37.532986",
      "lng": "126.9727871",
      "total_count": 11,
      "available_count": 6,
      "total_percent": 54.5,
      "slow_total": 7,
      "slow_avail": 4,
      "slow_percent": 57.1,
      "fast_total": 4,
      "fast_avail": 2,
      "fast_percent": 50.0,
      "latest_update": "20260713195614"
    },
    {
      "station_id": "LU000002",
      "name": "LG유플러스 용산사옥 충전소",
      "address": "서울특별시 용산구 한강대로 32",
      "lat": "37.523637",
      "lng": "126.963474",
      "total_count": 11,
      "available_count": 8,
      "total_percent": 72.7,
      "slow_total": 11,
      "slow_avail": 8,
      "slow_percent": 72.7,
      "fast_total": 0,
      "fast_avail": 0,
      "fast_percent": 0.0,
      "latest_update": "20260713192954"
    },
    {
      "station_id": "LU000359",
      "name": "국가기록원 나라기록관",
      "address": "서울특별시 용산구 한강대로 32",
      "lat": "37.417570",
      "lng": "127.095458",
      "total_count": 11,
      "available_count": 11,
      "total_percent": 100.0,
      "slow_total": 11,
      "slow_avail": 11,
      "slow_percent": 100.0,
      "fast_total": 0,
      "fast_avail": 0,
      "fast_percent": 0.0,
      "latest_update": "20260713173447"
    },
    {
      "station_id": "NT102275",
      "name": "용산 동아그린아파트",
      "address": "서울특별시 용산구 이촌로 100-8",
      "lat": "37.52448",
      "lng": "126.95796",
      "total_count": 11,
      "available_count": 7,
      "total_percent": 63.6,
      "slow_total": 11,
      "slow_avail": 7,
      "slow_percent": 63.6,
      "fast_total": 0,
      "fast_avail": 0,
      "fast_percent": 0.0,
      "latest_update": "20260713200451"
    },
    {
      "station_id": "PI001328",
      "name": "래미안용산 더 센트럴",
      "address": "서울특별시 용산구 한강대로 95",
      "lat": "37.5288009",
      "lng": "126.966628",
      "total_count": 11,
      "available_count": 10,
      "total_percent": 90.9,
      "slow_total": 11,
      "slow_avail": 10,
      "slow_percent": 90.9,
      "fast_total": 0,
      "fast_avail": 0,
      "fast_percent": 0.0,
      "latest_update": "20260713200640"
    },
    {
      "station_id": "PI709244",
      "name": "용산e편한세상B",
      "address": "서울특별시 용산구 원효로 216",
      "lat": "37.536698661",
      "lng": "126.96616115",
      "total_count": 11,
      "available_count": 8,
      "total_percent": 72.7,
      "slow_total": 11,
      "slow_avail": 8,
      "slow_percent": 72.7,
      "fast_total": 0,
      "fast_avail": 0,
      "fast_percent": 0.0,
      "latest_update": "20260713192013"
    },
    {
      "station_id": "PI795328",
      "name": "서울시 용산구 롯데캐슬센터포레아파트",
      "address": "서울특별시 용산구 백범로 313",
      "lat": "37.5393023",
      "lng": "126.9629485",
      "total_count": 11,
      "available_count": 1,
      "total_percent": 9.1,
      "slow_total": 11,
      "slow_avail": 1,
      "slow_percent": 9.1,
      "fast_total": 0,
      "fast_avail": 0,
      "fast_percent": 0.0,
      "latest_update": "20260713195601"
    },
    {
      "station_id": "PIS00082",
      "name": "서울 용산구 용산파크자이",
      "address": "서울특별시 용산구 한강대로 205",
      "lat": "37.5363000",
      "lng": "126.9732000",
      "total_count": 11,
      "available_count": 3,
      "total_percent": 27.3,
      "slow_total": 10,
      "slow_avail": 2,
      "slow_percent": 20.0,
      "fast_total": 1,
      "fast_avail": 1,
      "fast_percent": 100.0,
      "latest_update": "20260713190436"
    },
    {
      "station_id": "EV006082",
      "name": "서울용산 용산파크자이",
      "address": "서울특별시 용산구 한강대로 205",
      "lat": "37.5366835",
      "lng": "126.9728087",
      "total_count": 10,
      "available_count": 9,
      "total_percent": 90.0,
      "slow_total": 10,
      "slow_avail": 9,
      "slow_percent": 90.0,
      "fast_total": 0,
      "fast_avail": 0,
      "fast_percent": 0.0,
      "latest_update": "20260713193638"
    },
    {
      "station_id": "EV011641",
      "name": "서울용산 래미안첼리투스아파트",
      "address": "서울특별시 용산구 이촌로 310",
      "lat": "37.5173731",
      "lng": "126.9803009",
      "total_count": 10,
      "available_count": 3,
      "total_percent": 30.0,
      "slow_total": 10,
      "slow_avail": 3,
      "slow_percent": 30.0,
      "fast_total": 0,
      "fast_avail": 0,
      "fast_percent": 0.0,
      "latest_update": "20260713191423"
    },
    {
      "station_id": "HM110291",
      "name": "_래미안용산더센트럴오피스텔",
      "address": "서울특별시 용산구 한강대로 95",
      "lat": "37.5288174",
      "lng": "126.9666538",
      "total_count": 10,
      "available_count": 8,
      "total_percent": 80.0,
      "slow_total": 10,
      "slow_avail": 8,
      "slow_percent": 80.0,
      "fast_total": 0,
      "fast_avail": 0,
      "fast_percent": 0.0,
      "latest_update": "20260713191420"
    },
    {
      "station_id": "NT101692",
      "name": "용산 트윈시티남산&쉐라톤호텔",
      "address": "서울특별시 용산구 한강대로 366",
      "lat": "37.55108",
      "lng": "126.97291",
      "total_count": 10,
      "available_count": 4,
      "total_percent": 40.0,
      "slow_total": 9,
      "slow_avail": 3,
      "slow_percent": 33.3,
      "fast_total": 1,
      "fast_avail": 1,
      "fast_percent": 100.0,
      "latest_update": "20260713190950"
    },
    {
      "station_id": "NT102211",
      "name": "용산 그랜드하얏트호텔",
      "address": "서울특별시 용산구 소월로 322",
      "lat": "37.53976",
      "lng": "126.99624",
      "total_count": 10,
      "available_count": 10,
      "total_percent": 100.0,
      "slow_total": 10,
      "slow_avail": 10,
      "slow_percent": 100.0,
      "fast_total": 0,
      "fast_avail": 0,
      "fast_percent": 0.0,
      "latest_update": "20260712213150"
    },
    {
      "station_id": "NT102617",
      "name": "용산 한남동현대하이페리온",
      "address": "서울특별시 용산구 서빙고로 413",
      "lat": "37.52729",
      "lng": "127.00421",
      "total_count": 10,
      "available_count": 5,
      "total_percent": 50.0,
      "slow_total": 10,
      "slow_avail": 5,
      "slow_percent": 50.0,
      "fast_total": 0,
      "fast_avail": 0,
      "fast_percent": 0.0,
      "latest_update": "20260713194850"
    },
    {
      "station_id": "PI067373",
      "name": "kdb생명타워",
      "address": "서울특별시 용산구 한강대로 372",
      "lat": "37.551679425",
      "lng": "126.97290505",
      "total_count": 10,
      "available_count": 7,
      "total_percent": 70.0,
      "slow_total": 10,
      "slow_avail": 7,
      "slow_percent": 70.0,
      "fast_total": 0,
      "fast_avail": 0,
      "fast_percent": 0.0,
      "latest_update": "20260713194111"
    },
    {
      "station_id": "PI204257",
      "name": "서울시 용산구 용산파크타워2단지",
      "address": "서울특별시 용산구 서빙고로 69",
      "lat": "37.5237113",
      "lng": "126.9723515",
      "total_count": 10,
      "available_count": 7,
      "total_percent": 70.0,
      "slow_total": 10,
      "slow_avail": 7,
      "slow_percent": 70.0,
      "fast_total": 0,
      "fast_avail": 0,
      "fast_percent": 0.0,
      "latest_update": "20260713185144"
    },
    {
      "station_id": "PI700044",
      "name": "용산e편한세상",
      "address": "서울특별시 용산구 원효로 216 용산e편한세상",
      "lat": "37.536135734",
      "lng": "126.96686007",
      "total_count": 10,
      "available_count": 2,
      "total_percent": 20.0,
      "slow_total": 10,
      "slow_avail": 2,
      "slow_percent": 20.0,
      "fast_total": 0,
      "fast_avail": 0,
      "fast_percent": 0.0,
      "latest_update": "20260713192001"
    },
    {
      "station_id": "PI722283",
      "name": "이촌아파트B",
      "address": "서울특별시 용산구 이촌로87길 21",
      "lat": "37.519800846",
      "lng": "126.97761082",
      "total_count": 10,
      "available_count": 4,
      "total_percent": 40.0,
      "slow_total": 10,
      "slow_avail": 4,
      "slow_percent": 40.0,
      "fast_total": 0,
      "fast_avail": 0,
      "fast_percent": 0.0,
      "latest_update": "20260713190652"
    },
    {
      "station_id": "PIH00144",
      "name": "한국폴리텍대학서울정수캠퍼스",
      "address": "서울특별시 용산구 보광로 73",
      "lat": "37.529061500",
      "lng": "126.99654200",
      "total_count": 10,
      "available_count": 10,
      "total_percent": 100.0,
      "slow_total": 10,
      "slow_avail": 10,
      "slow_percent": 100.0,
      "fast_total": 0,
      "fast_avail": 0,
      "fast_percent": 0.0,
      "latest_update": "20260713112723"
    },
    {
      "station_id": "PL033498",
      "name": "동부센트레빌아파트",
      "address": "서울 용산구 이촌로 174",
      "lat": "37.5211131",
      "lng": "126.9668044",
      "total_count": 10,
      "available_count": 8,
      "total_percent": 80.0,
      "slow_total": 10,
      "slow_avail": 8,
      "slow_percent": 80.0,
      "fast_total": 0,
      "fast_avail": 0,
      "fast_percent": 0.0,
      "latest_update": "20260713191135"
    },
    {
      "station_id": "EV015998",
      "name": "서울용산 래미안첼리투스아파트 2",
      "address": "서울특별시 용산구 이촌로 310 (이촌동, 래미안 첼리투스)",
      "lat": "37.5172288",
      "lng": "126.9803217",
      "total_count": 9,
      "available_count": 7,
      "total_percent": 77.8,
      "slow_total": 9,
      "slow_avail": 7,
      "slow_percent": 77.8,
      "fast_total": 0,
      "fast_avail": 0,
      "fast_percent": 0.0,
      "latest_update": "20260713183153"
    },
    {
      "station_id": "HM000065",
      "name": "_래미안 용산 더 센트럴",
      "address": "서울특별시 용산구 한강대로 95",
      "lat": "37.5290233",
      "lng": "126.9671051",
      "total_count": 9,
      "available_count": 2,
      "total_percent": 22.2,
      "slow_total": 6,
      "slow_avail": 2,
      "slow_percent": 33.3,
      "fast_total": 3,
      "fast_avail": 0,
      "fast_percent": 0.0,
      "latest_update": "20260713200200"
    },
    {
      "station_id": "HY001613",
      "name": "이촌 대림아파트",
      "address": "서울시 용산구 이촌로2가길 122",
      "lat": "37.5248650",
      "lng": "126.9553410",
      "total_count": 9,
      "available_count": 5,
      "total_percent": 55.6,
      "slow_total": 9,
      "slow_avail": 5,
      "slow_percent": 55.6,
      "fast_total": 0,
      "fast_avail": 0,
      "fast_percent": 0.0,
      "latest_update": "20260713200106"
    },
    {
      "station_id": "PI808966",
      "name": "서울 용산구 시티파크2단지",
      "address": "서울특별시 용산구 서빙고로 31",
      "lat": "37.5262000",
      "lng": "126.9697907",
      "total_count": 9,
      "available_count": 6,
      "total_percent": 66.7,
      "slow_total": 9,
      "slow_avail": 6,
      "slow_percent": 66.7,
      "fast_total": 0,
      "fast_avail": 0,
      "fast_percent": 0.0,
      "latest_update": "20260713194831"
    },
    {
      "station_id": "SF000438",
      "name": "용산트레이드센터",
      "address": "서울특별시 용산구 한강대로 42",
      "lat": "37.52474",
      "lng": "126.964328",
      "total_count": 9,
      "available_count": 6,
      "total_percent": 66.7,
      "slow_total": 9,
      "slow_avail": 6,
      "slow_percent": 66.7,
      "fast_total": 0,
      "fast_avail": 0,
      "fast_percent": 0.0,
      "latest_update": "20260713192706"
    },
    {
      "station_id": "EV006647",
      "name": "서울용산 천년명가청암자이아파트",
      "address": "서울특별시 용산구 삼개로 60",
      "lat": "37.5350715",
      "lng": "126.9476429",
      "total_count": 8,
      "available_count": 6,
      "total_percent": 75.0,
      "slow_total": 8,
      "slow_avail": 6,
      "slow_percent": 75.0,
      "fast_total": 0,
      "fast_avail": 0,
      "fast_percent": 0.0,
      "latest_update": "20260713183048"
    },
    {
      "station_id": "EV013899",
      "name": "서울용산 LG한강자이아파트 3",
      "address": "서울특별시 용산구 이촌로64길 15",
      "lat": "37.5189705",
      "lng": "126.9710983",
      "total_count": 8,
      "available_count": 5,
      "total_percent": 62.5,
      "slow_total": 8,
      "slow_avail": 5,
      "slow_percent": 62.5,
      "fast_total": 0,
      "fast_avail": 0,
      "fast_percent": 0.0,
      "latest_update": "20260713200204"
    },
    {
      "station_id": "EV018361",
      "name": "서울송파 가든파이브라이프 1",
      "address": "서울특별시 송파구 충민로 66",
      "lat": "37.4776148",
      "lng": "127.1249618",
      "total_count": 8,
      "available_count": 6,
      "total_percent": 75.0,
      "slow_total": 8,
      "slow_avail": 6,
      "slow_percent": 75.0,
      "fast_total": 0,
      "fast_avail": 0,
      "fast_percent": 0.0,
      "latest_update": "20260713192230"
    },
    {
      "station_id": "EV018362",
      "name": "서울송파 가든파이브라이프 2",
      "address": "서울특별시 송파구 충민로 66",
      "lat": "37.4776148",
      "lng": "127.1249618",
      "total_count": 8,
      "available_count": 6,
      "total_percent": 75.0,
      "slow_total": 8,
      "slow_avail": 6,
      "slow_percent": 75.0,
      "fast_total": 0,
      "fast_avail": 0,
      "fast_percent": 0.0,
      "latest_update": "20260713200055"
    },
    {
      "station_id": "EV018363",
      "name": "서울송파 가든파이브라이프 3",
      "address": "서울특별시 송파구 충민로 66",
      "lat": "37.4776148",
      "lng": "127.1249618",
      "total_count": 8,
      "available_count": 8,
      "total_percent": 100.0,
      "slow_total": 8,
      "slow_avail": 8,
      "slow_percent": 100.0,
      "fast_total": 0,
      "fast_avail": 0,
      "fast_percent": 0.0,
      "latest_update": "20260713185813"
    },
    {
      "station_id": "EV018364",
      "name": "서울송파 가든파이브라이프 4",
      "address": "서울특별시 송파구 충민로 66",
      "lat": "37.4776148",
      "lng": "127.1249618",
      "total_count": 8,
      "available_count": 7,
      "total_percent": 87.5,
      "slow_total": 8,
      "slow_avail": 7,
      "slow_percent": 87.5,
      "fast_total": 0,
      "fast_avail": 0,
      "fast_percent": 0.0,
      "latest_update": "20260713135458"
    },
    {
      "station_id": "HY001841",
      "name": "용산 청화아파트",
      "address": "서울특별시 용산구 장문로 27",
      "lat": "37.529896",
      "lng": "126.994697",
      "total_count": 8,
      "available_count": 6,
      "total_percent": 75.0,
      "slow_total": 8,
      "slow_avail": 6,
      "slow_percent": 75.0,
      "fast_total": 0,
      "fast_avail": 0,
      "fast_percent": 0.0,
      "latest_update": "20260713184606"
    },
    {
      "station_id": "LU003778",
      "name": "용산현대한강아파트",
      "address": "서울특별시 용산구 이촌로34길 29",
      "lat": "37.523638",
      "lng": "126.956665",
      "total_count": 8,
      "available_count": 4,
      "total_percent": 50.0,
      "slow_total": 8,
      "slow_avail": 4,
      "slow_percent": 50.0,
      "fast_total": 0,
      "fast_avail": 0,
      "fast_percent": 0.0,
      "latest_update": "20260713185858"
    },
    {
      "station_id": "PI690027",
      "name": "BMW차징스테이션 용산전자랜드 by한독모터스",
      "address": "서울특별시 용산구 청파로 74",
      "lat": "37.5325370",
      "lng": "126.9586478",
      "total_count": 8,
      "available_count": 8,
      "total_percent": 100.0,
      "slow_total": 6,
      "slow_avail": 6,
      "slow_percent": 100.0,
      "fast_total": 2,
      "fast_avail": 2,
      "fast_percent": 100.0,
      "latest_update": "20260713174755"
    },
    {
      "station_id": "PI751116",
      "name": "한남리첸시아",
      "address": "서울특별시 용산구 한남대로 60",
      "lat": "37.5344827",
      "lng": "127.0075178",
      "total_count": 8,
      "available_count": 5,
      "total_percent": 62.5,
      "slow_total": 8,
      "slow_avail": 5,
      "slow_percent": 62.5,
      "fast_total": 0,
      "fast_avail": 0,
      "fast_percent": 0.0,
      "latest_update": "20260713185535"
    },
    {
      "station_id": "PI808426",
      "name": "서울 용산구 한강로벽산메가트리움",
      "address": "서울특별시 용산구 한강대로43길 8",
      "lat": "37.5325823",
      "lng": "126.969753",
      "total_count": 8,
      "available_count": 2,
      "total_percent": 25.0,
      "slow_total": 8,
      "slow_avail": 2,
      "slow_percent": 25.0,
      "fast_total": 0,
      "fast_avail": 0,
      "fast_percent": 0.0,
      "latest_update": "20260713194334"
    },
    {
      "station_id": "PK000006",
      "name": "KD용산차고지",
      "address": "서울특별시 용산구 한강로3가 40-1051",
      "lat": "37.5319525",
      "lng": "126.963019",
      "total_count": 8,
      "available_count": 6,
      "total_percent": 75.0,
      "slow_total": 0,
      "slow_avail": 0,
      "slow_percent": 0.0,
      "fast_total": 8,
      "fast_avail": 6,
      "fast_percent": 75.0,
      "latest_update": "20260713200658"
    },
    {
      "station_id": "TS111701",
      "name": "서울시교육청",
      "address": "서울특별시 용산구 두텁바위로 27",
      "lat": "37.546136",
      "lng": "126.975764",
      "total_count": 8,
      "available_count": 8,
      "total_percent": 100.0,
      "slow_total": 6,
      "slow_avail": 6,
      "slow_percent": 100.0,
      "fast_total": 2,
      "fast_avail": 2,
      "fast_percent": 100.0,
      "latest_update": "20260701151001"
    },
    {
      "station_id": "CV002013",
      "name": "용산아스테리움 지하7층",
      "address": "서울특별시 용산구 한강대로30길 25",
      "lat": "37.5274013",
      "lng": "126.9688295",
      "total_count": 7,
      "available_count": 5,
      "total_percent": 71.4,
      "slow_total": 7,
      "slow_avail": 5,
      "slow_percent": 71.4,
      "fast_total": 0,
      "fast_avail": 0,
      "fast_percent": 0.0,
      "latest_update": "20260713200544"
    },
    {
      "station_id": "CV003788",
      "name": "용산아스테리움 지하4층",
      "address": "서울특별시 용산구 한강대로30길 25",
      "lat": "37.5274013",
      "lng": "126.9688295",
      "total_count": 7,
      "available_count": 3,
      "total_percent": 42.9,
      "slow_total": 7,
      "slow_avail": 3,
      "slow_percent": 42.9,
      "fast_total": 0,
      "fast_avail": 0,
      "fast_percent": 0.0,
      "latest_update": "20260713200544"
    },
    {
      "station_id": "EV011324",
      "name": "서울용산 용산이안4",
      "address": "서울특별시 용산구 백범로90길 74",
      "lat": "37.5375646",
      "lng": "126.9696061",
      "total_count": 7,
      "available_count": 5,
      "total_percent": 71.4,
      "slow_total": 7,
      "slow_avail": 5,
      "slow_percent": 71.4,
      "fast_total": 0,
      "fast_avail": 0,
      "fast_percent": 0.0,
      "latest_update": "20260713194802"
    },
    {
      "station_id": "EV020519",
      "name": "서울용산 용산베르디움프렌즈관리단 1",
      "address": "서울특별시 용산구 백범로99길 40",
      "lat": "37.5354709",
      "lng": "126.9715445",
      "total_count": 7,
      "available_count": 4,
      "total_percent": 57.1,
      "slow_total": 7,
      "slow_avail": 4,
      "slow_percent": 57.1,
      "fast_total": 0,
      "fast_avail": 0,
      "fast_percent": 0.0,
      "latest_update": "20260713194446"
    },
    {
      "station_id": "LU101467",
      "name": " 남산대림아파트_EC",
      "address": "서울특별시 용산구 녹사평대로 254",
      "lat": "37.5415811",
      "lng": "126.9884043",
      "total_count": 7,
      "available_count": 2,
      "total_percent": 28.6,
      "slow_total": 7,
      "slow_avail": 2,
      "slow_percent": 28.6,
      "fast_total": 0,
      "fast_avail": 0,
      "fast_percent": 0.0,
      "latest_update": "20260713191912"
    },
    {
      "station_id": "NT102150",
      "name": "용산 원효루미니아파트",
      "address": "서울특별시 용산구 원효로97길 15",
      "lat": "37.54141",
      "lng": "126.96937",
      "total_count": 7,
      "available_count": 2,
      "total_percent": 28.6,
      "slow_total": 7,
      "slow_avail": 2,
      "slow_percent": 28.6,
      "fast_total": 0,
      "fast_avail": 0,
      "fast_percent": 0.0,
      "latest_update": "20260713200350"
    },
    {
      "station_id": "PI001497",
      "name": "용산파크e편한세상아파트",
      "address": "서울특별시 용산구 한강대로53길 16",
      "lat": "37.5339558",
      "lng": "126.970914",
      "total_count": 7,
      "available_count": 7,
      "total_percent": 100.0,
      "slow_total": 7,
      "slow_avail": 7,
      "slow_percent": 100.0,
      "fast_total": 0,
      "fast_avail": 0,
      "fast_percent": 0.0,
      "latest_update": "20260713200640"
    },
    {
      "station_id": "PI200257",
      "name": "서울시 용산구 효창파크푸르지오",
      "address": "서울특별시 용산구 백범로 260 (효창동)",
      "lat": "37.540496837425",
      "lng": "126.95779476",
      "total_count": 7,
      "available_count": 6,
      "total_percent": 85.7,
      "slow_total": 7,
      "slow_avail": 6,
      "slow_percent": 85.7,
      "fast_total": 0,
      "fast_avail": 0,
      "fast_percent": 0.0,
      "latest_update": "20260713141323"
    },
    {
      "station_id": "PI200399",
      "name": "서울시 용산구 이안용산프리미어아파트",
      "address": "서울특별시 용산구 청파로 213",
      "lat": "37.538596934071",
      "lng": "126.9703492571",
      "total_count": 7,
      "available_count": 6,
      "total_percent": 85.7,
      "slow_total": 7,
      "slow_avail": 6,
      "slow_percent": 85.7,
      "fast_total": 0,
      "fast_avail": 0,
      "fast_percent": 0.0,
      "latest_update": "20260713195404"
    },
    {
      "station_id": "PI707214",
      "name": "이촌아파트",
      "address": "서울특별시 용산구 이촌로87길 21",
      "lat": "37.519656758",
      "lng": "126.97799547",
      "total_count": 7,
      "available_count": 1,
      "total_percent": 14.3,
      "slow_total": 7,
      "slow_avail": 1,
      "slow_percent": 14.3,
      "fast_total": 0,
      "fast_avail": 0,
      "fast_percent": 0.0,
      "latest_update": "20260713200629"
    },
    {
      "station_id": "PL900245",
      "name": "리버탑아파트",
      "address": "서울특별시 용산구 독서당로6길 16",
      "lat": "37.5297889",
      "lng": "127.0080337",
      "total_count": 7,
      "available_count": 6,
      "total_percent": 85.7,
      "slow_total": 7,
      "slow_avail": 6,
      "slow_percent": 85.7,
      "fast_total": 0,
      "fast_avail": 0,
      "fast_percent": 0.0,
      "latest_update": "20260713175944"
    },
    {
      "station_id": "PW014814",
      "name": "동부센트레빌아스테리움서울23",
      "address": "서울특별시 용산구 한강대로 372",
      "lat": "37.551679425",
      "lng": "126.97290505",
      "total_count": 7,
      "available_count": 4,
      "total_percent": 57.1,
      "slow_total": 7,
      "slow_avail": 4,
      "slow_percent": 57.1,
      "fast_total": 0,
      "fast_avail": 0,
      "fast_percent": 0.0,
      "latest_update": "20260713195030"
    },
    {
      "station_id": "ME22M301",
      "name": "용산 전쟁기념관 소형 주차장",
      "address": "서울특별시 용산구 이태원로 29",
      "lat": "37.5373",
      "lng": "126.9752",
      "total_count": 6,
      "available_count": 6,
      "total_percent": 100.0,
      "slow_total": 0,
      "slow_avail": 0,
      "slow_percent": 0.0,
      "fast_total": 6,
      "fast_avail": 6,
      "fast_percent": 100.0,
      "latest_update": "20260713200606"
    },
    {
      "station_id": "EC000933",
      "name": "한강트럼프월드3차 B3",
      "address": "서울특별시 용산구 한강대로 26",
      "lat": "37.5230768",
      "lng": "126.9629235",
      "total_count": 6,
      "available_count": 0,
      "total_percent": 0.0,
      "slow_total": 6,
      "slow_avail": 0,
      "slow_percent": 0.0,
      "fast_total": 0,
      "fast_avail": 0,
      "fast_percent": 0.0,
      "latest_update": "20260706161001"
    },
    {
      "station_id": "EV013897",
      "name": "서울용산 LG한강자이아파트 1",
      "address": "서울특별시 용산구 이촌로64길 15",
      "lat": "37.5196824",
      "lng": "126.9714939",
      "total_count": 6,
      "available_count": 3,
      "total_percent": 50.0,
      "slow_total": 6,
      "slow_avail": 3,
      "slow_percent": 50.0,
      "fast_total": 0,
      "fast_avail": 0,
      "fast_percent": 0.0,
      "latest_update": "20260713192632"
    },
    {
      "station_id": "EV013898",
      "name": "서울용산 LG한강자이아파트 2",
      "address": "서울특별시 용산구 이촌로64길 15",
      "lat": "37.5199165",
      "lng": "126.9707133",
      "total_count": 6,
      "available_count": 4,
      "total_percent": 66.7,
      "slow_total": 6,
      "slow_avail": 4,
      "slow_percent": 66.7,
      "fast_total": 0,
      "fast_avail": 0,
      "fast_percent": 0.0,
      "latest_update": "20260713191957"
    },
    {
      "station_id": "HY001777",
      "name": "용산 CJ나인파크",
      "address": "서울특별시 용산구 백범로90다길 12",
      "lat": "37.5362875",
      "lng": "126.968807",
      "total_count": 6,
      "available_count": 3,
      "total_percent": 50.0,
      "slow_total": 6,
      "slow_avail": 3,
      "slow_percent": 50.0,
      "fast_total": 0,
      "fast_avail": 0,
      "fast_percent": 0.0,
      "latest_update": "20260713184006"
    },
    {
      "station_id": "IN120068",
      "name": "HJ중공업용산사옥",
      "address": "서울특별시 용산구 한강대로71길 4",
      "lat": "37.5403",
      "lng": "126.9725",
      "total_count": 6,
      "available_count": 0,
      "total_percent": 0.0,
      "slow_total": 6,
      "slow_avail": 0,
      "slow_percent": 0.0,
      "fast_total": 0,
      "fast_avail": 0,
      "fast_percent": 0.0,
      "latest_update": "20260615122839"
    },
    {
      "station_id": "JA110094",
      "name": "순천향대학교 부속 서울병원서별관방면주차장",
      "address": "서울특별시 용산구 대사관로 59",
      "lat": "37.5340297",
      "lng": "127.0039882",
      "total_count": 6,
      "available_count": 4,
      "total_percent": 66.7,
      "slow_total": 6,
      "slow_avail": 4,
      "slow_percent": 66.7,
      "fast_total": 0,
      "fast_avail": 0,
      "fast_percent": 0.0,
      "latest_update": "20260713193508"
    },
    {
      "station_id": "PA110010",
      "name": "용산선인상가주차장",
      "address": "서울특별시 용산구 새창로 181",
      "lat": "37.532717214",
      "lng": "126.96517819",
      "total_count": 6,
      "available_count": 6,
      "total_percent": 100.0,
      "slow_total": 6,
      "slow_avail": 6,
      "slow_percent": 100.0,
      "fast_total": 0,
      "fast_avail": 0,
      "fast_percent": 0.0,
      "latest_update": "20260713130423"
    },
    {
      "station_id": "PI645447",
      "name": "메르세데스-벤츠 그랜드 하얏트 서울 전기차 충전소",
      "address": "서울특별시 용산구 소월로 322",
      "lat": "37.539721",
      "lng": "126.996214",
      "total_count": 6,
      "available_count": 5,
      "total_percent": 83.3,
      "slow_total": 4,
      "slow_avail": 3,
      "slow_percent": 75.0,
      "fast_total": 2,
      "fast_avail": 2,
      "fast_percent": 100.0,
      "latest_update": "20260713194804"
    },
    {
      "station_id": "PI766538",
      "name": "래미안용산",
      "address": "서울 용산구 한강대로 95",
      "lat": "37.5288174",
      "lng": "126.9666538",
      "total_count": 6,
      "available_count": 4,
      "total_percent": 66.7,
      "slow_total": 6,
      "slow_avail": 4,
      "slow_percent": 66.7,
      "fast_total": 0,
      "fast_avail": 0,
      "fast_percent": 0.0,
      "latest_update": "20260713190112"
    },
    {
      "station_id": "PIS00063",
      "name": "서울 용산구 HJ중공업용산사옥",
      "address": "서울특별시 용산구 한강대로71길 4",
      "lat": "37.5403000",
      "lng": "126.9725000",
      "total_count": 6,
      "available_count": 5,
      "total_percent": 83.3,
      "slow_total": 6,
      "slow_avail": 5,
      "slow_percent": 83.3,
      "fast_total": 0,
      "fast_avail": 0,
      "fast_percent": 0.0,
      "latest_update": "20260713183816"
    },
    {
      "station_id": "PL000285",
      "name": "용산주차빌딩",
      "address": "서울특별시 용산구 새창로49길 42",
      "lat": "37.5342877",
      "lng": "126.9653156",
      "total_count": 6,
      "available_count": 5,
      "total_percent": 83.3,
      "slow_total": 6,
      "slow_avail": 5,
      "slow_percent": 83.3,
      "fast_total": 0,
      "fast_avail": 0,
      "fast_percent": 0.0,
      "latest_update": "20260713181711"
    },
    {
      "station_id": "PW800300",
      "name": "서빙고금호베스트빌 입주자대표회의",
      "address": "서울특별시 용산구 서빙고로51길 68-14",
      "lat": "37.5227503",
      "lng": "126.9921627",
      "total_count": 6,
      "available_count": 6,
      "total_percent": 100.0,
      "slow_total": 6,
      "slow_avail": 6,
      "slow_percent": 100.0,
      "fast_total": 0,
      "fast_avail": 0,
      "fast_percent": 0.0,
      "latest_update": "20260713120214"
    },
    {
      "station_id": "EO000000",
      "name": "환경부 TEST",
      "address": "서울특별시 용산구 한강대로 92",
      "lat": "33.0",
      "lng": "125.0",
      "total_count": 5,
      "available_count": 1,
      "total_percent": 20.0,
      "slow_total": 4,
      "slow_avail": 1,
      "slow_percent": 25.0,
      "fast_total": 1,
      "fast_avail": 0,
      "fast_percent": 0.0,
      "latest_update": "20260713180310"
    },
    {
      "station_id": "ER000629",
      "name": "왕궁아파트",
      "address": "서울 용산구 이촌로88길 15",
      "lat": "37.5172555",
      "lng": "126.9782732",
      "total_count": 5,
      "available_count": 4,
      "total_percent": 80.0,
      "slow_total": 5,
      "slow_avail": 4,
      "slow_percent": 80.0,
      "fast_total": 0,
      "fast_avail": 0,
      "fast_percent": 0.0,
      "latest_update": "20260713193231"
    },
    {
      "station_id": "EV004427",
      "name": "서울용산 한남힐스테이트2",
      "address": "서울특별시 용산구 장문로 141",
      "lat": "37.5289898",
      "lng": "127.00387",
      "total_count": 5,
      "available_count": 3,
      "total_percent": 60.0,
      "slow_total": 5,
      "slow_avail": 3,
      "slow_percent": 60.0,
      "fast_total": 0,
      "fast_avail": 0,
      "fast_percent": 0.0,
      "latest_update": "20260713185153"
    },
    {
      "station_id": "EV004608",
      "name": "리첸시아용산(A)",
      "address": "서울특별시 용산구 백범로 341",
      "lat": "37.5379387",
      "lng": "126.9679734",
      "total_count": 5,
      "available_count": 4,
      "total_percent": 80.0,
      "slow_total": 5,
      "slow_avail": 4,
      "slow_percent": 80.0,
      "fast_total": 0,
      "fast_avail": 0,
      "fast_percent": 0.0,
      "latest_update": "20260713164240"
    },
    {
      "station_id": "EV005861",
      "name": "서울용산 파크타워",
      "address": "서울특별시 용산구 서빙고로 67",
      "lat": "37.5248628",
      "lng": "126.9704127",
      "total_count": 5,
      "available_count": 3,
      "total_percent": 60.0,
      "slow_total": 5,
      "slow_avail": 3,
      "slow_percent": 60.0,
      "fast_total": 0,
      "fast_avail": 0,
      "fast_percent": 0.0,
      "latest_update": "20260713185812"
    },
    {
      "station_id": "EV011326",
      "name": "서울용산 용산이안5",
      "address": "서울특별시 용산구 백범로90길 74",
      "lat": "37.537877851",
      "lng": "126.97037251",
      "total_count": 5,
      "available_count": 5,
      "total_percent": 100.0,
      "slow_total": 5,
      "slow_avail": 5,
      "slow_percent": 100.0,
      "fast_total": 0,
      "fast_avail": 0,
      "fast_percent": 0.0,
      "latest_update": "20260710153526"
    },
    {
      "station_id": "EV016935",
      "name": "서울용산 도원삼성래미안아파트",
      "address": "서울특별시 용산구 새창로8길 7 (도원동, 도원동삼성래미안아파트)",
      "lat": "37.5396768",
      "lng": "126.9562773",
      "total_count": 5,
      "available_count": 5,
      "total_percent": 100.0,
      "slow_total": 5,
      "slow_avail": 5,
      "slow_percent": 100.0,
      "fast_total": 0,
      "fast_avail": 0,
      "fast_percent": 0.0,
      "latest_update": "20260711214211"
    },
    {
      "station_id": "HE240431",
      "name": "용산아이피아대주피오레",
      "address": "서울특별시 용산구 청파로20길 9",
      "lat": "37.5333991",
      "lng": "126.9674243",
      "total_count": 5,
      "available_count": 5,
      "total_percent": 100.0,
      "slow_total": 5,
      "slow_avail": 5,
      "slow_percent": 100.0,
      "fast_total": 0,
      "fast_avail": 0,
      "fast_percent": 0.0,
      "latest_update": "20260713192500"
    },
    {
      "station_id": "KE000040",
      "name": "서울용산더프라임",
      "address": "서울특별시 용산구 원효로90길 11",
      "lat": "37.5403958",
      "lng": "126.9697185",
      "total_count": 5,
      "available_count": 3,
      "total_percent": 60.0,
      "slow_total": 5,
      "slow_avail": 3,
      "slow_percent": 60.0,
      "fast_total": 0,
      "fast_avail": 0,
      "fast_percent": 0.0,
      "latest_update": "20260713193410"
    },
    {
      "station_id": "KL001933",
      "name": "강촌아파트",
      "address": "서울특별시 용산구 이촌로87길 14",
      "lat": "37.51913",
      "lng": "126.9785779",
      "total_count": 5,
      "available_count": 1,
      "total_percent": 20.0,
      "slow_total": 5,
      "slow_avail": 1,
      "slow_percent": 20.0,
      "fast_total": 0,
      "fast_avail": 0,
      "fast_percent": 0.0,
      "latest_update": "20260713194901"
    },
    {
      "station_id": "KP003600",
      "name": "대우월드마크용산",
      "address": "서울특별시 용산구 한강로1가 64",
      "lat": "37.53717560776",
      "lng": "126.9729849841",
      "total_count": 5,
      "available_count": 2,
      "total_percent": 40.0,
      "slow_total": 5,
      "slow_avail": 2,
      "slow_percent": 40.0,
      "fast_total": 0,
      "fast_avail": 0,
      "fast_percent": 0.0,
      "latest_update": "20260713200009"
    },
    {
      "station_id": "KP004000",
      "name": "용산파크자이아파트",
      "address": "서울특별시 용산구 한강대로 205 (한강로1가, 용산파크자이)",
      "lat": "37.53663725988",
      "lng": "126.9725934706",
      "total_count": 5,
      "available_count": 0,
      "total_percent": 0.0,
      "slow_total": 5,
      "slow_avail": 0,
      "slow_percent": 0.0,
      "fast_total": 0,
      "fast_avail": 0,
      "fast_percent": 0.0,
      "latest_update": "20260324153346"
    },
    {
      "station_id": "LU003186",
      "name": "한강트럼프월드3차",
      "address": "서울특별시 용산구 한강대로 26",
      "lat": "37.523147",
      "lng": "126.962943",
      "total_count": 5,
      "available_count": 1,
      "total_percent": 20.0,
      "slow_total": 5,
      "slow_avail": 1,
      "slow_percent": 20.0,
      "fast_total": 0,
      "fast_avail": 0,
      "fast_percent": 0.0,
      "latest_update": "20260713185227"
    },
    {
      "station_id": "PI000430",
      "name": "서울시 용산구청",
      "address": "서울특별시 용산구 녹사평대로 150",
      "lat": "37.5324527",
      "lng": "126.9904782",
      "total_count": 5,
      "available_count": 2,
      "total_percent": 40.0,
      "slow_total": 5,
      "slow_avail": 2,
      "slow_percent": 40.0,
      "fast_total": 0,
      "fast_avail": 0,
      "fast_percent": 0.0,
      "latest_update": "20260713192608"
    },
    {
      "station_id": "PI200783",
      "name": "서울시 용산구 한강타운",
      "address": "서울특별시 용산구 새창로8길 157",
      "lat": "37.535687020",
      "lng": "126.94972242",
      "total_count": 5,
      "available_count": 5,
      "total_percent": 100.0,
      "slow_total": 5,
      "slow_avail": 5,
      "slow_percent": 100.0,
      "fast_total": 0,
      "fast_avail": 0,
      "fast_percent": 0.0,
      "latest_update": "20260713095619"
    },
    {
      "station_id": "PI204013",
      "name": "서울시 용산구 용산파크자이",
      "address": "서울특별시 용산구 한강대로 205",
      "lat": "37.536683530",
      "lng": "126.97280865",
      "total_count": 5,
      "available_count": 4,
      "total_percent": 80.0,
      "slow_total": 5,
      "slow_avail": 4,
      "slow_percent": 80.0,
      "fast_total": 0,
      "fast_avail": 0,
      "fast_percent": 0.0,
      "latest_update": "20260713193155"
    },
    {
      "station_id": "PI708639",
      "name": "우성아파트",
      "address": "서울특별시 용산구 이촌로 193",
      "lat": "37.5220061",
      "lng": "126.9680315",
      "total_count": 5,
      "available_count": 2,
      "total_percent": 40.0,
      "slow_total": 5,
      "slow_avail": 2,
      "slow_percent": 40.0,
      "fast_total": 0,
      "fast_avail": 0,
      "fast_percent": 0.0,
      "latest_update": "20260713195105"
    },
    {
      "station_id": "PL032405",
      "name": "용산 데시앙포레아파트",
      "address": "서울특별시 용산구 효창원로 227",
      "lat": "37.5473793",
      "lng": "126.9620391",
      "total_count": 5,
      "available_count": 2,
      "total_percent": 40.0,
      "slow_total": 5,
      "slow_avail": 2,
      "slow_percent": 40.0,
      "fast_total": 0,
      "fast_avail": 0,
      "fast_percent": 0.0,
      "latest_update": "20260713180322"
    },
    {
      "station_id": "CI0I000D",
      "name": "용산드래곤시티",
      "address": "서울특별시 용산구 청파로20길 95",
      "lat": "37.5321767",
      "lng": "126.9608486",
      "total_count": 4,
      "available_count": 3,
      "total_percent": 75.0,
      "slow_total": 4,
      "slow_avail": 3,
      "slow_percent": 75.0,
      "fast_total": 0,
      "fast_avail": 0,
      "fast_percent": 0.0,
      "latest_update": "20260713192527"
    },
    {
      "station_id": "CV001082",
      "name": "한남동공영주차장",
      "address": "서울특별시 용산구 이태원로 224-19",
      "lat": "37.535017",
      "lng": "127.000063",
      "total_count": 4,
      "available_count": 2,
      "total_percent": 50.0,
      "slow_total": 2,
      "slow_avail": 0,
      "slow_percent": 0.0,
      "fast_total": 2,
      "fast_avail": 2,
      "fast_percent": 100.0,
      "latest_update": "20260713190020"
    },
    {
      "station_id": "CV002086",
      "name": "한남동힐사이드아파트",
      "address": "서울특별시 용산구 한남대로36길 54",
      "lat": "37.542493",
      "lng": "127.005758",
      "total_count": 4,
      "available_count": 2,
      "total_percent": 50.0,
      "slow_total": 3,
      "slow_avail": 1,
      "slow_percent": 33.3,
      "fast_total": 1,
      "fast_avail": 1,
      "fast_percent": 100.0,
      "latest_update": "20260713200529"
    },
    {
      "station_id": "EABYDYS0",
      "name": "BYD 용산 전시장",
      "address": "서울특별시 용산구 청파로 74",
      "lat": "37.53278885",
      "lng": "126.95955853",
      "total_count": 4,
      "available_count": 3,
      "total_percent": 75.0,
      "slow_total": 4,
      "slow_avail": 3,
      "slow_percent": 75.0,
      "fast_total": 0,
      "fast_avail": 0,
      "fast_percent": 0.0,
      "latest_update": "20260713181500"
    },
    {
      "station_id": "ER000517",
      "name": "한강삼익아파트",
      "address": "서울 용산구 이촌로 260",
      "lat": "37.5185731",
      "lng": "126.9762116",
      "total_count": 4,
      "available_count": 3,
      "total_percent": 75.0,
      "slow_total": 4,
      "slow_avail": 3,
      "slow_percent": 75.0,
      "fast_total": 0,
      "fast_avail": 0,
      "fast_percent": 0.0,
      "latest_update": "20260713183425"
    },
    {
      "station_id": "EV001109",
      "name": "한강로벽산메가트리움2",
      "address": "서울특별시 용산구 한강대로43길 8",
      "lat": "37.5324582",
      "lng": "126.9698598",
      "total_count": 4,
      "available_count": 3,
      "total_percent": 75.0,
      "slow_total": 4,
      "slow_avail": 3,
      "slow_percent": 75.0,
      "fast_total": 0,
      "fast_avail": 0,
      "fast_percent": 0.0,
      "latest_update": "20260713173515"
    },
    {
      "station_id": "EV001176",
      "name": "서울용산 한남힐스테이트1",
      "address": "서울특별시 용산구 장문로 141",
      "lat": "37.5281192",
      "lng": "127.0039794",
      "total_count": 4,
      "available_count": 1,
      "total_percent": 25.0,
      "slow_total": 4,
      "slow_avail": 1,
      "slow_percent": 25.0,
      "fast_total": 0,
      "fast_avail": 0,
      "fast_percent": 0.0,
      "latest_update": "20260713184159"
    },
    {
      "station_id": "EV002505",
      "name": "서울 용산푸르지오써밋B6-2",
      "address": "서울특별시 용산구 한강대로 69",
      "lat": "37.5268977",
      "lng": "126.9649635",
      "total_count": 4,
      "available_count": 3,
      "total_percent": 75.0,
      "slow_total": 4,
      "slow_avail": 3,
      "slow_percent": 75.0,
      "fast_total": 0,
      "fast_avail": 0,
      "fast_percent": 0.0,
      "latest_update": "20260713195652"
    },
    {
      "station_id": "EV004036",
      "name": "서울용산 그린파크아파트",
      "address": "서울특별시 용산구 서빙고로51길 64",
      "lat": "37.5227431",
      "lng": "126.9915067",
      "total_count": 4,
      "available_count": 0,
      "total_percent": 0.0,
      "slow_total": 4,
      "slow_avail": 0,
      "slow_percent": 0.0,
      "fast_total": 0,
      "fast_avail": 0,
      "fast_percent": 0.0,
      "latest_update": "20260713185812"
    },
    {
      "station_id": "EV011072",
      "name": "서울용산 리버힐삼성아파트6",
      "address": "서울특별시 용산구 효창원로 17",
      "lat": "37.535205930",
      "lng": "126.94919324",
      "total_count": 4,
      "available_count": 1,
      "total_percent": 25.0,
      "slow_total": 4,
      "slow_avail": 1,
      "slow_percent": 25.0,
      "fast_total": 0,
      "fast_avail": 0,
      "fast_percent": 0.0,
      "latest_update": "20260713194644"
    },
    {
      "station_id": "EV011325",
      "name": "서울용산 용산이안5",
      "address": "서울특별시 용산구 백범로90길 74",
      "lat": "37.538139",
      "lng": "126.9696822",
      "total_count": 4,
      "available_count": 4,
      "total_percent": 100.0,
      "slow_total": 4,
      "slow_avail": 4,
      "slow_percent": 100.0,
      "fast_total": 0,
      "fast_avail": 0,
      "fast_percent": 0.0,
      "latest_update": "20260713070645"
    },
    {
      "station_id": "EV013900",
      "name": "서울용산 LG한강자이아파트 4",
      "address": "서울특별시 용산구 이촌로64길 15",
      "lat": "37.5194476",
      "lng": "126.9692995",
      "total_count": 4,
      "available_count": 3,
      "total_percent": 75.0,
      "slow_total": 4,
      "slow_avail": 3,
      "slow_percent": 75.0,
      "fast_total": 0,
      "fast_avail": 0,
      "fast_percent": 0.0,
      "latest_update": "20260713194802"
    },
    {
      "station_id": "EV013901",
      "name": "서울용산 LG한강자이아파트 5",
      "address": "서울특별시 용산구 이촌로64길 15",
      "lat": "37.5197087",
      "lng": "126.9685528",
      "total_count": 4,
      "available_count": 4,
      "total_percent": 100.0,
      "slow_total": 4,
      "slow_avail": 4,
      "slow_percent": 100.0,
      "fast_total": 0,
      "fast_avail": 0,
      "fast_percent": 0.0,
      "latest_update": "20260713151142"
    },
    {
      "station_id": "EZ210007",
      "name": "한강트럼프월드3차",
      "address": "서울특별시 용산구 한강대로 26",
      "lat": "37.5230298",
      "lng": "126.9628005",
      "total_count": 4,
      "available_count": 0,
      "total_percent": 0.0,
      "slow_total": 4,
      "slow_avail": 0,
      "slow_percent": 0.0,
      "fast_total": 0,
      "fast_avail": 0,
      "fast_percent": 0.0,
      "latest_update": "20260601113310"
    },
    {
      "station_id": "HE240193",
      "name": "용산주차빌딩",
      "address": "서울특별시 용산구 한강로2가 12-9",
      "lat": "37.5343941",
      "lng": "126.9651051",
      "total_count": 4,
      "available_count": 4,
      "total_percent": 100.0,
      "slow_total": 2,
      "slow_avail": 2,
      "slow_percent": 100.0,
      "fast_total": 2,
      "fast_avail": 2,
      "fast_percent": 100.0,
      "latest_update": "20260713194500"
    },
    {
      "station_id": "HE240412",
      "name": "힐탑트레져",
      "address": "서울특별시 용산구 유엔빌리지길 200-16",
      "lat": "37.5384695",
      "lng": "127.0135954",
      "total_count": 4,
      "available_count": 2,
      "total_percent": 50.0,
      "slow_total": 4,
      "slow_avail": 2,
      "slow_percent": 50.0,
      "fast_total": 0,
      "fast_avail": 0,
      "fast_percent": 0.0,
      "latest_update": "20260713195000"
    },
    {
      "station_id": "HY000777",
      "name": "현대자동차 원효로사옥",
      "address": "서울특별시 용산구 원효로 74",
      "lat": "37.5319791",
      "lng": "126.9518023",
      "total_count": 4,
      "available_count": 3,
      "total_percent": 75.0,
      "slow_total": 4,
      "slow_avail": 3,
      "slow_percent": 75.0,
      "fast_total": 0,
      "fast_avail": 0,
      "fast_percent": 0.0,
      "latest_update": "20260713173405"
    },
    {
      "station_id": "IN120058",
      "name": "삼구빌딩",
      "address": "서울특별시 용산구 청파로 40",
      "lat": "37.5318",
      "lng": "126.9562",
      "total_count": 4,
      "available_count": 0,
      "total_percent": 0.0,
      "slow_total": 4,
      "slow_avail": 0,
      "slow_percent": 0.0,
      "fast_total": 0,
      "fast_avail": 0,
      "fast_percent": 0.0,
      "latest_update": "20260615122838"
    },
    {
      "station_id": "IN120104",
      "name": "신창세방리버하이빌아파트",
      "address": "서울특별시 용산구 효창원로15길 16",
      "lat": "37.5362",
      "lng": "126.9538",
      "total_count": 4,
      "available_count": 0,
      "total_percent": 0.0,
      "slow_total": 4,
      "slow_avail": 0,
      "slow_percent": 0.0,
      "fast_total": 0,
      "fast_avail": 0,
      "fast_percent": 0.0,
      "latest_update": "20260615122841"
    },
    {
      "station_id": "KL001931",
      "name": "브라운스톤남산아파트_1",
      "address": "서울특별시 용산구 후암로 65",
      "lat": "37.5513144",
      "lng": "126.976378",
      "total_count": 4,
      "available_count": 4,
      "total_percent": 100.0,
      "slow_total": 4,
      "slow_avail": 4,
      "slow_percent": 100.0,
      "fast_total": 0,
      "fast_avail": 0,
      "fast_percent": 0.0,
      "latest_update": "20260712034701"
    },
    {
      "station_id": "KL002096",
      "name": "래미안용산아파트",
      "address": "서울특별시 용산구 한강대로 95",
      "lat": "37.5290927",
      "lng": "126.9668857",
      "total_count": 4,
      "available_count": 1,
      "total_percent": 25.0,
      "slow_total": 4,
      "slow_avail": 1,
      "slow_percent": 25.0,
      "fast_total": 0,
      "fast_avail": 0,
      "fast_percent": 0.0,
      "latest_update": "20260713192902"
    },
    {
      "station_id": "KP000814",
      "name": "LG한강자이 아파트",
      "address": "서울특별시 용산구 이촌동 이촌로64길 15",
      "lat": "37.5203545149",
      "lng": "126.9713624565",
      "total_count": 4,
      "available_count": 4,
      "total_percent": 100.0,
      "slow_total": 3,
      "slow_avail": 3,
      "slow_percent": 100.0,
      "fast_total": 1,
      "fast_avail": 1,
      "fast_percent": 100.0,
      "latest_update": "20260713043006"
    },
    {
      "station_id": "KP000823",
      "name": "파크타워 아파트",
      "address": "서울특별시 용산구 용산동5가 서빙고로 67",
      "lat": "37.5248628985",
      "lng": "126.9704149903",
      "total_count": 4,
      "available_count": 0,
      "total_percent": 0.0,
      "slow_total": 3,
      "slow_avail": 0,
      "slow_percent": 0.0,
      "fast_total": 1,
      "fast_avail": 0,
      "fast_percent": 0.0,
      "latest_update": "20260713172006"
    },
    {
      "station_id": "KP001369",
      "name": "메세나폴리스 아파트",
      "address": "서울특별시 용산구 용산동2가 녹사평대로 245",
      "lat": "37.551047",
      "lng": "126.913787",
      "total_count": 4,
      "available_count": 2,
      "total_percent": 50.0,
      "slow_total": 3,
      "slow_avail": 1,
      "slow_percent": 33.3,
      "fast_total": 1,
      "fast_avail": 1,
      "fast_percent": 100.0,
      "latest_update": "20260713182007"
    },
    {
      "station_id": "LU001058",
      "name": "DB동자동사옥",
      "address": "서울특별시 용산구 후암로 107",
      "lat": "37.553462",
      "lng": "126.973564",
      "total_count": 4,
      "available_count": 2,
      "total_percent": 50.0,
      "slow_total": 4,
      "slow_avail": 2,
      "slow_percent": 50.0,
      "fast_total": 0,
      "fast_avail": 0,
      "fast_percent": 0.0,
      "latest_update": "20260713194120"
    },
    {
      "station_id": "LU002991",
      "name": "현대리버티하우스",
      "address": "서울특별시 용산구 독서당로 70",
      "lat": "37.533599",
      "lng": "127.008698",
      "total_count": 4,
      "available_count": 3,
      "total_percent": 75.0,
      "slow_total": 4,
      "slow_avail": 3,
      "slow_percent": 75.0,
      "fast_total": 0,
      "fast_avail": 0,
      "fast_percent": 0.0,
      "latest_update": "20260713182701"
    },
    {
      "station_id": "LU100460",
      "name": "용산북한강아파트",
      "address": "서울특별시 용산구 이촌로2가길 66",
      "lat": "37.52757991",
      "lng": "126.95370466",
      "total_count": 4,
      "available_count": 1,
      "total_percent": 25.0,
      "slow_total": 4,
      "slow_avail": 1,
      "slow_percent": 25.0,
      "fast_total": 0,
      "fast_avail": 0,
      "fast_percent": 0.0,
      "latest_update": "20260713193611"
    },
    {
      "station_id": "NT101505",
      "name": "용산 일신빌딩",
      "address": "서울특별시 용산구 한남대로 98",
      "lat": "37.53716",
      "lng": "127.00551",
      "total_count": 4,
      "available_count": 4,
      "total_percent": 100.0,
      "slow_total": 4,
      "slow_avail": 4,
      "slow_percent": 100.0,
      "fast_total": 0,
      "fast_avail": 0,
      "fast_percent": 0.0,
      "latest_update": "20260713171250"
    },
    {
      "station_id": "PI200385",
      "name": "서울시 용산구 LG한강자이아파트",
      "address": "서울특별시 용산구 이촌로64길 15",
      "lat": "37.518954738",
      "lng": "126.97108415",
      "total_count": 4,
      "available_count": 4,
      "total_percent": 100.0,
      "slow_total": 4,
      "slow_avail": 4,
      "slow_percent": 100.0,
      "fast_total": 0,
      "fast_avail": 0,
      "fast_percent": 0.0,
      "latest_update": "20260711154603"
    },
    {
      "station_id": "PI202162",
      "name": "LG한강자이아파트105동",
      "address": "서울특별시 용산구 이촌로64길 15",
      "lat": "37.5192902",
      "lng": "126.9704364",
      "total_count": 4,
      "available_count": 4,
      "total_percent": 100.0,
      "slow_total": 4,
      "slow_avail": 4,
      "slow_percent": 100.0,
      "fast_total": 0,
      "fast_avail": 0,
      "fast_percent": 0.0,
      "latest_update": "20260711073613"
    },
    {
      "station_id": "PI202286",
      "name": "한강트럼프월드3차",
      "address": "서울특별시 용산구 한강대로 26 (한강로3가, 한강대우트럼프월드3차)",
      "lat": "37.5235",
      "lng": "126.963",
      "total_count": 4,
      "available_count": 3,
      "total_percent": 75.0,
      "slow_total": 4,
      "slow_avail": 3,
      "slow_percent": 75.0,
      "fast_total": 0,
      "fast_avail": 0,
      "fast_percent": 0.0,
      "latest_update": "20260713175112"
    },
    {
      "station_id": "PI202771",
      "name": "용산파크타워2단지지하3층",
      "address": "서울특별시 용산구 서빙고로 67",
      "lat": "37.523289",
      "lng": "126.9729547",
      "total_count": 4,
      "available_count": 3,
      "total_percent": 75.0,
      "slow_total": 4,
      "slow_avail": 3,
      "slow_percent": 75.0,
      "fast_total": 0,
      "fast_avail": 0,
      "fast_percent": 0.0,
      "latest_update": "20260713194616"
    },
    {
      "station_id": "PI807716",
      "name": "서울 용산구 더프라임타워",
      "address": "서울특별시 용산구 원효로90길 11",
      "lat": "37.5403958",
      "lng": "126.9697185",
      "total_count": 4,
      "available_count": 2,
      "total_percent": 50.0,
      "slow_total": 4,
      "slow_avail": 2,
      "slow_percent": 50.0,
      "fast_total": 0,
      "fast_avail": 0,
      "fast_percent": 0.0,
      "latest_update": "20260713175812"
    },
    {
      "station_id": "PIH00777",
      "name": "한강대우아파트",
      "address": "서울특별시 용산구 이촌로 181",
      "lat": "37.522151303",
      "lng": "126.97066357",
      "total_count": 4,
      "available_count": 3,
      "total_percent": 75.0,
      "slow_total": 4,
      "slow_avail": 3,
      "slow_percent": 75.0,
      "fast_total": 0,
      "fast_avail": 0,
      "fast_percent": 0.0,
      "latest_update": "20260712222226"
    },
    {
      "station_id": "PIS00040",
      "name": "서울 용산구 삼구빌딩",
      "address": "서울특별시 용산구 청파로 40",
      "lat": "37.5318000",
      "lng": "126.9562000",
      "total_count": 4,
      "available_count": 4,
      "total_percent": 100.0,
      "slow_total": 4,
      "slow_avail": 4,
      "slow_percent": 100.0,
      "fast_total": 0,
      "fast_avail": 0,
      "fast_percent": 0.0,
      "latest_update": "20260713191630"
    },
    {
      "station_id": "PIS00089",
      "name": "서울 용산구 신창세방리버하이빌아파트",
      "address": "서울특별시 용산구 효창원로15길 16",
      "lat": "37.5362000",
      "lng": "126.9538000",
      "total_count": 4,
      "available_count": 4,
      "total_percent": 100.0,
      "slow_total": 4,
      "slow_avail": 4,
      "slow_percent": 100.0,
      "fast_total": 0,
      "fast_avail": 0,
      "fast_percent": 0.0,
      "latest_update": "20260713123812"
    },
    {
      "station_id": "PL000176",
      "name": "지에스 한강에클라트",
      "address": "서울특별시 용산구 이촌로 1",
      "lat": "37.5313838",
      "lng": "126.955345",
      "total_count": 4,
      "available_count": 4,
      "total_percent": 100.0,
      "slow_total": 4,
      "slow_avail": 4,
      "slow_percent": 100.0,
      "fast_total": 0,
      "fast_avail": 0,
      "fast_percent": 0.0,
      "latest_update": "20260713195345"
    },
    {
      "station_id": "PL008458",
      "name": "강변삼성스위트",
      "address": "서울 용산구 원효로 40",
      "lat": "37.5340820",
      "lng": "126.9485823",
      "total_count": 4,
      "available_count": 4,
      "total_percent": 100.0,
      "slow_total": 4,
      "slow_avail": 4,
      "slow_percent": 100.0,
      "fast_total": 0,
      "fast_avail": 0,
      "fast_percent": 0.0,
      "latest_update": "20260713192908"
    },
    {
      "station_id": "PW000525",
      "name": "동부센트레빌아스테리움서울",
      "address": "서울특별시 용산구 한강대로 372",
      "lat": "37.551130",
      "lng": "126.973651",
      "total_count": 4,
      "available_count": 1,
      "total_percent": 25.0,
      "slow_total": 4,
      "slow_avail": 1,
      "slow_percent": 25.0,
      "fast_total": 0,
      "fast_avail": 0,
      "fast_percent": 0.0,
      "latest_update": "20260713183710"
    },
    {
      "station_id": "SF002279",
      "name": "한남하이페리온2차",
      "address": "서울특별시 용산구 서빙고로 417",
      "lat": "37.528374326",
      "lng": "127.00593741",
      "total_count": 4,
      "available_count": 4,
      "total_percent": 100.0,
      "slow_total": 4,
      "slow_avail": 4,
      "slow_percent": 100.0,
      "fast_total": 0,
      "fast_avail": 0,
      "fast_percent": 0.0,
      "latest_update": "20260711180441"
    },
    {
      "station_id": "SF002861",
      "name": "삼라마이다스빌",
      "address": "서울특별시 용산구 백범로90라길 28",
      "lat": "37.538444816",
      "lng": "126.96918208",
      "total_count": 4,
      "available_count": 3,
      "total_percent": 75.0,
      "slow_total": 4,
      "slow_avail": 3,
      "slow_percent": 75.0,
      "fast_total": 0,
      "fast_avail": 0,
      "fast_percent": 0.0,
      "latest_update": "20260713180426"
    },
    {
      "station_id": "SF002891",
      "name": "삼성테마트상가",
      "address": "서울특별시 용산구 원효로 51",
      "lat": "37.533863362",
      "lng": "126.95007031",
      "total_count": 4,
      "available_count": 4,
      "total_percent": 100.0,
      "slow_total": 4,
      "slow_avail": 4,
      "slow_percent": 100.0,
      "fast_total": 0,
      "fast_avail": 0,
      "fast_percent": 0.0,
      "latest_update": "20260713190927"
    },
    {
      "station_id": "ST600323",
      "name": "공항철도 서울역",
      "address": "서울특별시 용산구 청파로 378",
      "lat": "37.549118478",
      "lng": "126.97048428",
      "total_count": 4,
      "available_count": 4,
      "total_percent": 100.0,
      "slow_total": 0,
      "slow_avail": 0,
      "slow_percent": 0.0,
      "fast_total": 4,
      "fast_avail": 4,
      "fast_percent": 100.0,
      "latest_update": "20260713200004"
    },
    {
      "station_id": "BT000149",
      "name": "이태원2동 공영주차장",
      "address": "서울특별시 용산구 회나무로 55",
      "lat": "37.54047812",
      "lng": "126.9927159",
      "total_count": 3,
      "available_count": 2,
      "total_percent": 66.7,
      "slow_total": 1,
      "slow_avail": 1,
      "slow_percent": 100.0,
      "fast_total": 2,
      "fast_avail": 1,
      "fast_percent": 50.0,
      "latest_update": "20260713131752"
    },
    {
      "station_id": "BT000151",
      "name": "전자상가제3공영주차장",
      "address": "서울특별시 용산구 청파로 74",
      "lat": "37.53278886",
      "lng": "126.9595585",
      "total_count": 3,
      "available_count": 1,
      "total_percent": 33.3,
      "slow_total": 1,
      "slow_avail": 0,
      "slow_percent": 0.0,
      "fast_total": 2,
      "fast_avail": 1,
      "fast_percent": 50.0,
      "latest_update": "20260713193446"
    },
    {
      "station_id": "BT000152",
      "name": "전자상가제2공영주차장",
      "address": "서울특별시 용산구 새창로 170-4",
      "lat": "37.5324193",
      "lng": "126.9632615",
      "total_count": 3,
      "available_count": 2,
      "total_percent": 66.7,
      "slow_total": 1,
      "slow_avail": 1,
      "slow_percent": 100.0,
      "fast_total": 2,
      "fast_avail": 1,
      "fast_percent": 50.0,
      "latest_update": "20260713190054"
    },
    {
      "station_id": "BT000153",
      "name": "전자상가제1공영주차장",
      "address": "서울특별시 용산구 새창로 170-4",
      "lat": "37.5324193",
      "lng": "126.9632615",
      "total_count": 3,
      "available_count": 2,
      "total_percent": 66.7,
      "slow_total": 1,
      "slow_avail": 1,
      "slow_percent": 100.0,
      "fast_total": 2,
      "fast_avail": 1,
      "fast_percent": 50.0,
      "latest_update": "20260713195110"
    },
    {
      "station_id": "CGA00122",
      "name": "용산 브라운스톤아파트",
      "address": "서울특별시 용산구 효창원로 88",
      "lat": "37.536651174",
      "lng": "126.95903406",
      "total_count": 3,
      "available_count": 3,
      "total_percent": 100.0,
      "slow_total": 3,
      "slow_avail": 3,
      "slow_percent": 100.0,
      "fast_total": 0,
      "fast_avail": 0,
      "fast_percent": 0.0,
      "latest_update": "20260713083017"
    },
    {
      "station_id": "CV001446",
      "name": "포르쉐 데스티네이션 그랜드하얏트 서울",
      "address": "서울특별시 용산구 소월로 322",
      "lat": "37.539355",
      "lng": "126.997037",
      "total_count": 3,
      "available_count": 0,
      "total_percent": 0.0,
      "slow_total": 3,
      "slow_avail": 0,
      "slow_percent": 0.0,
      "fast_total": 0,
      "fast_avail": 0,
      "fast_percent": 0.0,
      "latest_update": "20260713195521"
    },
    {
      "station_id": "EC100001",
      "name": "래미안용산더센트럴 지하8층",
      "address": "서울특별시 용산구 한강대로 95",
      "lat": "37.5290233",
      "lng": "126.9671051",
      "total_count": 3,
      "available_count": 1,
      "total_percent": 33.3,
      "slow_total": 3,
      "slow_avail": 1,
      "slow_percent": 33.3,
      "fast_total": 0,
      "fast_avail": 0,
      "fast_percent": 0.0,
      "latest_update": "20260713191402"
    },
    {
      "station_id": "EV001108",
      "name": "한강로벽산메가트리움1",
      "address": "서울특별시 용산구 한강대로43길 8",
      "lat": "37.5318635",
      "lng": "126.9696621",
      "total_count": 3,
      "available_count": 3,
      "total_percent": 100.0,
      "slow_total": 3,
      "slow_avail": 3,
      "slow_percent": 100.0,
      "fast_total": 0,
      "fast_avail": 0,
      "fast_percent": 0.0,
      "latest_update": "20260713174322"
    },
    {
      "station_id": "EV001628",
      "name": "한남 더힐아파트121동",
      "address": "서울특별시 용산구 독서당로 111",
      "lat": "37.5368495",
      "lng": "127.0099907",
      "total_count": 3,
      "available_count": 3,
      "total_percent": 100.0,
      "slow_total": 3,
      "slow_avail": 3,
      "slow_percent": 100.0,
      "fast_total": 0,
      "fast_avail": 0,
      "fast_percent": 0.0,
      "latest_update": "20260713075715"
    },
    {
      "station_id": "EV001630",
      "name": "한남 더힐아파트125동",
      "address": "서울특별시 용산구 독서당로 111",
      "lat": "37.535899",
      "lng": "127.0097586",
      "total_count": 3,
      "available_count": 2,
      "total_percent": 66.7,
      "slow_total": 3,
      "slow_avail": 2,
      "slow_percent": 66.7,
      "fast_total": 0,
      "fast_avail": 0,
      "fast_percent": 0.0,
      "latest_update": "20260713183354"
    },
    {
      "station_id": "EV002504",
      "name": "서울 용산푸르지오써밋B6-1",
      "address": "서울특별시 용산구 한강대로 69",
      "lat": "37.5272266",
      "lng": "126.9652349",
      "total_count": 3,
      "available_count": 2,
      "total_percent": 66.7,
      "slow_total": 3,
      "slow_avail": 2,
      "slow_percent": 66.7,
      "fast_total": 0,
      "fast_avail": 0,
      "fast_percent": 0.0,
      "latest_update": "20260713191022"
    },
    {
      "station_id": "EV003034",
      "name": "서울 용산KCC웰츠타워102동",
      "address": "서울특별시 용산구 백범로90길 90",
      "lat": "37.537855",
      "lng": "126.9689496",
      "total_count": 3,
      "available_count": 3,
      "total_percent": 100.0,
      "slow_total": 3,
      "slow_avail": 3,
      "slow_percent": 100.0,
      "fast_total": 0,
      "fast_avail": 0,
      "fast_percent": 0.0,
      "latest_update": "20260713141506"
    },
    {
      "station_id": "EV004040",
      "name": "서울용산 베르디움프렌즈아파트",
      "address": "서울특별시 용산구 백범로99길 40",
      "lat": "37.5358259",
      "lng": "126.9716393",
      "total_count": 3,
      "available_count": 2,
      "total_percent": 66.7,
      "slow_total": 3,
      "slow_avail": 2,
      "slow_percent": 66.7,
      "fast_total": 0,
      "fast_avail": 0,
      "fast_percent": 0.0,
      "latest_update": "20260713175931"
    },
    {
      "station_id": "EV004535",
      "name": "서울용산 용산이안1",
      "address": "서울특별시 용산구 백범로90길 74",
      "lat": "37.537954406",
      "lng": "126.97025367",
      "total_count": 3,
      "available_count": 3,
      "total_percent": 100.0,
      "slow_total": 3,
      "slow_avail": 3,
      "slow_percent": 100.0,
      "fast_total": 0,
      "fast_avail": 0,
      "fast_percent": 0.0,
      "latest_update": "20260713035253"
    },
    {
      "station_id": "EV004595",
      "name": "서울용산 리버힐삼성아파트 120주차장",
      "address": "서울특별시 용산구 효창원로 17",
      "lat": "37.5344327",
      "lng": "126.9501826",
      "total_count": 3,
      "available_count": 2,
      "total_percent": 66.7,
      "slow_total": 3,
      "slow_avail": 2,
      "slow_percent": 66.7,
      "fast_total": 0,
      "fast_avail": 0,
      "fast_percent": 0.0,
      "latest_update": "20260713200204"
    },
    {
      "station_id": "EV004596",
      "name": "서울용산 리버힐삼성아파트 121주차장",
      "address": "서울특별시 용산구 효창원로 17",
      "lat": "37.5344327",
      "lng": "126.9501826",
      "total_count": 3,
      "available_count": 2,
      "total_percent": 66.7,
      "slow_total": 3,
      "slow_avail": 2,
      "slow_percent": 66.7,
      "fast_total": 0,
      "fast_avail": 0,
      "fast_percent": 0.0,
      "latest_update": "20260713162025"
    },
    {
      "station_id": "EV004609",
      "name": "리첸시아용산(B)",
      "address": "서울특별시 용산구 백범로 341",
      "lat": "37.537791638",
      "lng": "126.96800212",
      "total_count": 3,
      "available_count": 2,
      "total_percent": 66.7,
      "slow_total": 3,
      "slow_avail": 2,
      "slow_percent": 66.7,
      "fast_total": 0,
      "fast_avail": 0,
      "fast_percent": 0.0,
      "latest_update": "20260713164038"
    },
    {
      "station_id": "EV006014",
      "name": "서울용산 용산KCC웰츠타워2",
      "address": "서울특별시 용산구 백범로90길 90",
      "lat": "37.537990126",
      "lng": "126.96900904",
      "total_count": 3,
      "available_count": 2,
      "total_percent": 66.7,
      "slow_total": 3,
      "slow_avail": 2,
      "slow_percent": 66.7,
      "fast_total": 0,
      "fast_avail": 0,
      "fast_percent": 0.0,
      "latest_update": "20260713194446"
    },
    {
      "station_id": "EV008941",
      "name": "서울용산 한남더힐아파트1",
      "address": "서울특별시 용산구 독서당로 111",
      "lat": "37.536601853",
      "lng": "127.00832746",
      "total_count": 3,
      "available_count": 3,
      "total_percent": 100.0,
      "slow_total": 3,
      "slow_avail": 3,
      "slow_percent": 100.0,
      "fast_total": 0,
      "fast_avail": 0,
      "fast_percent": 0.0,
      "latest_update": "20260711104218"
    },
    {
      "station_id": "EV008942",
      "name": "서울용산 한남더힐아파트2",
      "address": "서울특별시 용산구 독서당로 111",
      "lat": "37.536606355",
      "lng": "127.00837272",
      "total_count": 3,
      "available_count": 2,
      "total_percent": 66.7,
      "slow_total": 3,
      "slow_avail": 2,
      "slow_percent": 66.7,
      "fast_total": 0,
      "fast_avail": 0,
      "fast_percent": 0.0,
      "latest_update": "20260713140701"
    },
    {
      "station_id": "EV008948",
      "name": "서울용산 한남더힐아파트8",
      "address": "서울특별시 용산구 독서당로 111",
      "lat": "37.535910200",
      "lng": "127.01006697",
      "total_count": 3,
      "available_count": 1,
      "total_percent": 33.3,
      "slow_total": 3,
      "slow_avail": 1,
      "slow_percent": 33.3,
      "fast_total": 0,
      "fast_avail": 0,
      "fast_percent": 0.0,
      "latest_update": "20260713184804"
    },
    {
      "station_id": "EV008949",
      "name": "서울용산 한남더힐아파트9",
      "address": "서울특별시 용산구 독서당로 111",
      "lat": "37.535912484",
      "lng": "127.00969642",
      "total_count": 3,
      "available_count": 1,
      "total_percent": 33.3,
      "slow_total": 3,
      "slow_avail": 1,
      "slow_percent": 33.3,
      "fast_total": 0,
      "fast_avail": 0,
      "fast_percent": 0.0,
      "latest_update": "20260713190216"
    },
    {
      "station_id": "EV008950",
      "name": "서울용산 한남더힐아파트10",
      "address": "서울특별시 용산구 독서당로 111",
      "lat": "37.535890004",
      "lng": "127.00913070",
      "total_count": 3,
      "available_count": 1,
      "total_percent": 33.3,
      "slow_total": 3,
      "slow_avail": 1,
      "slow_percent": 33.3,
      "fast_total": 0,
      "fast_avail": 0,
      "fast_percent": 0.0,
      "latest_update": "20260713185409"
    },
    {
      "station_id": "EV008951",
      "name": "서울용산 한남더힐아파트11",
      "address": "서울특별시 용산구 독서당로 111",
      "lat": "37.535813453",
      "lng": "127.00867812",
      "total_count": 3,
      "available_count": 1,
      "total_percent": 33.3,
      "slow_total": 3,
      "slow_avail": 1,
      "slow_percent": 33.3,
      "fast_total": 0,
      "fast_avail": 0,
      "fast_percent": 0.0,
      "latest_update": "20260713181341"
    },
    {
      "station_id": "EV010717",
      "name": "서울용산 리버힐삼성아파트 2",
      "address": "서울특별시 용산구 효창원로 17",
      "lat": "37.534764687",
      "lng": "126.94977339",
      "total_count": 3,
      "available_count": 3,
      "total_percent": 100.0,
      "slow_total": 3,
      "slow_avail": 3,
      "slow_percent": 100.0,
      "fast_total": 0,
      "fast_avail": 0,
      "fast_percent": 0.0,
      "latest_update": "20260713035654"
    },
    {
      "station_id": "EV010718",
      "name": "서울용산 리버힐삼성아파트 3",
      "address": "서울특별시 용산구 효창원로 17",
      "lat": "37.534764717",
      "lng": "126.94984411",
      "total_count": 3,
      "available_count": 2,
      "total_percent": 66.7,
      "slow_total": 3,
      "slow_avail": 2,
      "slow_percent": 66.7,
      "fast_total": 0,
      "fast_avail": 0,
      "fast_percent": 0.0,
      "latest_update": "20260710160947"
    },
    {
      "station_id": "EV011071",
      "name": "서울용산 리버힐삼성아파트5",
      "address": "서울특별시 용산구 효창원로 17",
      "lat": "37.535266649",
      "lng": "126.94896691",
      "total_count": 3,
      "available_count": 1,
      "total_percent": 33.3,
      "slow_total": 3,
      "slow_avail": 1,
      "slow_percent": 33.3,
      "fast_total": 0,
      "fast_avail": 0,
      "fast_percent": 0.0,
      "latest_update": "20260713191624"
    },
    {
      "station_id": "EV011073",
      "name": "서울용산 리버힐삼성아파트7",
      "address": "서울특별시 용산구 효창원로 17",
      "lat": "37.535033314",
      "lng": "126.95115355",
      "total_count": 3,
      "available_count": 3,
      "total_percent": 100.0,
      "slow_total": 3,
      "slow_avail": 3,
      "slow_percent": 100.0,
      "fast_total": 0,
      "fast_avail": 0,
      "fast_percent": 0.0,
      "latest_update": "20260712195359"
    },
    {
      "station_id": "EV012745",
      "name": "서울용산 도원삼성래미안 (콘센트)",
      "address": "서울특별시 용산구 새창로8길 7 (도원동, 도원동삼성래미안아파트)",
      "lat": "37.5396768",
      "lng": "126.9562773",
      "total_count": 3,
      "available_count": 3,
      "total_percent": 100.0,
      "slow_total": 3,
      "slow_avail": 3,
      "slow_percent": 100.0,
      "fast_total": 0,
      "fast_avail": 0,
      "fast_percent": 0.0,
      "latest_update": "20260626043536"
    },
    {
      "station_id": "EV014607",
      "name": "서울용산 토투밸리 1",
      "address": "서울특별시 용산구 새창로 217",
      "lat": "37.5302412",
      "lng": "126.9679092",
      "total_count": 3,
      "available_count": 3,
      "total_percent": 100.0,
      "slow_total": 3,
      "slow_avail": 3,
      "slow_percent": 100.0,
      "fast_total": 0,
      "fast_avail": 0,
      "fast_percent": 0.0,
      "latest_update": "20260713195249"
    },
    {
      "station_id": "EV016934",
      "name": "서울용산 리버힐삼성아파트 제2관리사무소",
      "address": "서울특별시 용산구 효창원로13길 7 (산천동, 리버힐삼성아파트)",
      "lat": "37.5356967",
      "lng": "126.9520964",
      "total_count": 3,
      "available_count": 3,
      "total_percent": 100.0,
      "slow_total": 3,
      "slow_avail": 3,
      "slow_percent": 100.0,
      "fast_total": 0,
      "fast_avail": 0,
      "fast_percent": 0.0,
      "latest_update": "20260711233427"
    },
    {
      "station_id": "EV019283",
      "name": "서울용산 용산KCC웰츠타워 1",
      "address": "서울 용산구 백범로90길 90",
      "lat": "37.5377465",
      "lng": "126.9688331",
      "total_count": 3,
      "available_count": 0,
      "total_percent": 0.0,
      "slow_total": 3,
      "slow_avail": 0,
      "slow_percent": 0.0,
      "fast_total": 0,
      "fast_avail": 0,
      "fast_percent": 0.0,
      "latest_update": "20260713162830"
    },
    {
      "station_id": "EV019284",
      "name": "서울용산 용산KCC웰츠타워 2",
      "address": "서울 용산구 백범로90길 90",
      "lat": "37.5377465",
      "lng": "126.9688331",
      "total_count": 3,
      "available_count": 1,
      "total_percent": 33.3,
      "slow_total": 3,
      "slow_avail": 1,
      "slow_percent": 33.3,
      "fast_total": 0,
      "fast_avail": 0,
      "fast_percent": 0.0,
      "latest_update": "20260713195249"
    },
    {
      "station_id": "HE240194",
      "name": "한강진역 공영주차장",
      "address": "서울특별시 용산구 한남동 728-27",
      "lat": "37.539476313",
      "lng": "127.00242422",
      "total_count": 3,
      "available_count": 3,
      "total_percent": 100.0,
      "slow_total": 2,
      "slow_avail": 2,
      "slow_percent": 100.0,
      "fast_total": 1,
      "fast_avail": 1,
      "fast_percent": 100.0,
      "latest_update": "20260713193700"
    },
    {
      "station_id": "HM001296",
      "name": "_대한의사협회",
      "address": "서울특별시 용산구 이촌로46길 37",
      "lat": "37.5206525",
      "lng": "126.9661923",
      "total_count": 3,
      "available_count": 3,
      "total_percent": 100.0,
      "slow_total": 2,
      "slow_avail": 2,
      "slow_percent": 100.0,
      "fast_total": 1,
      "fast_avail": 1,
      "fast_percent": 100.0,
      "latest_update": "20260713114214"
    },
    {
      "station_id": "KE000217",
      "name": "서울용산금호베스트빌1",
      "address": "서울특별시 용산구 서빙고로51길 68-14",
      "lat": "37.5230753",
      "lng": "126.9917568",
      "total_count": 3,
      "available_count": 3,
      "total_percent": 100.0,
      "slow_total": 3,
      "slow_avail": 3,
      "slow_percent": 100.0,
      "fast_total": 0,
      "fast_avail": 0,
      "fast_percent": 0.0,
      "latest_update": "20260713195910"
    },
    {
      "station_id": "KL001968",
      "name": "용산시티파크아파트",
      "address": "서울특별시 용산구 서빙고로 35",
      "lat": "37.5251636",
      "lng": "126.9694981",
      "total_count": 3,
      "available_count": 2,
      "total_percent": 66.7,
      "slow_total": 3,
      "slow_avail": 2,
      "slow_percent": 66.7,
      "fast_total": 0,
      "fast_avail": 0,
      "fast_percent": 0.0,
      "latest_update": "20260713173501"
    },
    {
      "station_id": "KL002387",
      "name": "원효전자상가㈜",
      "address": "서울특별시 용산구 청파로 77",
      "lat": "37.53366",
      "lng": "126.96064",
      "total_count": 3,
      "available_count": 3,
      "total_percent": 100.0,
      "slow_total": 3,
      "slow_avail": 3,
      "slow_percent": 100.0,
      "fast_total": 0,
      "fast_avail": 0,
      "fast_percent": 0.0,
      "latest_update": "20260713160801"
    },
    {
      "station_id": "KP000591",
      "name": "동아그린 아파트",
      "address": "서울특별시 용산구 이촌로 100-8",
      "lat": "37.5244879113",
      "lng": "126.9579666907",
      "total_count": 3,
      "available_count": 0,
      "total_percent": 0.0,
      "slow_total": 2,
      "slow_avail": 0,
      "slow_percent": 0.0,
      "fast_total": 1,
      "fast_avail": 0,
      "fast_percent": 0.0,
      "latest_update": "20260324153346"
    },
    {
      "station_id": "KP000593",
      "name": "청암자이 아파트",
      "address": "서울특별시 용산구 삼개로 60",
      "lat": "37.53489382",
      "lng": "126.94762740",
      "total_count": 3,
      "available_count": 3,
      "total_percent": 100.0,
      "slow_total": 2,
      "slow_avail": 2,
      "slow_percent": 100.0,
      "fast_total": 1,
      "fast_avail": 1,
      "fast_percent": 100.0,
      "latest_update": "20260713110023"
    },
    {
      "station_id": "KP000816",
      "name": "래미안첼리투스",
      "address": "서울특별시 용산구 이촌동 이촌로 300",
      "lat": "37.5178443505",
      "lng": "126.9803222459",
      "total_count": 3,
      "available_count": 1,
      "total_percent": 33.3,
      "slow_total": 2,
      "slow_avail": 0,
      "slow_percent": 0.0,
      "fast_total": 1,
      "fast_avail": 1,
      "fast_percent": 100.0,
      "latest_update": "20260713180008"
    },
    {
      "station_id": "KP000822",
      "name": "이안용산프리미어",
      "address": "서울특별시 용산구 문배동 청파로 213",
      "lat": "37.5385977453",
      "lng": "126.9703507278",
      "total_count": 3,
      "available_count": 0,
      "total_percent": 0.0,
      "slow_total": 2,
      "slow_avail": 0,
      "slow_percent": 0.0,
      "fast_total": 1,
      "fast_avail": 0,
      "fast_percent": 0.0,
      "latest_update": "20260324153346"
    },
    {
      "station_id": "KP001372",
      "name": "한강대우",
      "address": "서울특별시 용산구 이촌동 이촌로 181 ",
      "lat": "37.5221527454",
      "lng": "126.9706649312",
      "total_count": 3,
      "available_count": 3,
      "total_percent": 100.0,
      "slow_total": 3,
      "slow_avail": 3,
      "slow_percent": 100.0,
      "fast_total": 0,
      "fast_avail": 0,
      "fast_percent": 0.0,
      "latest_update": "20260712042017"
    },
    {
      "station_id": "KP003084",
      "name": "국립 중앙 박물관",
      "address": "서울특별시 용산구 용산동6가 11-426",
      "lat": "37.52388271089",
      "lng": "126.97937719206",
      "total_count": 3,
      "available_count": 3,
      "total_percent": 100.0,
      "slow_total": 0,
      "slow_avail": 0,
      "slow_percent": 0.0,
      "fast_total": 3,
      "fast_avail": 3,
      "fast_percent": 100.0,
      "latest_update": "20260713164024"
    },
    {
      "station_id": "KP003814",
      "name": "전쟁기념관",
      "address": "서울특별시 용산구 이태원로 29",
      "lat": "37.536754",
      "lng": "126.977161",
      "total_count": 3,
      "available_count": 3,
      "total_percent": 100.0,
      "slow_total": 0,
      "slow_avail": 0,
      "slow_percent": 0.0,
      "fast_total": 3,
      "fast_avail": 3,
      "fast_percent": 100.0,
      "latest_update": "20260712152015"
    },
    {
      "station_id": "LU000380",
      "name": "남산대림아파트",
      "address": "서울특별시 용산구 녹사평대로 254",
      "lat": "37.541581",
      "lng": "126.9884043",
      "total_count": 3,
      "available_count": 2,
      "total_percent": 66.7,
      "slow_total": 3,
      "slow_avail": 2,
      "slow_percent": 66.7,
      "fast_total": 0,
      "fast_avail": 0,
      "fast_percent": 0.0,
      "latest_update": "20260713194156"
    },
    {
      "station_id": "LU001792",
      "name": "용산빌딩",
      "address": "서울특별시 용산구 한강대로 273",
      "lat": "37.542569",
      "lng": "126.972116",
      "total_count": 3,
      "available_count": 3,
      "total_percent": 100.0,
      "slow_total": 3,
      "slow_avail": 3,
      "slow_percent": 100.0,
      "fast_total": 0,
      "fast_avail": 0,
      "fast_percent": 0.0,
      "latest_update": "20260713154843"
    },
    {
      "station_id": "NS850102",
      "name": "용산 한강로대우아이빌",
      "address": "서울특별시 용산구 한강대로43길 13",
      "lat": "37.53156323",
      "lng": "126.9691465",
      "total_count": 3,
      "available_count": 2,
      "total_percent": 66.7,
      "slow_total": 3,
      "slow_avail": 2,
      "slow_percent": 66.7,
      "fast_total": 0,
      "fast_avail": 0,
      "fast_percent": 0.0,
      "latest_update": "20260713182453"
    },
    {
      "station_id": "NT100845",
      "name": "용산 지오베르크",
      "address": "서울특별시 용산구 백범로 346",
      "lat": "37.537403868",
      "lng": "126.96729833",
      "total_count": 3,
      "available_count": 1,
      "total_percent": 33.3,
      "slow_total": 3,
      "slow_avail": 1,
      "slow_percent": 33.3,
      "fast_total": 0,
      "fast_avail": 0,
      "fast_percent": 0.0,
      "latest_update": "20260713185150"
    },
    {
      "station_id": "PC000597",
      "name": "서울용산국제학교",
      "address": "서울특별시 용산구 이태원로 285",
      "lat": "37.5410264",
      "lng": "127.0011366",
      "total_count": 3,
      "available_count": 2,
      "total_percent": 66.7,
      "slow_total": 3,
      "slow_avail": 2,
      "slow_percent": 66.7,
      "fast_total": 0,
      "fast_avail": 0,
      "fast_percent": 0.0,
      "latest_update": "20260713135441"
    },
    {
      "station_id": "PI204084",
      "name": "서울시 용산구 용산세무서",
      "address": "서울특별시 용산구 서빙고로24길 15",
      "lat": "37.523303198",
      "lng": "126.96876274",
      "total_count": 3,
      "available_count": 3,
      "total_percent": 100.0,
      "slow_total": 3,
      "slow_avail": 3,
      "slow_percent": 100.0,
      "fast_total": 0,
      "fast_avail": 0,
      "fast_percent": 0.0,
      "latest_update": "20260713185623"
    },
    {
      "station_id": "PI204098",
      "name": "서울시 용산구 용산전자랜드",
      "address": "서울특별시 용산구 청파로 74",
      "lat": "37.532858214",
      "lng": "126.95924442",
      "total_count": 3,
      "available_count": 3,
      "total_percent": 100.0,
      "slow_total": 3,
      "slow_avail": 3,
      "slow_percent": 100.0,
      "fast_total": 0,
      "fast_avail": 0,
      "fast_percent": 0.0,
      "latest_update": "20260713184622"
    },
    {
      "station_id": "PI709397",
      "name": "용산파크이편한세상",
      "address": "서울특별시 용산구 한강대로53길 16",
      "lat": "37.5342236",
      "lng": "126.970847",
      "total_count": 3,
      "available_count": 3,
      "total_percent": 100.0,
      "slow_total": 3,
      "slow_avail": 3,
      "slow_percent": 100.0,
      "fast_total": 0,
      "fast_avail": 0,
      "fast_percent": 0.0,
      "latest_update": "20260713095513"
    },
    {
      "station_id": "PI724755",
      "name": "용산전자오피스텔",
      "address": "서울특별시 용산구 청파로 48",
      "lat": "37.5321423",
      "lng": "126.9568178",
      "total_count": 3,
      "available_count": 3,
      "total_percent": 100.0,
      "slow_total": 3,
      "slow_avail": 3,
      "slow_percent": 100.0,
      "fast_total": 0,
      "fast_avail": 0,
      "fast_percent": 0.0,
      "latest_update": "20260713161735"
    },
    {
      "station_id": "PI762369",
      "name": "전자타운",
      "address": "서울특별시 용산구 청파로 113-12",
      "lat": "37.5341232",
      "lng": "126.9642615",
      "total_count": 3,
      "available_count": 3,
      "total_percent": 100.0,
      "slow_total": 3,
      "slow_avail": 3,
      "slow_percent": 100.0,
      "fast_total": 0,
      "fast_avail": 0,
      "fast_percent": 0.0,
      "latest_update": "20260713180030"
    },
    {
      "station_id": "PI795080",
      "name": "서울 용산구 래미안첼리투스",
      "address": "서울특별시 용산구 이촌로 310",
      "lat": "37.5172288",
      "lng": "126.9803217",
      "total_count": 3,
      "available_count": 1,
      "total_percent": 33.3,
      "slow_total": 3,
      "slow_avail": 1,
      "slow_percent": 33.3,
      "fast_total": 0,
      "fast_avail": 0,
      "fast_percent": 0.0,
      "latest_update": "20260713180759"
    },
    {
      "station_id": "PI802951",
      "name": "이태원주공아파트",
      "address": "서울특별시 용산구 녹사평대로 286",
      "lat": "37.5431279",
      "lng": "126.9895145",
      "total_count": 3,
      "available_count": 2,
      "total_percent": 66.7,
      "slow_total": 3,
      "slow_avail": 2,
      "slow_percent": 66.7,
      "fast_total": 0,
      "fast_avail": 0,
      "fast_percent": 0.0,
      "latest_update": "20260713195551"
    },
    {
      "station_id": "PI808957",
      "name": "서울 용산구 시티파크2단지B",
      "address": "서울특별시 용산구 서빙고로 31",
      "lat": "37.5262",
      "lng": "126.9697907",
      "total_count": 3,
      "available_count": 1,
      "total_percent": 33.3,
      "slow_total": 3,
      "slow_avail": 1,
      "slow_percent": 33.3,
      "fast_total": 0,
      "fast_avail": 0,
      "fast_percent": 0.0,
      "latest_update": "20260713191626"
    },
    {
      "station_id": "PIS00094",
      "name": "서울 용산구 더블랙레이블",
      "address": "서울특별시 용산구 이태원로 214",
      "lat": "37.5344623",
      "lng": "126.9978390",
      "total_count": 3,
      "available_count": 3,
      "total_percent": 100.0,
      "slow_total": 2,
      "slow_avail": 2,
      "slow_percent": 100.0,
      "fast_total": 1,
      "fast_avail": 1,
      "fast_percent": 100.0,
      "latest_update": "20260712173805"
    },
    {
      "station_id": "PL030345",
      "name": "동원베네스트",
      "address": "서울특별시 용산구 독서당로 22",
      "lat": "37.5301632",
      "lng": "127.0078018",
      "total_count": 3,
      "available_count": 2,
      "total_percent": 66.7,
      "slow_total": 3,
      "slow_avail": 2,
      "slow_percent": 66.7,
      "fast_total": 0,
      "fast_avail": 0,
      "fast_percent": 0.0,
      "latest_update": "20260713170901"
    },
    {
      "station_id": "PL031098",
      "name": "동원베네스트아파트",
      "address": "서울 용산구 이촌로14길 7",
      "lat": "37.5270731",
      "lng": "126.9549656",
      "total_count": 3,
      "available_count": 3,
      "total_percent": 100.0,
      "slow_total": 3,
      "slow_avail": 3,
      "slow_percent": 100.0,
      "fast_total": 0,
      "fast_avail": 0,
      "fast_percent": 0.0,
      "latest_update": "20260712214352"
    },
    {
      "station_id": "PW000524",
      "name": "동부센트레빌아스테리움서울 A",
      "address": "서울특별시 용산구 한강대로 372",
      "lat": "37.551130",
      "lng": "126.973655",
      "total_count": 3,
      "available_count": 3,
      "total_percent": 100.0,
      "slow_total": 3,
      "slow_avail": 3,
      "slow_percent": 100.0,
      "fast_total": 0,
      "fast_avail": 0,
      "fast_percent": 0.0,
      "latest_update": "20260713154210"
    },
    {
      "station_id": "PW012959",
      "name": "한남현대하이페리온2차아파트",
      "address": "서울특별시 용산구 서빙고로 417",
      "lat": "37.528374326",
      "lng": "127.00593741",
      "total_count": 3,
      "available_count": 2,
      "total_percent": 66.7,
      "slow_total": 3,
      "slow_avail": 2,
      "slow_percent": 66.7,
      "fast_total": 0,
      "fast_avail": 0,
      "fast_percent": 0.0,
      "latest_update": "20260713161520"
    },
    {
      "station_id": "PW015078",
      "name": "도원삼성래미안아파트(SP)",
      "address": "서울특별시 용산구 새창로 70",
      "lat": "37.538603053",
      "lng": "126.95494349",
      "total_count": 3,
      "available_count": 2,
      "total_percent": 66.7,
      "slow_total": 3,
      "slow_avail": 2,
      "slow_percent": 66.7,
      "fast_total": 0,
      "fast_avail": 0,
      "fast_percent": 0.0,
      "latest_update": "20260713190733"
    },
    {
      "station_id": "SO000055",
      "name": "해밀톤호텔",
      "address": "서울특별시 용산구 이태원로 179",
      "lat": "37.534846222",
      "lng": "126.99436955",
      "total_count": 3,
      "available_count": 2,
      "total_percent": 66.7,
      "slow_total": 3,
      "slow_avail": 2,
      "slow_percent": 66.7,
      "fast_total": 0,
      "fast_avail": 0,
      "fast_percent": 0.0,
      "latest_update": "20260713161805"
    },
    {
      "station_id": "ST111704",
      "name": "용산구 스마트폴 충전소",
      "address": "서울특별시 용산구 한강대로38길 35",
      "lat": "37.5286654",
      "lng": "126.9698406",
      "total_count": 3,
      "available_count": 3,
      "total_percent": 100.0,
      "slow_total": 0,
      "slow_avail": 0,
      "slow_percent": 0.0,
      "fast_total": 3,
      "fast_avail": 3,
      "fast_percent": 100.0,
      "latest_update": "20260713191840"
    },
    {
      "station_id": "AMAM0004",
      "name": "서계동 청년주택",
      "address": "서울특별시 용산구 청파로73길 34",
      "lat": "37.550569",
      "lng": "126.968172",
      "total_count": 2,
      "available_count": 2,
      "total_percent": 100.0,
      "slow_total": 2,
      "slow_avail": 2,
      "slow_percent": 100.0,
      "fast_total": 0,
      "fast_avail": 0,
      "fast_percent": 0.0,
      "latest_update": "20260713194659"
    },
    {
      "station_id": "CG000017",
      "name": "용산 서울 드래곤시티(B3F)",
      "address": "서울특별시 용산구 청파로20길 95",
      "lat": "37.5318165",
      "lng": "126.9627641",
      "total_count": 2,
      "available_count": 2,
      "total_percent": 100.0,
      "slow_total": 0,
      "slow_avail": 0,
      "slow_percent": 0.0,
      "fast_total": 2,
      "fast_avail": 2,
      "fast_percent": 100.0,
      "latest_update": "20260713123014"
    },
    {
      "station_id": "CGA00080",
      "name": "이태원 몬드리안호텔(B3F)",
      "address": "서울특별시 용산구 장문로 23",
      "lat": "37.5285656",
      "lng": "126.9931075",
      "total_count": 2,
      "available_count": 0,
      "total_percent": 0.0,
      "slow_total": 2,
      "slow_avail": 0,
      "slow_percent": 0.0,
      "fast_total": 0,
      "fast_avail": 0,
      "fast_percent": 0.0,
      "latest_update": "20260713194510"
    },
    {
      "station_id": "CGA00190",
      "name": "용산 한성한강수아파트",
      "address": "서울특별시 용산구 효창원로8길 16",
      "lat": "37.533632",
      "lng": "126.9514043",
      "total_count": 2,
      "available_count": 2,
      "total_percent": 100.0,
      "slow_total": 2,
      "slow_avail": 2,
      "slow_percent": 100.0,
      "fast_total": 0,
      "fast_avail": 0,
      "fast_percent": 0.0,
      "latest_update": "20260713101517"
    },