{
  "district": "송파구",
  "zscode": "11710",
  "summary": {
    "total_count": 500,
    "available_count": 339,
    "total_percent": 67.8,
    "slow_total": 420,
    "slow_avail": 262,
    "slow_percent": 62.4,
    "fast_total": 80,
    "fast_avail": 77,
    "fast_percent": 96.2,
    "station_count": 128
  },
  "stations": [
    {
      "station_id": "CU200016",
      "name": "송파삼성래미안",
      "address": "서울특별시 송파구 오금로32길 14",
      "lat": "37.504664",
      "lng": "127.118821",
      "total_count": 24,
      "available_count": 21,
      "total_percent": 87.5,
      "slow_total": 24,
      "slow_avail": 21,
      "slow_percent": 87.5,
      "fast_total": 0,
      "fast_avail": 0,
      "fast_percent": 0.0,
      "latest_update": "20260714051853"
    },
    {
      "station_id": "CV002910",
      "name": "송파파인타운7단지아파트 지하2층",
      "address": "서울특별시 송파구 충민로4길 19",
      "lat": "37.479057",
      "lng": "127.130109",
      "total_count": 19,
      "available_count": 17,
      "total_percent": 89.5,
      "slow_total": 19,
      "slow_avail": 17,
      "slow_percent": 89.5,
      "fast_total": 0,
      "fast_avail": 0,
      "fast_percent": 0.0,
      "latest_update": "20260714025533"
    },
    {
      "station_id": "CI0I0001",
      "name": "문정현대지식신업센터",
      "address": "서울특별시 송파구 법원로11길 7",
      "lat": "37.4853545",
      "lng": "127.1192266",
      "total_count": 16,
      "available_count": 15,
      "total_percent": 93.8,
      "slow_total": 16,
      "slow_avail": 15,
      "slow_percent": 93.8,
      "fast_total": 0,
      "fast_avail": 0,
      "fast_percent": 0.0,
      "latest_update": "20260714025335"
    },
    {
      "station_id": "CGA00070",
      "name": "송파 잠실 엘스_148동",
      "address": "서울특별시 송파구 올림픽로 99",
      "lat": "37.51565802",
      "lng": "127.0803895",
      "total_count": 12,
      "available_count": 8,
      "total_percent": 66.7,
      "slow_total": 12,
      "slow_avail": 8,
      "slow_percent": 66.7,
      "fast_total": 0,
      "fast_avail": 0,
      "fast_percent": 0.0,
      "latest_update": "20260714001512"
    },
    {
      "station_id": "DYME2052",
      "name": "서울 잠실더샵스타파크",
      "address": "서울특별시 송파구 올림픽로35가길 10",
      "lat": "37.516941",
      "lng": "127.1026334",
      "total_count": 12,
      "available_count": 6,
      "total_percent": 50.0,
      "slow_total": 12,
      "slow_avail": 6,
      "slow_percent": 50.0,
      "fast_total": 0,
      "fast_avail": 0,
      "fast_percent": 0.0,
      "latest_update": "20260713210701"
    },
    {
      "station_id": "BE240105",
      "name": "워터 송파 한양타워",
      "address": "서울특별시 송파구 법원로11길 12",
      "lat": "37.485955450",
      "lng": "127.11797785",
      "total_count": 10,
      "available_count": 8,
      "total_percent": 80.0,
      "slow_total": 6,
      "slow_avail": 4,
      "slow_percent": 66.7,
      "fast_total": 4,
      "fast_avail": 4,
      "fast_percent": 100.0,
      "latest_update": "20260713220726"
    },
    {
      "station_id": "CGA00069",
      "name": "송파 잠실 엘스_123동",
      "address": "서울특별시 송파구 올림픽로 99",
      "lat": "37.51305131",
      "lng": "127.0844247",
      "total_count": 10,
      "available_count": 6,
      "total_percent": 60.0,
      "slow_total": 10,
      "slow_avail": 6,
      "slow_percent": 60.0,
      "fast_total": 0,
      "fast_avail": 0,
      "fast_percent": 0.0,
      "latest_update": "20260714053012"
    },
    {
      "station_id": "CGA00067",
      "name": "송파 잠실 엘스_125동",
      "address": "서울특별시 송파구 올림픽로 99",
      "lat": "37.51365517",
      "lng": "127.0841539",
      "total_count": 9,
      "available_count": 2,
      "total_percent": 22.2,
      "slow_total": 9,
      "slow_avail": 2,
      "slow_percent": 22.2,
      "fast_total": 0,
      "fast_avail": 0,
      "fast_percent": 0.0,
      "latest_update": "20260713224514"
    },
    {
      "station_id": "CGA00071",
      "name": "송파 잠실 엘스_161동",
      "address": "서울특별시 송파구 올림픽로 99",
      "lat": "37.51432551",
      "lng": "127.0789516",
      "total_count": 9,
      "available_count": 5,
      "total_percent": 55.6,
      "slow_total": 9,
      "slow_avail": 5,
      "slow_percent": 55.6,
      "fast_total": 0,
      "fast_avail": 0,
      "fast_percent": 0.0,
      "latest_update": "20260714053007"
    },
    {
      "station_id": "CGA00074",
      "name": "송파 잠실 엘스_117동",
      "address": "서울특별시 송파구 올림픽로 99",
      "lat": "37.51259292",
      "lng": "127.0828407",
      "total_count": 9,
      "available_count": 5,
      "total_percent": 55.6,
      "slow_total": 9,
      "slow_avail": 5,
      "slow_percent": 55.6,
      "fast_total": 0,
      "fast_avail": 0,
      "fast_percent": 0.0,
      "latest_update": "20260714053009"
    },
    {
      "station_id": "CGA00075",
      "name": "송파 잠실 엘스_147동",
      "address": "서울특별시 송파구 올림픽로 99",
      "lat": "37.51610901",
      "lng": "127.0796774",
      "total_count": 9,
      "available_count": 3,
      "total_percent": 33.3,
      "slow_total": 9,
      "slow_avail": 3,
      "slow_percent": 33.3,
      "fast_total": 0,
      "fast_avail": 0,
      "fast_percent": 0.0,
      "latest_update": "20260713233007"
    },
    {
      "station_id": "EC110034",
      "name": "가락한신아파트",
      "address": "서울특별시 송파구 송파대로 220",
      "lat": "37.4897889",
      "lng": "127.1212023",
      "total_count": 9,
      "available_count": 6,
      "total_percent": 66.7,
      "slow_total": 9,
      "slow_avail": 6,
      "slow_percent": 66.7,
      "fast_total": 0,
      "fast_avail": 0,
      "fast_percent": 0.0,
      "latest_update": "20260713223602"
    },
    {
      "station_id": "CGA00158",
      "name": "송파 파인타운2단지",
      "address": "서울특별시 송파구 충민로 151",
      "lat": "37.4835171",
      "lng": "127.1313064",
      "total_count": 8,
      "available_count": 6,
      "total_percent": 75.0,
      "slow_total": 8,
      "slow_avail": 6,
      "slow_percent": 75.0,
      "fast_total": 0,
      "fast_avail": 0,
      "fast_percent": 0.0,
      "latest_update": "20260714050015"
    },
    {
      "station_id": "BPA00010",
      "name": "우성르보아위례",
      "address": "서울특별시 송파구 위례서로 234",
      "lat": "37.48",
      "lng": "127.14",
      "total_count": 7,
      "available_count": 5,
      "total_percent": 71.4,
      "slow_total": 7,
      "slow_avail": 5,
      "slow_percent": 71.4,
      "fast_total": 0,
      "fast_avail": 0,
      "fast_percent": 0.0,
      "latest_update": "20260714052316"
    },
    {
      "station_id": "CV000639",
      "name": "송파호반베르디움더퍼스트",
      "address": "서울특별시 송파구 동남로 342",
      "lat": "37.505459",
      "lng": "127.139985",
      "total_count": 7,
      "available_count": 7,
      "total_percent": 100.0,
      "slow_total": 7,
      "slow_avail": 7,
      "slow_percent": 100.0,
      "fast_total": 0,
      "fast_avail": 0,
      "fast_percent": 0.0,
      "latest_update": "20260713233518"
    },
    {
      "station_id": "EP220163",
      "name": "잠실올림픽공원아이파크 충전소",
      "address": "서울특별시 송파구 올림픽로43길 34",
      "lat": "37.525873648",
      "lng": "127.11515365",
      "total_count": 7,
      "available_count": 0,
      "total_percent": 0.0,
      "slow_total": 7,
      "slow_avail": 0,
      "slow_percent": 0.0,
      "fast_total": 0,
      "fast_avail": 0,
      "fast_percent": 0.0,
      "latest_update": "20260324150039"
    },
    {
      "station_id": "ME19Y601",
      "name": "가락시장",
      "address": "서울특별시 송파구 양재대로 932",
      "lat": "37.494161",
      "lng": "127.113843",
      "total_count": 6,
      "available_count": 6,
      "total_percent": 100.0,
      "slow_total": 0,
      "slow_avail": 0,
      "slow_percent": 0.0,
      "fast_total": 6,
      "fast_avail": 6,
      "fast_percent": 100.0,
      "latest_update": "20260714061220"
    },
    {
      "station_id": "CGA00068",
      "name": "송파 잠실 엘스_122동",
      "address": "서울특별시 송파구 올림픽로 99",
      "lat": "37.51264553",
      "lng": "127.0848767",
      "total_count": 6,
      "available_count": 4,
      "total_percent": 66.7,
      "slow_total": 6,
      "slow_avail": 4,
      "slow_percent": 66.7,
      "fast_total": 0,
      "fast_avail": 0,
      "fast_percent": 0.0,
      "latest_update": "20260714021506"
    },
    {
      "station_id": "CGA00072",
      "name": "송파 잠실 엘스_152동",
      "address": "서울특별시 송파구 올림픽로 99",
      "lat": "37.51499147",
      "lng": "127.080106",
      "total_count": 6,
      "available_count": 5,
      "total_percent": 83.3,
      "slow_total": 6,
      "slow_avail": 5,
      "slow_percent": 83.3,
      "fast_total": 0,
      "fast_avail": 0,
      "fast_percent": 0.0,
      "latest_update": "20260713233011"
    },
    {
      "station_id": "CGA00073",
      "name": "송파 잠실 엘스_163동",
      "address": "서울특별시 송파구 올림픽로 99",
      "lat": "37.51389257",
      "lng": "127.0796298",
      "total_count": 6,
      "available_count": 3,
      "total_percent": 50.0,
      "slow_total": 6,
      "slow_avail": 3,
      "slow_percent": 50.0,
      "fast_total": 0,
      "fast_avail": 0,
      "fast_percent": 0.0,
      "latest_update": "20260714031510"
    },
    {
      "station_id": "CGA00076",
      "name": "송파 잠실 엘스_157동",
      "address": "서울특별시 송파구 올림픽로 99",
      "lat": "37.51512524",
      "lng": "127.07813",
      "total_count": 6,
      "available_count": 4,
      "total_percent": 66.7,
      "slow_total": 6,
      "slow_avail": 4,
      "slow_percent": 66.7,
      "fast_total": 0,
      "fast_avail": 0,
      "fast_percent": 0.0,
      "latest_update": "20260713214511"
    },
    {
      "station_id": "CGA00077",
      "name": "송파 잠실 엘스_161동",
      "address": "서울특별시 송파구 올림픽로 99",
      "lat": "37.5143435",
      "lng": "127.0789968",
      "total_count": 6,
      "available_count": 4,
      "total_percent": 66.7,
      "slow_total": 6,
      "slow_avail": 4,
      "slow_percent": 66.7,
      "fast_total": 0,
      "fast_avail": 0,
      "fast_percent": 0.0,
      "latest_update": "20260713213014"
    },
    {
      "station_id": "CGA00078",
      "name": "송파 잠실 엘스_150동",
      "address": "서울특별시 송파구 올림픽로 99",
      "lat": "37.51546914",
      "lng": "127.0799029",
      "total_count": 6,
      "available_count": 4,
      "total_percent": 66.7,
      "slow_total": 6,
      "slow_avail": 4,
      "slow_percent": 66.7,
      "fast_total": 0,
      "fast_avail": 0,
      "fast_percent": 0.0,
      "latest_update": "20260713213008"
    },
    {
      "station_id": "CGA00079",
      "name": "송파 잠실 엘스_155동",
      "address": "서울특별시 송파구 올림픽로 99",
      "lat": "37.51506424",
      "lng": "127.0790881",
      "total_count": 6,
      "available_count": 5,
      "total_percent": 83.3,
      "slow_total": 6,
      "slow_avail": 5,
      "slow_percent": 83.3,
      "fast_total": 0,
      "fast_avail": 0,
      "fast_percent": 0.0,
      "latest_update": "20260713220010"
    },
    {
      "station_id": "CGA00152",
      "name": "송파 오금우방아파트",
      "address": "서울특별시 송파구 성내천로 87",
      "lat": "37.5012704",
      "lng": "127.1397425",
      "total_count": 6,
      "available_count": 4,
      "total_percent": 66.7,
      "slow_total": 6,
      "slow_avail": 4,
      "slow_percent": 66.7,
      "fast_total": 0,
      "fast_avail": 0,
      "fast_percent": 0.0,
      "latest_update": "20260714054509"
    },
    {
      "station_id": "CV001061",
      "name": "잠실역공영주차장",
      "address": "서울특별시 송파구 올림픽로 300",
      "lat": "37.5171634",
      "lng": "127.104248",
      "total_count": 6,
      "available_count": 6,
      "total_percent": 100.0,
      "slow_total": 6,
      "slow_avail": 6,
      "slow_percent": 100.0,
      "fast_total": 0,
      "fast_avail": 0,
      "fast_percent": 0.0,
      "latest_update": "20260714042520"
    },
    {
      "station_id": "EC110116",
      "name": "대림가락아파트 2동",
      "address": "서울특별시 송파구 양재대로 1109",
      "lat": "37.506862343",
      "lng": "127.12418374",
      "total_count": 6,
      "available_count": 3,
      "total_percent": 50.0,
      "slow_total": 6,
      "slow_avail": 3,
      "slow_percent": 50.0,
      "fast_total": 0,
      "fast_avail": 0,
      "fast_percent": 0.0,
      "latest_update": "20260713200802"
    },
    {
      "station_id": "EV005021",
      "name": "서울송파 송파체육문화회관",
      "address": "서울특별시 송파구 양산로 15",
      "lat": "37.4905949",
      "lng": "127.1428172",
      "total_count": 6,
      "available_count": 4,
      "total_percent": 66.7,
      "slow_total": 0,
      "slow_avail": 0,
      "slow_percent": 0.0,
      "fast_total": 6,
      "fast_avail": 4,
      "fast_percent": 66.7,
      "latest_update": "20260714054248"
    },
    {
      "station_id": "ME19X403",
      "name": "서울올림픽공원 남2문주차장",
      "address": "서울특별시 송파구 올림픽로",
      "lat": "37.514973",
      "lng": "127.123837",
      "total_count": 5,
      "available_count": 5,
      "total_percent": 100.0,
      "slow_total": 0,
      "slow_avail": 0,
      "slow_percent": 0.0,
      "fast_total": 5,
      "fast_avail": 5,
      "fast_percent": 100.0,
      "latest_update": "20260714061207"
    },
    {
      "station_id": "BE240709",
      "name": "워터 서울시교통회관",
      "address": "서울특별시 송파구 올림픽로 319",
      "lat": "37.5157661",
      "lng": "127.1056117",
      "total_count": 5,
      "available_count": 5,
      "total_percent": 100.0,
      "slow_total": 1,
      "slow_avail": 1,
      "slow_percent": 100.0,
      "fast_total": 4,
      "fast_avail": 4,
      "fast_percent": 100.0,
      "latest_update": "20260713170753"
    },
    {
      "station_id": "CGA00238",
      "name": "송파 잠실장미아파트①_25동~26동",
      "address": "서울특별시 송파구 올림픽로35길 104",
      "lat": "37.5215190",
      "lng": "127.1011520",
      "total_count": 5,
      "available_count": 0,
      "total_percent": 0.0,
      "slow_total": 5,
      "slow_avail": 0,
      "slow_percent": 0.0,
      "fast_total": 0,
      "fast_avail": 0,
      "fast_percent": 0.0,
      "latest_update": "20260714041510"
    },
    {
      "station_id": "CGA00240",
      "name": "송파 잠실장미아파트③_23동",
      "address": "서울특별시 송파구 올림픽로35길 104",
      "lat": "37.5198130",
      "lng": "127.1021280",
      "total_count": 5,
      "available_count": 0,
      "total_percent": 0.0,
      "slow_total": 5,
      "slow_avail": 0,
      "slow_percent": 0.0,
      "fast_total": 0,
      "fast_avail": 0,
      "fast_percent": 0.0,
      "latest_update": "20260713214508"
    },
    {
      "station_id": "CGA00246",
      "name": "송파 잠실장미아파트⑨_6동",
      "address": "서울특별시 송파구 올림픽로35길 104",
      "lat": "37.5190840",
      "lng": "127.0969630",
      "total_count": 5,
      "available_count": 2,
      "total_percent": 40.0,
      "slow_total": 5,
      "slow_avail": 2,
      "slow_percent": 40.0,
      "fast_total": 0,
      "fast_avail": 0,
      "fast_percent": 0.0,
      "latest_update": "20260714040013"
    },
    {
      "station_id": "EC001035",
      "name": "송파미성아파트",
      "address": "서울특별시 송파구 오금로32길 10",
      "lat": "37.5833581",
      "lng": "126.8789018",
      "total_count": 5,
      "available_count": 3,
      "total_percent": 60.0,
      "slow_total": 5,
      "slow_avail": 3,
      "slow_percent": 60.0,
      "fast_total": 0,
      "fast_avail": 0,
      "fast_percent": 0.0,
      "latest_update": "20260714045801"
    },
    {
      "station_id": "EV004850",
      "name": "서울송파 송파꿈에그린아파트2405동",
      "address": "서울특별시 송파구 위례광장로 121",
      "lat": "37.476865",
      "lng": "127.1382163",
      "total_count": 5,
      "available_count": 3,
      "total_percent": 60.0,
      "slow_total": 5,
      "slow_avail": 3,
      "slow_percent": 60.0,
      "fast_total": 0,
      "fast_avail": 0,
      "fast_percent": 0.0,
      "latest_update": "20260714044818"
    },
    {
      "station_id": "CGA00050",
      "name": "잠실 파크리오B상가(B3F)",
      "address": "서울특별시 송파구 올림픽로35길 10",
      "lat": "37.5203137",
      "lng": "127.1132652",
      "total_count": 4,
      "available_count": 4,
      "total_percent": 100.0,
      "slow_total": 4,
      "slow_avail": 4,
      "slow_percent": 100.0,
      "fast_total": 0,
      "fast_avail": 0,
      "fast_percent": 0.0,
      "latest_update": "20260713154514"
    },
    {
      "station_id": "CGA00239",
      "name": "송파 잠실장미아파트②_27동~28동",
      "address": "서울특별시 송파구 올림픽로35길 104",
      "lat": "37.5209460",
      "lng": "127.1026260",
      "total_count": 4,
      "available_count": 0,
      "total_percent": 0.0,
      "slow_total": 4,
      "slow_avail": 0,
      "slow_percent": 0.0,
      "fast_total": 0,
      "fast_avail": 0,
      "fast_percent": 0.0,
      "latest_update": "20260714041510"
    },
    {
      "station_id": "CGA00243",
      "name": "송파 잠실장미아파트⑥_20동~21동",
      "address": "서울특별시 송파구 올림픽로35길 104",
      "lat": "37.5188520",
      "lng": "127.1010140",
      "total_count": 4,
      "available_count": 4,
      "total_percent": 100.0,
      "slow_total": 4,
      "slow_avail": 4,
      "slow_percent": 100.0,
      "fast_total": 0,
      "fast_avail": 0,
      "fast_percent": 0.0,
      "latest_update": "20260713173006"
    },
    {
      "station_id": "CGA00245",
      "name": "송파 잠실장미아파트⑧_9동",
      "address": "서울특별시 송파구 올림픽로35길 104",
      "lat": "37.5186460",
      "lng": "127.0979980",
      "total_count": 4,
      "available_count": 2,
      "total_percent": 50.0,
      "slow_total": 4,
      "slow_avail": 2,
      "slow_percent": 50.0,
      "fast_total": 0,
      "fast_avail": 0,
      "fast_percent": 0.0,
      "latest_update": "20260714060014"
    },
    {
      "station_id": "CV000114",
      "name": "롯데캐슬골드(롯데쇼핑)",
      "address": "서울특별시 송파구 올림픽로 269",
      "lat": "37.514285",
      "lng": "127.100909",
      "total_count": 4,
      "available_count": 4,
      "total_percent": 100.0,
      "slow_total": 4,
      "slow_avail": 4,
      "slow_percent": 100.0,
      "fast_total": 0,
      "fast_avail": 0,
      "fast_percent": 0.0,
      "latest_update": "20260713175516"
    },
    {
      "station_id": "CV001643",
      "name": "서울위례솔초등학교",
      "address": "서울특별시 송파구 위례북로2길 12",
      "lat": "37.48664",
      "lng": "127.151052",
      "total_count": 4,
      "available_count": 4,
      "total_percent": 100.0,
      "slow_total": 4,
      "slow_avail": 4,
      "slow_percent": 100.0,
      "fast_total": 0,
      "fast_avail": 0,
      "fast_percent": 0.0,
      "latest_update": "20260713114022"
    },
    {
      "station_id": "CV001644",
      "name": "서울위례솔중학교",
      "address": "서울특별시 송파구 위례북로2길 10",
      "lat": "37.487128",
      "lng": "127.150117",
      "total_count": 4,
      "available_count": 4,
      "total_percent": 100.0,
      "slow_total": 4,
      "slow_avail": 4,
      "slow_percent": 100.0,
      "fast_total": 0,
      "fast_avail": 0,
      "fast_percent": 0.0,
      "latest_update": "20260713101024"
    },
    {
      "station_id": "CV002911",
      "name": "송파파인타운7단지아파트 지상1층",
      "address": "서울특별시 송파구 충민로4길 19",
      "lat": "37.479279",
      "lng": "127.131581",
      "total_count": 4,
      "available_count": 4,
      "total_percent": 100.0,
      "slow_total": 0,
      "slow_avail": 0,
      "slow_percent": 0.0,
      "fast_total": 4,
      "fast_avail": 4,
      "fast_percent": 100.0,
      "latest_update": "20260714055534"
    },
    {
      "station_id": "CV004392",
      "name": "포르쉐 센터 세영모빌리티 송파스튜디오",
      "address": "서울특별시 송파구 송파대로 423 (석촌동, 석촌빌딩)",
      "lat": "37.5043427",
      "lng": "127.1075323",
      "total_count": 4,
      "available_count": 4,
      "total_percent": 100.0,
      "slow_total": 0,
      "slow_avail": 0,
      "slow_percent": 0.0,
      "fast_total": 4,
      "fast_avail": 4,
      "fast_percent": 100.0,
      "latest_update": "20260713120531"
    },
    {
      "station_id": "EC001036",
      "name": "방이동대림가락아파트",
      "address": "서울특별시 송파구 양재대로 1109",
      "lat": "37.5073658",
      "lng": "127.1236618",
      "total_count": 4,
      "available_count": 2,
      "total_percent": 50.0,
      "slow_total": 4,
      "slow_avail": 2,
      "slow_percent": 50.0,
      "fast_total": 0,
      "fast_avail": 0,
      "fast_percent": 0.0,
      "latest_update": "20260714014002"
    },
    {
      "station_id": "EC004161",
      "name": "송파파크데일1단지 103동 B2",
      "address": "서울특별시 송파구 성내천로37길 37",
      "lat": "37.4998737",
      "lng": "127.1591055",
      "total_count": 4,
      "available_count": 1,
      "total_percent": 25.0,
      "slow_total": 4,
      "slow_avail": 1,
      "slow_percent": 25.0,
      "fast_total": 0,
      "fast_avail": 0,
      "fast_percent": 0.0,
      "latest_update": "20260714022601"
    },
    {
      "station_id": "EC110039",
      "name": "한맥기술",
      "address": "서울특별시 송파구 오금로 554",
      "lat": "37.4925564",
      "lng": "127.1503925",
      "total_count": 4,
      "available_count": 4,
      "total_percent": 100.0,
      "slow_total": 4,
      "slow_avail": 4,
      "slow_percent": 100.0,
      "fast_total": 0,
      "fast_avail": 0,
      "fast_percent": 0.0,
      "latest_update": "20260713102802"
    },
    {
      "station_id": "EV004876",
      "name": "서울송파 문정래미안아파트106동",
      "address": "서울특별시 송파구 문정로 83",
      "lat": "37.489474747",
      "lng": "127.13084891",
      "total_count": 4,
      "available_count": 2,
      "total_percent": 50.0,
      "slow_total": 4,
      "slow_avail": 2,
      "slow_percent": 50.0,
      "fast_total": 0,
      "fast_avail": 0,
      "fast_percent": 0.0,
      "latest_update": "20260714061245"
    },
    {
      "station_id": "CA000106",
      "name": "잠실엘퍼스트오피스텔",
      "address": "서울특별시 송파구 백제고분로51길 7",
      "lat": "37.515822625",
      "lng": "127.11466980",
      "total_count": 3,
      "available_count": 0,
      "total_percent": 0.0,
      "slow_total": 3,
      "slow_avail": 0,
      "slow_percent": 0.0,
      "fast_total": 0,
      "fast_avail": 0,
      "fast_percent": 0.0,
      "latest_update": "20260324145843"
    },
    {
      "station_id": "CGA00241",
      "name": "송파 잠실장미아파트④_15동",
      "address": "서울특별시 송파구 올림픽로35길 104",
      "lat": "37.5207440",
      "lng": "127.0998780",
      "total_count": 3,
      "available_count": 0,
      "total_percent": 0.0,
      "slow_total": 3,
      "slow_avail": 0,
      "slow_percent": 0.0,
      "fast_total": 0,
      "fast_avail": 0,
      "fast_percent": 0.0,
      "latest_update": "20260713170012"
    },
    {
      "station_id": "CGA00242",
      "name": "송파 잠실장미아파트⑤_12동",
      "address": "서울특별시 송파구 올림픽로35길 104",
      "lat": "37.5191090",
      "lng": "127.1000230",
      "total_count": 3,
      "available_count": 0,
      "total_percent": 0.0,
      "slow_total": 3,
      "slow_avail": 0,
      "slow_percent": 0.0,
      "fast_total": 0,
      "fast_avail": 0,
      "fast_percent": 0.0,
      "latest_update": "20260714031510"
    },
    {
      "station_id": "CGA00244",
      "name": "송파 잠실장미아파트⑦_2동",
      "address": "서울특별시 송파구 올림픽로35길 104",
      "lat": "37.5173590",
      "lng": "127.0981190",
      "total_count": 3,
      "available_count": 1,
      "total_percent": 33.3,
      "slow_total": 3,
      "slow_avail": 1,
      "slow_percent": 33.3,
      "fast_total": 0,
      "fast_avail": 0,
      "fast_percent": 0.0,
      "latest_update": "20260714054511"
    },
    {
      "station_id": "CV000913",
      "name": "위례포레샤인13단지아파트",
      "address": "서울특별시 송파구 위례서이로 25",
      "lat": "37.482792",
      "lng": "127.137587",
      "total_count": 3,
      "available_count": 2,
      "total_percent": 66.7,
      "slow_total": 2,
      "slow_avail": 1,
      "slow_percent": 50.0,
      "fast_total": 1,
      "fast_avail": 1,
      "fast_percent": 100.0,
      "latest_update": "20260714010019"
    },
    {
      "station_id": "CV000940",
      "name": "포레나송파아파트 1713동",
      "address": "서울특별시 송파구 위례송파로 123",
      "lat": "37.485945",
      "lng": "127.148357",
      "total_count": 3,
      "available_count": 3,
      "total_percent": 100.0,
      "slow_total": 2,
      "slow_avail": 2,
      "slow_percent": 100.0,
      "fast_total": 1,
      "fast_avail": 1,
      "fast_percent": 100.0,
      "latest_update": "20260714015019"
    },
    {
      "station_id": "CV000941",
      "name": "송파레이크힐",
      "address": "서울특별시 송파구 위례송파로 89",
      "lat": "37.485766",
      "lng": "127.14421",
      "total_count": 3,
      "available_count": 2,
      "total_percent": 66.7,
      "slow_total": 2,
      "slow_avail": 1,
      "slow_percent": 50.0,
      "fast_total": 1,
      "fast_avail": 1,
      "fast_percent": 100.0,
      "latest_update": "20260714005019"
    },
    {
      "station_id": "CV002006",
      "name": "포레나송파아파트 1708동",
      "address": "서울특별시 송파구 위례송파로 123",
      "lat": "37.4860052",
      "lng": "127.1485027",
      "total_count": 3,
      "available_count": 3,
      "total_percent": 100.0,
      "slow_total": 2,
      "slow_avail": 2,
      "slow_percent": 100.0,
      "fast_total": 1,
      "fast_avail": 1,
      "fast_percent": 100.0,
      "latest_update": "20260714020030"
    },
    {
      "station_id": "CV002007",
      "name": "포레나송파아파트 1714동",
      "address": "서울특별시 송파구 위례송파로 123",
      "lat": "37.4855821",
      "lng": "127.1482418",
      "total_count": 3,
      "available_count": 3,
      "total_percent": 100.0,
      "slow_total": 2,
      "slow_avail": 2,
      "slow_percent": 100.0,
      "fast_total": 1,
      "fast_avail": 1,
      "fast_percent": 100.0,
      "latest_update": "20260714024528"
    },
    {
      "station_id": "EC004163",
      "name": "송파파크데일1단지 104동 B2",
      "address": "서울특별시 송파구 성내천로37길 37",
      "lat": "37.4986755",
      "lng": "127.1590181",
      "total_count": 3,
      "available_count": 1,
      "total_percent": 33.3,
      "slow_total": 3,
      "slow_avail": 1,
      "slow_percent": 33.3,
      "fast_total": 0,
      "fast_avail": 0,
      "fast_percent": 0.0,
      "latest_update": "20260714013401"
    },
    {
      "station_id": "EC004164",
      "name": "송파파크데일1단지 111동 B2",
      "address": "서울특별시 송파구 성내천로37길 37",
      "lat": "37.4986886",
      "lng": "127.1593122",
      "total_count": 3,
      "available_count": 2,
      "total_percent": 66.7,
      "slow_total": 3,
      "slow_avail": 2,
      "slow_percent": 66.7,
      "fast_total": 0,
      "fast_avail": 0,
      "fast_percent": 0.0,
      "latest_update": "20260714061202"
    },
    {
      "station_id": "EC004165",
      "name": "송파파크데일1단지 106동 B2",
      "address": "서울특별시 송파구 성내천로37길 37",
      "lat": "37.4985939",
      "lng": "127.1594251",
      "total_count": 3,
      "available_count": 1,
      "total_percent": 33.3,
      "slow_total": 3,
      "slow_avail": 1,
      "slow_percent": 33.3,
      "fast_total": 0,
      "fast_avail": 0,
      "fast_percent": 0.0,
      "latest_update": "20260714054801"
    },
    {
      "station_id": "EP230086",
      "name": "서울 송례초등학교",
      "address": "서울특별시 송파구 위례순환로 439",
      "lat": "37.477894",
      "lng": "127.1384959",
      "total_count": 3,
      "available_count": 0,
      "total_percent": 0.0,
      "slow_total": 3,
      "slow_avail": 0,
      "slow_percent": 0.0,
      "fast_total": 0,
      "fast_avail": 0,
      "fast_percent": 0.0,
      "latest_update": "20260324150039"
    },
    {
      "station_id": "ER000555",
      "name": "세양청마루아파트",
      "address": "서울 송파구 송이로31길 66",
      "lat": "37.4926832",
      "lng": "127.1369758",
      "total_count": 3,
      "available_count": 3,
      "total_percent": 100.0,
      "slow_total": 3,
      "slow_avail": 3,
      "slow_percent": 100.0,
      "fast_total": 0,
      "fast_avail": 0,
      "fast_percent": 0.0,
      "latest_update": "20260713165822"
    },
    {
      "station_id": "EV000603",
      "name": "풍납미성아파트",
      "address": "서울특별시 송파구 풍성로 14",
      "lat": "37.534481",
      "lng": "127.1140965",
      "total_count": 3,
      "available_count": 0,
      "total_percent": 0.0,
      "slow_total": 3,
      "slow_avail": 0,
      "slow_percent": 0.0,
      "fast_total": 0,
      "fast_avail": 0,
      "fast_percent": 0.0,
      "latest_update": "20260626083310"
    },
    {
      "station_id": "EV001965",
      "name": "힐스테이트송파위례B2",
      "address": "서울특별시 송파구 위례광장로 170",
      "lat": "37.480275",
      "lng": "127.1428511",
      "total_count": 3,
      "available_count": 3,
      "total_percent": 100.0,
      "slow_total": 3,
      "slow_avail": 3,
      "slow_percent": 100.0,
      "fast_total": 0,
      "fast_avail": 0,
      "fast_percent": 0.0,
      "latest_update": "20260712045840"
    },
    {
      "station_id": "EV001966",
      "name": "힐스테이트송파위례B3",
      "address": "서울특별시 송파구 위례광장로 170",
      "lat": "37.480144",
      "lng": "127.1428282",
      "total_count": 3,
      "available_count": 3,
      "total_percent": 100.0,
      "slow_total": 3,
      "slow_avail": 3,
      "slow_percent": 100.0,
      "fast_total": 0,
      "fast_avail": 0,
      "fast_percent": 0.0,
      "latest_update": "20260711175944"
    },
    {
      "station_id": "EV002136",
      "name": "서울송파 위례중앙푸르지오1단지2",
      "address": "서울특별시 송파구 위례광장로 120",
      "lat": "37.4746045",
      "lng": "127.141772",
      "total_count": 3,
      "available_count": 0,
      "total_percent": 0.0,
      "slow_total": 3,
      "slow_avail": 0,
      "slow_percent": 0.0,
      "fast_total": 0,
      "fast_avail": 0,
      "fast_percent": 0.0,
      "latest_update": "20260714012620"
    },
    {
      "station_id": "EV002491",
      "name": "서울송파 송파푸르지오시티B4",
      "address": "서울특별시 송파구 새말로 62",
      "lat": "37.4807632",
      "lng": "127.1212461",
      "total_count": 3,
      "available_count": 3,
      "total_percent": 100.0,
      "slow_total": 3,
      "slow_avail": 3,
      "slow_percent": 100.0,
      "fast_total": 0,
      "fast_avail": 0,
      "fast_percent": 0.0,
      "latest_update": "20260714023058"
    },
    {
      "station_id": "EV004033",
      "name": "힐스테이트송파위례",
      "address": "서울특별시 송파구 위례광장로 170",
      "lat": "37.479896",
      "lng": "127.1423248",
      "total_count": 3,
      "available_count": 2,
      "total_percent": 66.7,
      "slow_total": 3,
      "slow_avail": 2,
      "slow_percent": 66.7,
      "fast_total": 0,
      "fast_avail": 0,
      "fast_percent": 0.0,
      "latest_update": "20260713221426"
    },
    {
      "station_id": "EV004851",
      "name": "서울송파 송파꿈에그린아파트2401동",
      "address": "서울특별시 송파구 위례광장로 121",
      "lat": "37.476865",
      "lng": "127.1382163",
      "total_count": 3,
      "available_count": 0,
      "total_percent": 0.0,
      "slow_total": 3,
      "slow_avail": 0,
      "slow_percent": 0.0,
      "fast_total": 0,
      "fast_avail": 0,
      "fast_percent": 0.0,
      "latest_update": "20260713224644"
    },
    {
      "station_id": "EV004874",
      "name": "서울송파 문정래미안아파트122동",
      "address": "서울특별시 송파구 문정로 83",
      "lat": "37.491403647",
      "lng": "127.13017382",
      "total_count": 3,
      "available_count": 3,
      "total_percent": 100.0,
      "slow_total": 3,
      "slow_avail": 3,
      "slow_percent": 100.0,
      "fast_total": 0,
      "fast_avail": 0,
      "fast_percent": 0.0,
      "latest_update": "20260713073506"
    },
    {
      "station_id": "EV004875",
      "name": "서울송파 문정래미안아파트101동",
      "address": "서울특별시 송파구 문정로 83",
      "lat": "37.491176830",
      "lng": "127.13158688",
      "total_count": 3,
      "available_count": 2,
      "total_percent": 66.7,
      "slow_total": 3,
      "slow_avail": 2,
      "slow_percent": 66.7,
      "fast_total": 0,
      "fast_avail": 0,
      "fast_percent": 0.0,
      "latest_update": "20260713193404"
    },
    {
      "station_id": "EV005690",
      "name": "서울송파 신동아로쟌뷰",
      "address": "서울특별시 송파구 석촌호수로 188",
      "lat": "37.50623",
      "lng": "127.0980153",
      "total_count": 3,
      "available_count": 3,
      "total_percent": 100.0,
      "slow_total": 3,
      "slow_avail": 3,
      "slow_percent": 100.0,
      "fast_total": 0,
      "fast_avail": 0,
      "fast_percent": 0.0,
      "latest_update": "20260713173314"
    },
    {
      "station_id": "EV005893",
      "name": "서울송파 위례스타힐스1",
      "address": "서울특별시 송파구 위례광장로 215",
      "lat": "37.480250550",
      "lng": "127.14632201",
      "total_count": 3,
      "available_count": 0,
      "total_percent": 0.0,
      "slow_total": 3,
      "slow_avail": 0,
      "slow_percent": 0.0,
      "fast_total": 0,
      "fast_avail": 0,
      "fast_percent": 0.0,
      "latest_update": "20260714031716"
    },
    {
      "station_id": "AM900057",
      "name": "송파 와이즈더샵",
      "address": "서울특별시 송파구 위례광장로 270",
      "lat": "37.47709543",
      "lng": "127.1437235",
      "total_count": 2,
      "available_count": 2,
      "total_percent": 100.0,
      "slow_total": 2,
      "slow_avail": 2,
      "slow_percent": 100.0,
      "fast_total": 0,
      "fast_avail": 0,
      "fast_percent": 0.0,
      "latest_update": "20260711220805"
    },
    {
      "station_id": "BNBN0859",
      "name": "송파구 석촌고분공영주차장",
      "address": "서울특별시 송파구 석촌동 248",
      "lat": "37.5009971",
      "lng": "127.1028224",
      "total_count": 2,
      "available_count": 2,
      "total_percent": 100.0,
      "slow_total": 0,
      "slow_avail": 0,
      "slow_percent": 0.0,
      "fast_total": 2,
      "fast_avail": 2,
      "fast_percent": 100.0,
      "latest_update": "20260714041521"
    },
    {
      "station_id": "BNBN0860",
      "name": "송파구 삼전동 공영주차장",
      "address": "서울특별시 송파구 백제고분로32길 25-17",
      "lat": "37.5002619",
      "lng": "127.0958353",
      "total_count": 2,
      "available_count": 2,
      "total_percent": 100.0,
      "slow_total": 0,
      "slow_avail": 0,
      "slow_percent": 0.0,
      "fast_total": 2,
      "fast_avail": 2,
      "fast_percent": 100.0,
      "latest_update": "20260714025112"
    },
    {
      "station_id": "BNBN0861",
      "name": "송파구 마천동 2공영주차장",
      "address": "서울특별시 송파구 성내천로 299-7 (마천동, 마천동2공영주차장)",
      "lat": "37.5026170",
      "lng": "127.1448216",
      "total_count": 2,
      "available_count": 2,
      "total_percent": 100.0,
      "slow_total": 0,
      "slow_avail": 0,
      "slow_percent": 0.0,
      "fast_total": 2,
      "fast_avail": 2,
      "fast_percent": 100.0,
      "latest_update": "20260714025112"
    },
    {
      "station_id": "BNBN0862",
      "name": "송파구 천마공영주차장",
      "address": "서울특별시 송파구 성내천로33가길 20 (마천동, 천마공영주차장)",
      "lat": "37.5002128",
      "lng": "127.1548153",
      "total_count": 2,
      "available_count": 2,
      "total_percent": 100.0,
      "slow_total": 0,
      "slow_avail": 0,
      "slow_percent": 0.0,
      "fast_total": 2,
      "fast_avail": 2,
      "fast_percent": 100.0,
      "latest_update": "20260714025112"
    },
    {
      "station_id": "BNBN0863",
      "name": "송파구 마천1공영주차장",
      "address": "서울특별시 송파구 성내천로43길 6 (마천동, 마천1공영주차장)",
      "lat": "37.4950907",
      "lng": "127.1555745",
      "total_count": 2,
      "available_count": 2,
      "total_percent": 100.0,
      "slow_total": 0,
      "slow_avail": 0,
      "slow_percent": 0.0,
      "fast_total": 2,
      "fast_avail": 2,
      "fast_percent": 100.0,
      "latest_update": "20260714025112"
    },
    {
      "station_id": "BNBN0864",
      "name": "송파구 방이고분공영주차장",
      "address": "서울특별시 송파구 오금로 219 (방이동, 방이백제고분)",
      "lat": "37.5084930",
      "lng": "127.1153905",
      "total_count": 2,
      "available_count": 2,
      "total_percent": 100.0,
      "slow_total": 0,
      "slow_avail": 0,
      "slow_percent": 0.0,
      "fast_total": 2,
      "fast_avail": 2,
      "fast_percent": 100.0,
      "latest_update": "20260714025112"
    },
    {
      "station_id": "CGA00247",
      "name": "송파 잠실장미아파트⑩_14동",
      "address": "서울특별시 송파구 올림픽로35길 104",
      "lat": "37.5202210",
      "lng": "127.0989140",
      "total_count": 2,
      "available_count": 0,
      "total_percent": 0.0,
      "slow_total": 2,
      "slow_avail": 0,
      "slow_percent": 0.0,
      "fast_total": 0,
      "fast_avail": 0,
      "fast_percent": 0.0,
      "latest_update": "20260714011512"
    },
    {
      "station_id": "CGA00248",
      "name": "송파 잠실장미아파트⑪_19동",
      "address": "서울특별시 송파구 올림픽로35길 104",
      "lat": "37.5198300",
      "lng": "127.1008900",
      "total_count": 2,
      "available_count": 1,
      "total_percent": 50.0,
      "slow_total": 2,
      "slow_avail": 1,
      "slow_percent": 50.0,
      "fast_total": 0,
      "fast_avail": 0,
      "fast_percent": 0.0,
      "latest_update": "20260714060015"
    },
    {
      "station_id": "CSSGI014",
      "name": "송파농협송파급속",
      "address": "서울특별시 송파구 송파대로 155",
      "lat": "37.484082",
      "lng": "127.122681",
      "total_count": 2,
      "available_count": 2,
      "total_percent": 100.0,
      "slow_total": 0,
      "slow_avail": 0,
      "slow_percent": 0.0,
      "fast_total": 2,
      "fast_avail": 2,
      "fast_percent": 100.0,
      "latest_update": "20260713150941"
    },
    {
      "station_id": "CV001087",
      "name": "신천유수지주차장",
      "address": "서울특별시 송파구 오금로2길 22",
      "lat": "37.516287",
      "lng": "127.105849",
      "total_count": 2,
      "available_count": 2,
      "total_percent": 100.0,
      "slow_total": 0,
      "slow_avail": 0,
      "slow_percent": 0.0,
      "fast_total": 2,
      "fast_avail": 2,
      "fast_percent": 100.0,
      "latest_update": "20260714042520"
    },
    {
      "station_id": "CV001139",
      "name": "덕수고등학교 주차장",
      "address": "서울특별시 송파구 위례북로 10",
      "lat": "37.485823",
      "lng": "127.146879",
      "total_count": 2,
      "available_count": 2,
      "total_percent": 100.0,
      "slow_total": 2,
      "slow_avail": 2,
      "slow_percent": 100.0,
      "fast_total": 0,
      "fast_avail": 0,
      "fast_percent": 0.0,
      "latest_update": "20260714043520"
    },
    {
      "station_id": "CV002010",
      "name": "위례포레샤인18단지아파트 지하1층 P63",
      "address": "서울특별시 송파구 위례북로4길 12",
      "lat": "37.48775",
      "lng": "127.151384",
      "total_count": 2,
      "available_count": 0,
      "total_percent": 0.0,
      "slow_total": 2,
      "slow_avail": 0,
      "slow_percent": 0.0,
      "fast_total": 0,
      "fast_avail": 0,
      "fast_percent": 0.0,
      "latest_update": "20260713190030"
    },
    {
      "station_id": "CV002011",
      "name": "위례포레샤인18단지아파트 지하1층 P61",
      "address": "서울특별시 송파구 위례북로4길 12",
      "lat": "37.48775",
      "lng": "127.151384",
      "total_count": 2,
      "available_count": 1,
      "total_percent": 50.0,
      "slow_total": 2,
      "slow_avail": 1,
      "slow_percent": 50.0,
      "fast_total": 0,
      "fast_avail": 0,
      "fast_percent": 0.0,
      "latest_update": "20260714003032"
    },
    {
      "station_id": "CV003941",
      "name": "에프엔타워 잠실",
      "address": "서울특별시 송파구 올림픽로 295",
      "lat": "37.514913",
      "lng": "127.10325",
      "total_count": 2,
      "available_count": 2,
      "total_percent": 100.0,
      "slow_total": 1,
      "slow_avail": 1,
      "slow_percent": 100.0,
      "fast_total": 1,
      "fast_avail": 1,
      "fast_percent": 100.0,
      "latest_update": "20260713203047"
    },
    {
      "station_id": "CV004327",
      "name": "아시아선수촌아파트",
      "address": "서울특별시 송파구 올림픽로4길 15",
      "lat": "37.507684",
      "lng": "127.077068",
      "total_count": 2,
      "available_count": 2,
      "total_percent": 100.0,
      "slow_total": 0,
      "slow_avail": 0,
      "slow_percent": 0.0,
      "fast_total": 2,
      "fast_avail": 2,
      "fast_percent": 100.0,
      "latest_update": "20260714045022"
    },
    {
      "station_id": "CV004703",
      "name": "한석교통",
      "address": "서울특별시 송파구 충민로6길 71",
      "lat": "37.479612",
      "lng": "127.135608",
      "total_count": 2,
      "available_count": 2,
      "total_percent": 100.0,
      "slow_total": 0,
      "slow_avail": 0,
      "slow_percent": 0.0,
      "fast_total": 2,
      "fast_avail": 2,
      "fast_percent": 100.0,
      "latest_update": "20260714045544"
    },
    {
      "station_id": "CV004708",
      "name": "송파테라타워2",
      "address": "서울특별시 송파구 송파대로 201",
      "lat": "37.48733300",
      "lng": "127.119582",
      "total_count": 2,
      "available_count": 2,
      "total_percent": 100.0,
      "slow_total": 0,
      "slow_avail": 0,
      "slow_percent": 0.0,
      "fast_total": 2,
      "fast_avail": 2,
      "fast_percent": 100.0,
      "latest_update": "20260714021544"
    },
    {
      "station_id": "CV004728",
      "name": "송파구 아이티벤처타워",
      "address": "서울특별시 송파구 중대로 135",
      "lat": "37.49214664",
      "lng": "127.1219645",
      "total_count": 2,
      "available_count": 2,
      "total_percent": 100.0,
      "slow_total": 0,
      "slow_avail": 0,
      "slow_percent": 0.0,
      "fast_total": 2,
      "fast_avail": 2,
      "fast_percent": 100.0,
      "latest_update": "20260714031545"
    },
    {
      "station_id": "DL200019",
      "name": "송파 휴먼빌시티오피스텔",
      "address": "서울특별시 송파구 위례송파로3길 12",
      "lat": "37.4862028",
      "lng": "127.1428124",
      "total_count": 2,
      "available_count": 1,
      "total_percent": 50.0,
      "slow_total": 2,
      "slow_avail": 1,
      "slow_percent": 50.0,
      "fast_total": 0,
      "fast_avail": 0,
      "fast_percent": 0.0,
      "latest_update": "20260713211635"
    },
    {
      "station_id": "EC004162",
      "name": "송파파크데일1단지 112동 B2",
      "address": "서울특별시 송파구 성내천로37길 37",
      "lat": "37.4984672",
      "lng": "127.1598262",
      "total_count": 2,
      "available_count": 2,
      "total_percent": 100.0,
      "slow_total": 2,
      "slow_avail": 2,
      "slow_percent": 100.0,
      "fast_total": 0,
      "fast_avail": 0,
      "fast_percent": 0.0,
      "latest_update": "20260714052202"
    },
    {
      "station_id": "EC110070",
      "name": "소노타워 (급)",
      "address": "서울특별시 송파구 법원로 135",
      "lat": "37.486987231",
      "lng": "127.11836666",
      "total_count": 2,
      "available_count": 2,
      "total_percent": 100.0,
      "slow_total": 0,
      "slow_avail": 0,
      "slow_percent": 0.0,
      "fast_total": 2,
      "fast_avail": 2,
      "fast_percent": 100.0,
      "latest_update": "20260713165402"
    },
    {
      "station_id": "EP240096",
      "name": "송파 와이즈더샵",
      "address": "서울특별시 송파구 위례광장로 270",
      "lat": "37.47709543",
      "lng": "127.1437235",
      "total_count": 2,
      "available_count": 0,
      "total_percent": 0.0,
      "slow_total": 2,
      "slow_avail": 0,
      "slow_percent": 0.0,
      "fast_total": 0,
      "fast_avail": 0,
      "fast_percent": 0.0,
      "latest_update": ""
    },
    {
      "station_id": "EV001929",
      "name": "송파 신성노바빌아파트",
      "address": "서울특별시 송파구 한가람로 468 (풍납동, 신성노바빌아파트)",
      "lat": "37.538312",
      "lng": "127.1168813",
      "total_count": 2,
      "available_count": 2,
      "total_percent": 100.0,
      "slow_total": 2,
      "slow_avail": 2,
      "slow_percent": 100.0,
      "fast_total": 0,
      "fast_avail": 0,
      "fast_percent": 0.0,
      "latest_update": "20260713175126"
    },
    {
      "station_id": "EV002135",
      "name": "서울송파 위례중앙푸르지오1단지1",
      "address": "서울특별시 송파구 위례광장로 120",
      "lat": "37.4750466",
      "lng": "127.1412697",
      "total_count": 2,
      "available_count": 2,
      "total_percent": 100.0,
      "slow_total": 2,
      "slow_avail": 2,
      "slow_percent": 100.0,
      "fast_total": 0,
      "fast_avail": 0,
      "fast_percent": 0.0,
      "latest_update": "20260713220218"
    },
    {
      "station_id": "EV002137",
      "name": "서울송파 위례중앙푸르지오2단지 1",
      "address": "서울특별시 송파구 위례광장로 290",
      "lat": "37.4749763",
      "lng": "127.1428071",
      "total_count": 2,
      "available_count": 1,
      "total_percent": 50.0,
      "slow_total": 2,
      "slow_avail": 1,
      "slow_percent": 50.0,
      "fast_total": 0,
      "fast_avail": 0,
      "fast_percent": 0.0,
      "latest_update": "20260714052035"
    },
    {
      "station_id": "EV002138",
      "name": "서울송파 위례중앙푸르지오2단지 2",
      "address": "서울특별시 송파구 위례광장로 290",
      "lat": "37.4745491",
      "lng": "127.1429306",
      "total_count": 2,
      "available_count": 1,
      "total_percent": 50.0,
      "slow_total": 2,
      "slow_avail": 1,
      "slow_percent": 50.0,
      "fast_total": 0,
      "fast_avail": 0,
      "fast_percent": 0.0,
      "latest_update": "20260713235930"
    },
    {
      "station_id": "EV002216",
      "name": "서울송파 송파푸르지오시티B2",
      "address": "서울특별시 송파구 새말로 62",
      "lat": "37.4808353",
      "lng": "127.1212779",
      "total_count": 2,
      "available_count": 2,
      "total_percent": 100.0,
      "slow_total": 2,
      "slow_avail": 2,
      "slow_percent": 100.0,
      "fast_total": 0,
      "fast_avail": 0,
      "fast_percent": 0.0,
      "latest_update": "20260713211922"
    },
    {
      "station_id": "EV002490",
      "name": "서울송파 송파푸르지오시티B3",
      "address": "서울특별시 송파구 새말로 62",
      "lat": "37.4809886",
      "lng": "127.1211193",
      "total_count": 2,
      "available_count": 2,
      "total_percent": 100.0,
      "slow_total": 2,
      "slow_avail": 2,
      "slow_percent": 100.0,
      "fast_total": 0,
      "fast_avail": 0,
      "fast_percent": 0.0,
      "latest_update": "20260714053443"
    },
    {
      "station_id": "EV002930",
      "name": "서울송파 방이코오롱아파트105동",
      "address": "서울특별시 송파구 오금로31길 28",
      "lat": "37.5084772",
      "lng": "127.1221958",
      "total_count": 2,
      "available_count": 0,
      "total_percent": 0.0,
      "slow_total": 2,
      "slow_avail": 0,
      "slow_percent": 0.0,
      "fast_total": 0,
      "fast_avail": 0,
      "fast_percent": 0.0,
      "latest_update": "20260714005604"
    },
    {
      "station_id": "EV002931",
      "name": "서울송파 방이코오롱아파트104동",
      "address": "서울특별시 송파구 오금로31길 28",
      "lat": "37.5089472",
      "lng": "127.1242912",
      "total_count": 2,
      "available_count": 2,
      "total_percent": 100.0,
      "slow_total": 2,
      "slow_avail": 2,
      "slow_percent": 100.0,
      "fast_total": 0,
      "fast_avail": 0,
      "fast_percent": 0.0,
      "latest_update": "20260714033535"
    },
    {
      "station_id": "EV003440",
      "name": "서울시 잠실역공영주차장(급속)",
      "address": "서울특별시 송파구 올림픽로 지하 265",
      "lat": "37.5138593",
      "lng": "127.1018579",
      "total_count": 2,
      "available_count": 2,
      "total_percent": 100.0,
      "slow_total": 0,
      "slow_avail": 0,
      "slow_percent": 0.0,
      "fast_total": 2,
      "fast_avail": 2,
      "fast_percent": 100.0,
      "latest_update": "20260713201910"
    },
    {
      "station_id": "EV004799",
      "name": "서울송파 가든파이브웍스1(B3)(급속)",
      "address": "서울특별시 송파구 충민로 52",
      "lat": "37.4777176",
      "lng": "127.122746",
      "total_count": 2,
      "available_count": 2,
      "total_percent": 100.0,
      "slow_total": 0,
      "slow_avail": 0,
      "slow_percent": 0.0,
      "fast_total": 2,
      "fast_avail": 2,
      "fast_percent": 100.0,
      "latest_update": "20260713193035"
    },
    {
      "station_id": "EV004852",
      "name": "서울송파 송파꿈에그린아파트2420동",
      "address": "서울특별시 송파구 위례광장로 121",
      "lat": "37.476865",
      "lng": "127.1382163",
      "total_count": 2,
      "available_count": 2,
      "total_percent": 100.0,
      "slow_total": 2,
      "slow_avail": 2,
      "slow_percent": 100.0,
      "fast_total": 0,
      "fast_avail": 0,
      "fast_percent": 0.0,
      "latest_update": "20260713165452"
    },
    {
      "station_id": "ME174029",
      "name": "롯데마트 송파점",
      "address": "서울특별시 송파구 중대로 80",
      "lat": "37.4918392",
      "lng": "127.1178931",
      "total_count": 1,
      "available_count": 1,
      "total_percent": 100.0,
      "slow_total": 0,
      "slow_avail": 0,
      "slow_percent": 0.0,
      "fast_total": 1,
      "fast_avail": 1,
      "fast_percent": 100.0,
      "latest_update": "20260714061209"
    },
    {
      "station_id": "ME18B179",
      "name": "마천동2공영주차장",
      "address": "서울특별시 송파구 성내천로299-7",
      "lat": "37.49427",
      "lng": "127.15624",
      "total_count": 1,
      "available_count": 1,
      "total_percent": 100.0,
      "slow_total": 0,
      "slow_avail": 0,
      "slow_percent": 0.0,
      "fast_total": 1,
      "fast_avail": 1,
      "fast_percent": 100.0,
      "latest_update": "20260714060906"
    },
    {
      "station_id": "ME18B180",
      "name": "거여동공영주차장",
      "address": "서울특별시 송파구 오금로68길8",
      "lat": "37.4923661",
      "lng": "127.1500523",
      "total_count": 1,
      "available_count": 1,
      "total_percent": 100.0,
      "slow_total": 0,
      "slow_avail": 0,
      "slow_percent": 0.0,
      "fast_total": 1,
      "fast_avail": 1,
      "fast_percent": 100.0,
      "latest_update": "20260714060905"
    },
    {
      "station_id": "ME18B181",
      "name": "천마공영주차장",
      "address": "서울특별시 송파구 성내천로33가길20",
      "lat": "37.50028",
      "lng": "127.15482",
      "total_count": 1,
      "available_count": 1,
      "total_percent": 100.0,
      "slow_total": 0,
      "slow_avail": 0,
      "slow_percent": 0.0,
      "fast_total": 1,
      "fast_avail": 1,
      "fast_percent": 100.0,
      "latest_update": "20260714060913"
    },
    {
      "station_id": "ME19A152",
      "name": "올림픽공원",
      "address": "서울특별시 송파구 올림픽로 424 ",
      "lat": "37.5171577",
      "lng": "127.115847",
      "total_count": 1,
      "available_count": 0,
      "total_percent": 0.0,
      "slow_total": 0,
      "slow_avail": 0,
      "slow_percent": 0.0,
      "fast_total": 1,
      "fast_avail": 0,
      "fast_percent": 0.0,
      "latest_update": "20260714060939"
    },
    {
      "station_id": "ME19A153",
      "name": "구민회관",
      "address": "서울특별시 송파구 백제고분로 242",
      "lat": "37.502451999999",
      "lng": "127.093104199",
      "total_count": 1,
      "available_count": 1,
      "total_percent": 100.0,
      "slow_total": 0,
      "slow_avail": 0,
      "slow_percent": 0.0,
      "fast_total": 1,
      "fast_avail": 1,
      "fast_percent": 100.0,
      "latest_update": "20260714060945"
    },
    {
      "station_id": "AH000115",
      "name": "서울 우성르보아위례",
      "address": "서울특별시 송파구 위례서로 234",
      "lat": "37.48554461",
      "lng": "127.1418020",
      "total_count": 1,
      "available_count": 0,
      "total_percent": 0.0,
      "slow_total": 1,
      "slow_avail": 0,
      "slow_percent": 0.0,
      "fast_total": 0,
      "fast_avail": 0,
      "fast_percent": 0.0,
      "latest_update": ""
    },
    {
      "station_id": "CGA00313",
      "name": "송파 라브르에드니아",
      "address": "서울특별시 송파구 백제고분로 95",
      "lat": "37.50835089",
      "lng": "127.0795728",
      "total_count": 1,
      "available_count": 1,
      "total_percent": 100.0,
      "slow_total": 1,
      "slow_avail": 1,
      "slow_percent": 100.0,
      "fast_total": 0,
      "fast_avail": 0,
      "fast_percent": 0.0,
      "latest_update": "20260713174504"
    },
    {
      "station_id": "CSSGI033",
      "name": "나인타워",
      "address": "서울특별시 송파구 백제고분로 229",
      "lat": "37.5034",
      "lng": "127.0922",
      "total_count": 1,
      "available_count": 0,
      "total_percent": 0.0,
      "slow_total": 1,
      "slow_avail": 0,
      "slow_percent": 0.0,
      "fast_total": 0,
      "fast_avail": 0,
      "fast_percent": 0.0,
      "latest_update": ""
    },
    {
      "station_id": "CU200027",
      "name": "국민연금공단",
      "address": "서울특별시 송파구 올림픽로35다길 13",
      "lat": "37.5155285",
      "lng": "127.100888",
      "total_count": 1,
      "available_count": 0,
      "total_percent": 0.0,
      "slow_total": 1,
      "slow_avail": 0,
      "slow_percent": 0.0,
      "fast_total": 0,
      "fast_avail": 0,
      "fast_percent": 0.0,
      "latest_update": "20260324151401"
    },
    {
      "station_id": "CU640001",
      "name": "잠실앙시레이크타워",
      "address": "서울특별시 송파구 도곡로 450",
      "lat": "37.5054499",
      "lng": "127.0782769",
      "total_count": 1,
      "available_count": 1,
      "total_percent": 100.0,
      "slow_total": 1,
      "slow_avail": 1,
      "slow_percent": 100.0,
      "fast_total": 0,
      "fast_avail": 0,
      "fast_percent": 0.0,
      "latest_update": "20260712032125"
    },
    {
      "station_id": "CV000111",
      "name": "수협중앙회",
      "address": "서울특별시 송파구 오금로 62",
      "lat": "37.516287",
      "lng": "127.105849",
      "total_count": 1,
      "available_count": 1,
      "total_percent": 100.0,
      "slow_total": 1,
      "slow_avail": 1,
      "slow_percent": 100.0,
      "fast_total": 0,
      "fast_avail": 0,
      "fast_percent": 0.0,
      "latest_update": "20260713180515"
    },
    {
      "station_id": "CV000762",
      "name": "아우디_송파대로 전시장(코오롱아우토)",
      "address": "서울특별시 송파구 충민로2길 8",
      "lat": "37.479341",
      "lng": "127.126311",
      "total_count": 1,
      "available_count": 1,
      "total_percent": 100.0,
      "slow_total": 0,
      "slow_avail": 0,
      "slow_percent": 0.0,
      "fast_total": 1,
      "fast_avail": 1,
      "fast_percent": 100.0,
      "latest_update": "20260713140518"
    },
    {
      "station_id": "CV000911",
      "name": "위례포레샤인18단지아파트 지하1층 P09",
      "address": "서울특별시 송파구 위례북로4길 12",
      "lat": "37.487556",
      "lng": "127.152468",
      "total_count": 1,
      "available_count": 1,
      "total_percent": 100.0,
      "slow_total": 0,
      "slow_avail": 0,
      "slow_percent": 0.0,
      "fast_total": 1,
      "fast_avail": 1,
      "fast_percent": 100.0,
      "latest_update": "20260713050518"
    },
    {
      "station_id": "CV004393",
      "name": "포르쉐 센터 세영모빌리티 송파서비스센터",
      "address": "서울 송파구 오금로 179(방이동, 포르쉐 송파서비스센터)",
      "lat": "37.5092181",
      "lng": "127.1144970",
      "total_count": 1,
      "available_count": 1,
      "total_percent": 100.0,
      "slow_total": 0,
      "slow_avail": 0,
      "slow_percent": 0.0,
      "fast_total": 1,
      "fast_avail": 1,
      "fast_percent": 100.0,
      "latest_update": "20260713195528"
    },
    {
      "station_id": "DR24A009",
      "name": "문정근린공원공영주차장",
      "address": "서울특별시 송파구 문정로 지하12",
      "lat": "37.48598407",
      "lng": "127.12467008",
      "total_count": 1,
      "available_count": 0,
      "total_percent": 0.0,
      "slow_total": 1,
      "slow_avail": 0,
      "slow_percent": 0.0,
      "fast_total": 0,
      "fast_avail": 0,
      "fast_percent": 0.0,
      "latest_update": "20260601140310"
    },
    {
      "station_id": "EC003918",
      "name": "소노타워 B1주차장 (급)",
      "address": "서울특별시 송파구 법원로 135",
      "lat": "37.4869872",
      "lng": "127.1183667",
      "total_count": 1,
      "available_count": 1,
      "total_percent": 100.0,
      "slow_total": 0,
      "slow_avail": 0,
      "slow_percent": 0.0,
      "fast_total": 1,
      "fast_avail": 1,
      "fast_percent": 100.0,
      "latest_update": "20260713093601"
    },
    {
      "station_id": "EC003919",
      "name": "소노타워 B4 주차장 (급)",
      "address": "서울특별시 송파구 법원로 135",
      "lat": "37.4868659",
      "lng": "127.1184321",
      "total_count": 1,
      "available_count": 1,
      "total_percent": 100.0,
      "slow_total": 0,
      "slow_avail": 0,
      "slow_percent": 0.0,
      "fast_total": 1,
      "fast_avail": 1,
      "fast_percent": 100.0,
      "latest_update": "20260629132802"
    },
    {
      "station_id": "EC004966",
      "name": "서울송파우체국",
      "address": "서울특별시 송파구 오금로 323",
      "lat": "37.5025677",
      "lng": "127.1280468",
      "total_count": 1,
      "available_count": 1,
      "total_percent": 100.0,
      "slow_total": 1,
      "slow_avail": 1,
      "slow_percent": 100.0,
      "fast_total": 0,
      "fast_avail": 0,
      "fast_percent": 0.0,
      "latest_update": "20260713170002"
    },
    {
      "station_id": "EC410200",
      "name": "한국법무보호복지공단 서울동부지부",
      "address": "서울특별시 송파구 오금로 509",
      "lat": "37.2815233",
      "lng": "127.0303143",
      "total_count": 1,
      "available_count": 0,
      "total_percent": 0.0,
      "slow_total": 1,
      "slow_avail": 0,
      "slow_percent": 0.0,
      "fast_total": 0,
      "fast_avail": 0,
      "fast_percent": 0.0,
      "latest_update": "20260701141202"
    },
    {
      "station_id": "EV001495",
      "name": "서울송파 방이금호어울림아파트 1",
      "address": "서울특별시 송파구 위례성대로8길 28",
      "lat": "37.5124853",
      "lng": "127.1182299",
      "total_count": 1,
      "available_count": 1,
      "total_percent": 100.0,
      "slow_total": 1,
      "slow_avail": 1,
      "slow_percent": 100.0,
      "fast_total": 0,
      "fast_avail": 0,
      "fast_percent": 0.0,
      "latest_update": "20260713112727"
    }
  ],
  "collected_at_kst": "2026-07-14T06:01:35.154516+09:00",
  "collected_at_utc": "2026-07-13T21:01:35.154516+00:00"
}