{
  "district": "송파구",
  "zscode": "11710",
  "summary": {
    "total_count": 2000,
    "available_count": 1353,
    "total_percent": 67.7,
    "slow_total": 1814,
    "slow_avail": 1201,
    "slow_percent": 66.2,
    "fast_total": 186,
    "fast_avail": 152,
    "fast_percent": 81.7,
    "station_count": 393
  },
  "stations": [
    {
      "station_id": "LU002297",
      "name": "송파하비오푸르지오오피스텔",
      "address": "서울특별시 송파구 송파대로 111",
      "lat": "37.479687",
      "lng": "127.12498",
      "total_count": 75,
      "available_count": 45,
      "total_percent": 60.0,
      "slow_total": 75,
      "slow_avail": 45,
      "slow_percent": 60.0,
      "fast_total": 0,
      "fast_avail": 0,
      "fast_percent": 0.0,
      "latest_update": "20260714070926"
    },
    {
      "station_id": "LU101707",
      "name": "잠실엘스(132동170동)",
      "address": "서울특별시 송파구 올림픽로 99",
      "lat": "37.5151253",
      "lng": "127.07813",
      "total_count": 52,
      "available_count": 26,
      "total_percent": 50.0,
      "slow_total": 52,
      "slow_avail": 26,
      "slow_percent": 50.0,
      "fast_total": 0,
      "fast_avail": 0,
      "fast_percent": 0.0,
      "latest_update": "20260714071130"
    },
    {
      "station_id": "LU101706",
      "name": "잠실엘스(101동111동)",
      "address": "서울특별시 송파구 올림픽로 99",
      "lat": "37.5151253",
      "lng": "127.07813",
      "total_count": 48,
      "available_count": 17,
      "total_percent": 35.4,
      "slow_total": 48,
      "slow_avail": 17,
      "slow_percent": 35.4,
      "fast_total": 0,
      "fast_avail": 0,
      "fast_percent": 0.0,
      "latest_update": "20260714071451"
    },
    {
      "station_id": "HU200017",
      "name": "송파레이크파크호반써밋 l l",
      "address": "서울특별시 송파구 위례송파로 80",
      "lat": "37.484990719",
      "lng": "127.14264472",
      "total_count": 40,
      "available_count": 0,
      "total_percent": 0.0,
      "slow_total": 40,
      "slow_avail": 0,
      "slow_percent": 0.0,
      "fast_total": 0,
      "fast_avail": 0,
      "fast_percent": 0.0,
      "latest_update": "20260625110003"
    },
    {
      "station_id": "LU101573",
      "name": "레이크팰리스",
      "address": "서울특별시 송파구 잠실로 88",
      "lat": "37.5075342",
      "lng": "127.0932143",
      "total_count": 40,
      "available_count": 20,
      "total_percent": 50.0,
      "slow_total": 40,
      "slow_avail": 20,
      "slow_percent": 50.0,
      "fast_total": 0,
      "fast_avail": 0,
      "fast_percent": 0.0,
      "latest_update": "20260714070455"
    },
    {
      "station_id": "HY001231",
      "name": "송파 레이크팰리스",
      "address": "서울특별시 송파구 잠실로 88",
      "lat": "37.50809",
      "lng": "127.093422",
      "total_count": 35,
      "available_count": 24,
      "total_percent": 68.6,
      "slow_total": 35,
      "slow_avail": 24,
      "slow_percent": 68.6,
      "fast_total": 0,
      "fast_avail": 0,
      "fast_percent": 0.0,
      "latest_update": "20260714070707"
    },
    {
      "station_id": "JA110075",
      "name": "롯데월드 어드벤처(마트구역) 서울 ",
      "address": "서울특별시 송파구 올림픽로 240",
      "lat": "37.5115734",
      "lng": "127.0964718",
      "total_count": 31,
      "available_count": 30,
      "total_percent": 96.8,
      "slow_total": 23,
      "slow_avail": 22,
      "slow_percent": 95.7,
      "fast_total": 8,
      "fast_avail": 8,
      "fast_percent": 100.0,
      "latest_update": "20260713222005"
    },
    {
      "station_id": "JA110177",
      "name": "시그니엘 레지던스",
      "address": "서울특별시 송파구 올림픽로 300",
      "lat": "37.513713",
      "lng": "127.1043018",
      "total_count": 28,
      "available_count": 21,
      "total_percent": 75.0,
      "slow_total": 26,
      "slow_avail": 19,
      "slow_percent": 73.1,
      "fast_total": 2,
      "fast_avail": 2,
      "fast_percent": 100.0,
      "latest_update": "20260714070017"
    },
    {
      "station_id": "CU200016",
      "name": "송파삼성래미안",
      "address": "서울특별시 송파구 오금로32길 14",
      "lat": "37.504664",
      "lng": "127.118821",
      "total_count": 24,
      "available_count": 21,
      "total_percent": 87.5,
      "slow_total": 24,
      "slow_avail": 21,
      "slow_percent": 87.5,
      "fast_total": 0,
      "fast_avail": 0,
      "fast_percent": 0.0,
      "latest_update": "20260714070310"
    },
    {
      "station_id": "GO000078",
      "name": "문현현대지식산업센터",
      "address": "서울특별시 송파구 법원로11길 7",
      "lat": "37.4858",
      "lng": "127.1194",
      "total_count": 22,
      "available_count": 4,
      "total_percent": 18.2,
      "slow_total": 18,
      "slow_avail": 2,
      "slow_percent": 11.1,
      "fast_total": 4,
      "fast_avail": 2,
      "fast_percent": 50.0,
      "latest_update": "20260713123216"
    },
    {
      "station_id": "IN120010",
      "name": "잠실한솔아파트",
      "address": "서울특별시 송파구 백제고분로 348",
      "lat": "37.503573",
      "lng": "127.10455",
      "total_count": 21,
      "available_count": 0,
      "total_percent": 0.0,
      "slow_total": 21,
      "slow_avail": 0,
      "slow_percent": 0.0,
      "fast_total": 0,
      "fast_avail": 0,
      "fast_percent": 0.0,
      "latest_update": "20260615122834"
    },
    {
      "station_id": "JA110026",
      "name": "롯데월드타워 지하 3층",
      "address": "서울특별시 송파구 올림픽로 300",
      "lat": "37.5135139",
      "lng": "127.1032016",
      "total_count": 21,
      "available_count": 20,
      "total_percent": 95.2,
      "slow_total": 21,
      "slow_avail": 20,
      "slow_percent": 95.2,
      "fast_total": 0,
      "fast_avail": 0,
      "fast_percent": 0.0,
      "latest_update": "20260714060700"
    },
    {
      "station_id": "LU100200",
      "name": "잠실우성아파트",
      "address": "서울특별시 송파구 올림픽로4길 42",
      "lat": "37.5083256",
      "lng": "127.0720279",
      "total_count": 20,
      "available_count": 7,
      "total_percent": 35.0,
      "slow_total": 20,
      "slow_avail": 7,
      "slow_percent": 35.0,
      "fast_total": 0,
      "fast_avail": 0,
      "fast_percent": 0.0,
      "latest_update": "20260714071433"
    },
    {
      "station_id": "CV002910",
      "name": "송파파인타운7단지아파트 지하2층",
      "address": "서울특별시 송파구 충민로4길 19",
      "lat": "37.479057",
      "lng": "127.130109",
      "total_count": 19,
      "available_count": 16,
      "total_percent": 84.2,
      "slow_total": 19,
      "slow_avail": 16,
      "slow_percent": 84.2,
      "fast_total": 0,
      "fast_avail": 0,
      "fast_percent": 0.0,
      "latest_update": "20260714065034"
    },
    {
      "station_id": "HM000398",
      "name": "동아효성아파트",
      "address": "서울특별시 송파구 양산로8길 24",
      "lat": "37.491199756",
      "lng": "127.14637327",
      "total_count": 19,
      "available_count": 19,
      "total_percent": 100.0,
      "slow_total": 19,
      "slow_avail": 19,
      "slow_percent": 100.0,
      "fast_total": 0,
      "fast_avail": 0,
      "fast_percent": 0.0,
      "latest_update": "20260714023605"
    },
    {
      "station_id": "HM110158",
      "name": "_문정프라자",
      "address": "서울특별시 송파구 중대로 80",
      "lat": "37.4917394",
      "lng": "127.1177515",
      "total_count": 17,
      "available_count": 16,
      "total_percent": 94.1,
      "slow_total": 17,
      "slow_avail": 16,
      "slow_percent": 94.1,
      "fast_total": 0,
      "fast_avail": 0,
      "fast_percent": 0.0,
      "latest_update": "20260714071019"
    },
    {
      "station_id": "CI0I0001",
      "name": "문정현대지식신업센터",
      "address": "서울특별시 송파구 법원로11길 7",
      "lat": "37.4853545",
      "lng": "127.1192266",
      "total_count": 16,
      "available_count": 15,
      "total_percent": 93.8,
      "slow_total": 16,
      "slow_avail": 15,
      "slow_percent": 93.8,
      "fast_total": 0,
      "fast_avail": 0,
      "fast_percent": 0.0,
      "latest_update": "20260714025335"
    },
    {
      "station_id": "HM000999",
      "name": "송파파크데일2단지",
      "address": "서울특별시 송파구 성내천로47길 38",
      "lat": "37.496362630",
      "lng": "127.15791624",
      "total_count": 16,
      "available_count": 15,
      "total_percent": 93.8,
      "slow_total": 16,
      "slow_avail": 15,
      "slow_percent": 93.8,
      "fast_total": 0,
      "fast_avail": 0,
      "fast_percent": 0.0,
      "latest_update": "20260714070410"
    },
    {
      "station_id": "JA110077",
      "name": "롯데월드 어드벤처 서울",
      "address": "서울특별시 송파구 올림픽로 240",
      "lat": "37.510626",
      "lng": "127.0981983",
      "total_count": 16,
      "available_count": 13,
      "total_percent": 81.2,
      "slow_total": 12,
      "slow_avail": 9,
      "slow_percent": 75.0,
      "fast_total": 4,
      "fast_avail": 4,
      "fast_percent": 100.0,
      "latest_update": "20260714064006"
    },
    {
      "station_id": "JA110162",
      "name": "롯데타워(지하2층)",
      "address": "서울특별시 송파구 올림픽로 300",
      "lat": "37.513713",
      "lng": "127.1043018",
      "total_count": 15,
      "available_count": 14,
      "total_percent": 93.3,
      "slow_total": 15,
      "slow_avail": 14,
      "slow_percent": 93.3,
      "fast_total": 0,
      "fast_avail": 0,
      "fast_percent": 0.0,
      "latest_update": "20260713220713"
    },
    {
      "station_id": "LU100688",
      "name": "가락2차쌍용아파트",
      "address": "서울특별시 송파구 송이로15길 31",
      "lat": "37.50217165",
      "lng": "127.12216813",
      "total_count": 14,
      "available_count": 10,
      "total_percent": 71.4,
      "slow_total": 14,
      "slow_avail": 10,
      "slow_percent": 71.4,
      "fast_total": 0,
      "fast_avail": 0,
      "fast_percent": 0.0,
      "latest_update": "20260714064725"
    },
    {
      "station_id": "HM000729",
      "name": "송파파인타운9단지 아파트",
      "address": "서울특별시 송파구 송파대로8길 17",
      "lat": "37.478009617",
      "lng": "127.129565",
      "total_count": 13,
      "available_count": 13,
      "total_percent": 100.0,
      "slow_total": 13,
      "slow_avail": 13,
      "slow_percent": 100.0,
      "fast_total": 0,
      "fast_avail": 0,
      "fast_percent": 0.0,
      "latest_update": "20260714064609"
    },
    {
      "station_id": "CGA00070",
      "name": "송파 잠실 엘스_148동",
      "address": "서울특별시 송파구 올림픽로 99",
      "lat": "37.51565802",
      "lng": "127.0803895",
      "total_count": 12,
      "available_count": 9,
      "total_percent": 75.0,
      "slow_total": 12,
      "slow_avail": 9,
      "slow_percent": 75.0,
      "fast_total": 0,
      "fast_avail": 0,
      "fast_percent": 0.0,
      "latest_update": "20260714064509"
    },
    {
      "station_id": "DYME2052",
      "name": "서울 잠실더샵스타파크",
      "address": "서울특별시 송파구 올림픽로35가길 10",
      "lat": "37.516941",
      "lng": "127.1026334",
      "total_count": 12,
      "available_count": 7,
      "total_percent": 58.3,
      "slow_total": 12,
      "slow_avail": 7,
      "slow_percent": 58.3,
      "fast_total": 0,
      "fast_avail": 0,
      "fast_percent": 0.0,
      "latest_update": "20260714070501"
    },
    {
      "station_id": "LU001650",
      "name": "오금대림아파트",
      "address": "서울특별시 송파구 위례성대로 176",
      "lat": "37.510637",
      "lng": "127.128759",
      "total_count": 12,
      "available_count": 9,
      "total_percent": 75.0,
      "slow_total": 12,
      "slow_avail": 9,
      "slow_percent": 75.0,
      "fast_total": 0,
      "fast_avail": 0,
      "fast_percent": 0.0,
      "latest_update": "20260714062011"
    },
    {
      "station_id": "HY001508",
      "name": "송파 레미니스2단지III",
      "address": "서울특별시 송파구 동남로 341",
      "lat": "37.5062793",
      "lng": "127.1380487",
      "total_count": 11,
      "available_count": 8,
      "total_percent": 72.7,
      "slow_total": 11,
      "slow_avail": 8,
      "slow_percent": 72.7,
      "fast_total": 0,
      "fast_avail": 0,
      "fast_percent": 0.0,
      "latest_update": "20260714071203"
    },
    {
      "station_id": "LU003943",
      "name": "송파레이크힐아파트",
      "address": "서울특별시 송파구 위례송파로 89",
      "lat": "37.486251",
      "lng": "127.144579",
      "total_count": 11,
      "available_count": 9,
      "total_percent": 81.8,
      "slow_total": 11,
      "slow_avail": 9,
      "slow_percent": 81.8,
      "fast_total": 0,
      "fast_avail": 0,
      "fast_percent": 0.0,
      "latest_update": "20260714025624"
    },
    {
      "station_id": "BE240105",
      "name": "워터 송파 한양타워",
      "address": "서울특별시 송파구 법원로11길 12",
      "lat": "37.485955450",
      "lng": "127.11797785",
      "total_count": 10,
      "available_count": 7,
      "total_percent": 70.0,
      "slow_total": 6,
      "slow_avail": 4,
      "slow_percent": 66.7,
      "fast_total": 4,
      "fast_avail": 3,
      "fast_percent": 75.0,
      "latest_update": "20260714071109"
    },
    {
      "station_id": "CGA00069",
      "name": "송파 잠실 엘스_123동",
      "address": "서울특별시 송파구 올림픽로 99",
      "lat": "37.51305131",
      "lng": "127.0844247",
      "total_count": 10,
      "available_count": 8,
      "total_percent": 80.0,
      "slow_total": 10,
      "slow_avail": 8,
      "slow_percent": 80.0,
      "fast_total": 0,
      "fast_avail": 0,
      "fast_percent": 0.0,
      "latest_update": "20260714064511"
    },
    {
      "station_id": "EV013173",
      "name": "서울송파 가든파이브웍스 1",
      "address": "서울특별시 송파구 충민로 52",
      "lat": "37.4776671",
      "lng": "127.1224226",
      "total_count": 10,
      "available_count": 10,
      "total_percent": 100.0,
      "slow_total": 10,
      "slow_avail": 10,
      "slow_percent": 100.0,
      "fast_total": 0,
      "fast_avail": 0,
      "fast_percent": 0.0,
      "latest_update": "20260713215614"
    },
    {
      "station_id": "EV017502",
      "name": "서울송파 잠실트리지움 1",
      "address": "서울특별시 송파구 잠실로 62",
      "lat": "37.509548421",
      "lng": "127.08783657",
      "total_count": 10,
      "available_count": 7,
      "total_percent": 70.0,
      "slow_total": 10,
      "slow_avail": 7,
      "slow_percent": 70.0,
      "fast_total": 0,
      "fast_avail": 0,
      "fast_percent": 0.0,
      "latest_update": "20260714070936"
    },
    {
      "station_id": "EV017504",
      "name": "서울송파 잠실트리지움 3",
      "address": "서울특별시 송파구 잠실로 62",
      "lat": "37.509875557",
      "lng": "127.08713288",
      "total_count": 10,
      "available_count": 5,
      "total_percent": 50.0,
      "slow_total": 10,
      "slow_avail": 5,
      "slow_percent": 50.0,
      "fast_total": 0,
      "fast_avail": 0,
      "fast_percent": 0.0,
      "latest_update": "20260714062912"
    },
    {
      "station_id": "HY001108",
      "name": "송파 아시아선수촌아파트",
      "address": "서울특별시 송파구 올림픽로4길 15",
      "lat": "37.507554",
      "lng": "127.076926",
      "total_count": 10,
      "available_count": 10,
      "total_percent": 100.0,
      "slow_total": 10,
      "slow_avail": 10,
      "slow_percent": 100.0,
      "fast_total": 0,
      "fast_avail": 0,
      "fast_percent": 0.0,
      "latest_update": "20260714070405"
    },
    {
      "station_id": "IN120056",
      "name": "가락우성아파트",
      "address": "서울특별시 송파구 송파대로32길 8",
      "lat": "37.4965",
      "lng": "127.1178",
      "total_count": 10,
      "available_count": 0,
      "total_percent": 0.0,
      "slow_total": 10,
      "slow_avail": 0,
      "slow_percent": 0.0,
      "fast_total": 0,
      "fast_avail": 0,
      "fast_percent": 0.0,
      "latest_update": "20260615122838"
    },
    {
      "station_id": "CGA00067",
      "name": "송파 잠실 엘스_125동",
      "address": "서울특별시 송파구 올림픽로 99",
      "lat": "37.51365517",
      "lng": "127.0841539",
      "total_count": 9,
      "available_count": 2,
      "total_percent": 22.2,
      "slow_total": 9,
      "slow_avail": 2,
      "slow_percent": 22.2,
      "fast_total": 0,
      "fast_avail": 0,
      "fast_percent": 0.0,
      "latest_update": "20260713224514"
    },
    {
      "station_id": "CGA00071",
      "name": "송파 잠실 엘스_161동",
      "address": "서울특별시 송파구 올림픽로 99",
      "lat": "37.51432551",
      "lng": "127.0789516",
      "total_count": 9,
      "available_count": 5,
      "total_percent": 55.6,
      "slow_total": 9,
      "slow_avail": 5,
      "slow_percent": 55.6,
      "fast_total": 0,
      "fast_avail": 0,
      "fast_percent": 0.0,
      "latest_update": "20260714053007"
    },
    {
      "station_id": "CGA00074",
      "name": "송파 잠실 엘스_117동",
      "address": "서울특별시 송파구 올림픽로 99",
      "lat": "37.51259292",
      "lng": "127.0828407",
      "total_count": 9,
      "available_count": 5,
      "total_percent": 55.6,
      "slow_total": 9,
      "slow_avail": 5,
      "slow_percent": 55.6,
      "fast_total": 0,
      "fast_avail": 0,
      "fast_percent": 0.0,
      "latest_update": "20260714053009"
    },
    {
      "station_id": "CGA00075",
      "name": "송파 잠실 엘스_147동",
      "address": "서울특별시 송파구 올림픽로 99",
      "lat": "37.51610901",
      "lng": "127.0796774",
      "total_count": 9,
      "available_count": 3,
      "total_percent": 33.3,
      "slow_total": 9,
      "slow_avail": 3,
      "slow_percent": 33.3,
      "fast_total": 0,
      "fast_avail": 0,
      "fast_percent": 0.0,
      "latest_update": "20260713233007"
    },
    {
      "station_id": "EC110034",
      "name": "가락한신아파트",
      "address": "서울특별시 송파구 송파대로 220",
      "lat": "37.4897889",
      "lng": "127.1212023",
      "total_count": 9,
      "available_count": 7,
      "total_percent": 77.8,
      "slow_total": 9,
      "slow_avail": 7,
      "slow_percent": 77.8,
      "fast_total": 0,
      "fast_avail": 0,
      "fast_percent": 0.0,
      "latest_update": "20260714064002"
    },
    {
      "station_id": "EV006828",
      "name": "서울송파 헬리오시티상가",
      "address": "서울특별시 송파구 송파대로 345",
      "lat": "37.4976146",
      "lng": "127.1025318",
      "total_count": 9,
      "available_count": 8,
      "total_percent": 88.9,
      "slow_total": 9,
      "slow_avail": 8,
      "slow_percent": 88.9,
      "fast_total": 0,
      "fast_avail": 0,
      "fast_percent": 0.0,
      "latest_update": "20260714044818"
    },
    {
      "station_id": "EV013174",
      "name": "서울송파 가든파이브웍스 2",
      "address": "서울특별시 송파구 충민로 52",
      "lat": "37.4777176",
      "lng": "127.122746",
      "total_count": 9,
      "available_count": 9,
      "total_percent": 100.0,
      "slow_total": 9,
      "slow_avail": 9,
      "slow_percent": 100.0,
      "fast_total": 0,
      "fast_avail": 0,
      "fast_percent": 0.0,
      "latest_update": "20260714030919"
    },
    {
      "station_id": "EV013539",
      "name": "서울송파 문정역SKV1 3거점",
      "address": "서울특별시 송파구 법원로 128 (문정동)",
      "lat": "37.4868914",
      "lng": "127.1204540",
      "total_count": 9,
      "available_count": 8,
      "total_percent": 88.9,
      "slow_total": 9,
      "slow_avail": 8,
      "slow_percent": 88.9,
      "fast_total": 0,
      "fast_avail": 0,
      "fast_percent": 0.0,
      "latest_update": "20260714063114"
    },
    {
      "station_id": "EV017506",
      "name": "서울송파 잠실트리지움 5",
      "address": "서울특별시 송파구 잠실로 62",
      "lat": "37.511021423",
      "lng": "127.08802492",
      "total_count": 9,
      "available_count": 7,
      "total_percent": 77.8,
      "slow_total": 9,
      "slow_avail": 7,
      "slow_percent": 77.8,
      "fast_total": 0,
      "fast_avail": 0,
      "fast_percent": 0.0,
      "latest_update": "20260714060459"
    },
    {
      "station_id": "EV017508",
      "name": "서울송파 잠실트리지움 7",
      "address": "서울특별시 송파구 잠실로 62",
      "lat": "37.510986273",
      "lng": "127.08983458",
      "total_count": 9,
      "available_count": 5,
      "total_percent": 55.6,
      "slow_total": 9,
      "slow_avail": 5,
      "slow_percent": 55.6,
      "fast_total": 0,
      "fast_avail": 0,
      "fast_percent": 0.0,
      "latest_update": "20260714052336"
    },
    {
      "station_id": "EV017510",
      "name": "서울송파 잠실트리지움 9",
      "address": "서울특별시 송파구 잠실로 62",
      "lat": "37.509510448",
      "lng": "127.09039833",
      "total_count": 9,
      "available_count": 6,
      "total_percent": 66.7,
      "slow_total": 9,
      "slow_avail": 6,
      "slow_percent": 66.7,
      "fast_total": 0,
      "fast_avail": 0,
      "fast_percent": 0.0,
      "latest_update": "20260714061906"
    },
    {
      "station_id": "EV017512",
      "name": "서울송파 잠실트리지움 11",
      "address": "서울특별시 송파구 잠실로 62",
      "lat": "37.510029973",
      "lng": "127.09144518",
      "total_count": 9,
      "available_count": 6,
      "total_percent": 66.7,
      "slow_total": 9,
      "slow_avail": 6,
      "slow_percent": 66.7,
      "fast_total": 0,
      "fast_avail": 0,
      "fast_percent": 0.0,
      "latest_update": "20260714050829"
    },
    {
      "station_id": "HM001624",
      "name": "삼성SDS타워 서관",
      "address": "서울특별시 송파구 올림픽로35길 125",
      "lat": "37.516297774",
      "lng": "127.10046780",
      "total_count": 9,
      "available_count": 4,
      "total_percent": 44.4,
      "slow_total": 6,
      "slow_avail": 2,
      "slow_percent": 33.3,
      "fast_total": 3,
      "fast_avail": 2,
      "fast_percent": 66.7,
      "latest_update": "20260714071413"
    },
    {
      "station_id": "CGA00158",
      "name": "송파 파인타운2단지",
      "address": "서울특별시 송파구 충민로 151",
      "lat": "37.4835171",
      "lng": "127.1313064",
      "total_count": 8,
      "available_count": 7,
      "total_percent": 87.5,
      "slow_total": 8,
      "slow_avail": 7,
      "slow_percent": 87.5,
      "fast_total": 0,
      "fast_avail": 0,
      "fast_percent": 0.0,
      "latest_update": "20260714070014"
    },
    {
      "station_id": "EV013537",
      "name": "서울송파 문정역SKV1 1거점",
      "address": "서울특별시 송파구 법원로 128 (문정동)",
      "lat": "37.4868514",
      "lng": "127.1204540",
      "total_count": 8,
      "available_count": 7,
      "total_percent": 87.5,
      "slow_total": 8,
      "slow_avail": 7,
      "slow_percent": 87.5,
      "fast_total": 0,
      "fast_avail": 0,
      "fast_percent": 0.0,
      "latest_update": "20260714063516"
    },
    {
      "station_id": "EZ210005",
      "name": "송파웰츠타워 관리위원회",
      "address": "서울특별시 송파구 송파대로28길 43",
      "lat": "37.496713",
      "lng": "127.1219888",
      "total_count": 8,
      "available_count": 0,
      "total_percent": 0.0,
      "slow_total": 8,
      "slow_avail": 0,
      "slow_percent": 0.0,
      "fast_total": 0,
      "fast_avail": 0,
      "fast_percent": 0.0,
      "latest_update": "20260601113310"
    },
    {
      "station_id": "JA110025",
      "name": "롯데월드타워 그린카존",
      "address": "서울특별시 송파구 올림픽로 300",
      "lat": "37.5135139",
      "lng": "127.1032016",
      "total_count": 8,
      "available_count": 6,
      "total_percent": 75.0,
      "slow_total": 8,
      "slow_avail": 6,
      "slow_percent": 75.0,
      "fast_total": 0,
      "fast_avail": 0,
      "fast_percent": 0.0,
      "latest_update": "20260713213002"
    },
    {
      "station_id": "KP000926",
      "name": "레이크팰리스",
      "address": "서울특별시 송파구 잠실동 잠실로 88",
      "lat": "37.5075341602",
      "lng": "127.093213298",
      "total_count": 8,
      "available_count": 5,
      "total_percent": 62.5,
      "slow_total": 6,
      "slow_avail": 4,
      "slow_percent": 66.7,
      "fast_total": 2,
      "fast_avail": 1,
      "fast_percent": 50.0,
      "latest_update": "20260714025007"
    },
    {
      "station_id": "KP001804",
      "name": "리센츠 아파트",
      "address": "서울특별시 송파구 올림픽로 135",
      "lat": "37.513161",
      "lng": "127.090312",
      "total_count": 8,
      "available_count": 8,
      "total_percent": 100.0,
      "slow_total": 6,
      "slow_avail": 6,
      "slow_percent": 100.0,
      "fast_total": 2,
      "fast_avail": 2,
      "fast_percent": 100.0,
      "latest_update": "20260714070017"
    },
    {
      "station_id": "KP002812",
      "name": "위례 포레샤인 23단지",
      "address": "서울특별시 송파구 장지동 380-1",
      "lat": "37.47617081866",
      "lng": "127.1353309043",
      "total_count": 8,
      "available_count": 6,
      "total_percent": 75.0,
      "slow_total": 8,
      "slow_avail": 6,
      "slow_percent": 75.0,
      "fast_total": 0,
      "fast_avail": 0,
      "fast_percent": 0.0,
      "latest_update": "20260714050006"
    },
    {
      "station_id": "LU100759",
      "name": "송파파인타운2단지",
      "address": "서울특별시 송파구 충민로 151",
      "lat": "37.48351714",
      "lng": "127.13130639",
      "total_count": 8,
      "available_count": 4,
      "total_percent": 50.0,
      "slow_total": 8,
      "slow_avail": 4,
      "slow_percent": 50.0,
      "fast_total": 0,
      "fast_avail": 0,
      "fast_percent": 0.0,
      "latest_update": "20260714071456"
    },
    {
      "station_id": "BPA00010",
      "name": "우성르보아위례",
      "address": "서울특별시 송파구 위례서로 234",
      "lat": "37.48",
      "lng": "127.14",
      "total_count": 7,
      "available_count": 5,
      "total_percent": 71.4,
      "slow_total": 7,
      "slow_avail": 5,
      "slow_percent": 71.4,
      "fast_total": 0,
      "fast_avail": 0,
      "fast_percent": 0.0,
      "latest_update": "20260714052316"
    },
    {
      "station_id": "CV000639",
      "name": "송파호반베르디움더퍼스트",
      "address": "서울특별시 송파구 동남로 342",
      "lat": "37.505459",
      "lng": "127.139985",
      "total_count": 7,
      "available_count": 7,
      "total_percent": 100.0,
      "slow_total": 7,
      "slow_avail": 7,
      "slow_percent": 100.0,
      "fast_total": 0,
      "fast_avail": 0,
      "fast_percent": 0.0,
      "latest_update": "20260713233518"
    },
    {
      "station_id": "EP220163",
      "name": "잠실올림픽공원아이파크 충전소",
      "address": "서울특별시 송파구 올림픽로43길 34",
      "lat": "37.525873648",
      "lng": "127.11515365",
      "total_count": 7,
      "available_count": 0,
      "total_percent": 0.0,
      "slow_total": 7,
      "slow_avail": 0,
      "slow_percent": 0.0,
      "fast_total": 0,
      "fast_avail": 0,
      "fast_percent": 0.0,
      "latest_update": "20260324150039"
    },
    {
      "station_id": "EV010734",
      "name": "서울송파 풍납한강극동아파트4",
      "address": "서울특별시 송파구 토성로 38-6",
      "lat": "37.529908777",
      "lng": "127.11187894",
      "total_count": 7,
      "available_count": 4,
      "total_percent": 57.1,
      "slow_total": 7,
      "slow_avail": 4,
      "slow_percent": 57.1,
      "fast_total": 0,
      "fast_avail": 0,
      "fast_percent": 0.0,
      "latest_update": "20260714063516"
    },
    {
      "station_id": "EV012108",
      "name": "서울송파 가락래미안파크팰리스 8(콘센트)",
      "address": "서울특별시 송파구 동남로 225 (가락동, 래미안파크팰리스)",
      "lat": "37.4980047",
      "lng": "127.1308682",
      "total_count": 7,
      "available_count": 6,
      "total_percent": 85.7,
      "slow_total": 7,
      "slow_avail": 6,
      "slow_percent": 85.7,
      "fast_total": 0,
      "fast_avail": 0,
      "fast_percent": 0.0,
      "latest_update": "20260714051636"
    },
    {
      "station_id": "EV017148",
      "name": "서울송파 위례아이파크2차",
      "address": "서울특별시 송파구 위례광장로 230",
      "lat": "37.4786198",
      "lng": "127.1435334",
      "total_count": 7,
      "available_count": 0,
      "total_percent": 0.0,
      "slow_total": 7,
      "slow_avail": 0,
      "slow_percent": 0.0,
      "fast_total": 0,
      "fast_avail": 0,
      "fast_percent": 0.0,
      "latest_update": "20260714053242"
    },
    {
      "station_id": "HM000646",
      "name": "송파푸르지오시티",
      "address": "서울특별시 송파구 새말로 62",
      "lat": "37.4807968",
      "lng": "127.1214582",
      "total_count": 7,
      "available_count": 6,
      "total_percent": 85.7,
      "slow_total": 7,
      "slow_avail": 6,
      "slow_percent": 85.7,
      "fast_total": 0,
      "fast_avail": 0,
      "fast_percent": 0.0,
      "latest_update": "20260714070807"
    },
    {
      "station_id": "HM110016",
      "name": "Tower730",
      "address": "서울 송파구 송파대로 570",
      "lat": "37.5157751",
      "lng": "127.0990622",
      "total_count": 7,
      "available_count": 7,
      "total_percent": 100.0,
      "slow_total": 7,
      "slow_avail": 7,
      "slow_percent": 100.0,
      "fast_total": 0,
      "fast_avail": 0,
      "fast_percent": 0.0,
      "latest_update": "20260713132619"
    },
    {
      "station_id": "JA110076",
      "name": "롯데월드 어드벤처(호텔구역) 서울",
      "address": "서울특별시 송파구 올림픽로 240",
      "lat": "37.511264",
      "lng": "127.1002351",
      "total_count": 7,
      "available_count": 7,
      "total_percent": 100.0,
      "slow_total": 5,
      "slow_avail": 5,
      "slow_percent": 100.0,
      "fast_total": 2,
      "fast_avail": 2,
      "fast_percent": 100.0,
      "latest_update": "20260714065006"
    },
    {
      "station_id": "KP002873",
      "name": "송파꿈에그린(위례24단지)",
      "address": "서울특별시 송파구 장지동 516",
      "lat": "37.47592327474",
      "lng": "127.1390103411",
      "total_count": 7,
      "available_count": 7,
      "total_percent": 100.0,
      "slow_total": 7,
      "slow_avail": 7,
      "slow_percent": 100.0,
      "fast_total": 0,
      "fast_avail": 0,
      "fast_percent": 0.0,
      "latest_update": "20260714033018"
    },
    {
      "station_id": "LU002378",
      "name": "송파한양1차아파트",
      "address": "서울특별시 송파구 가락로 187",
      "lat": "37.494577",
      "lng": "127.134916",
      "total_count": 7,
      "available_count": 3,
      "total_percent": 42.9,
      "slow_total": 7,
      "slow_avail": 3,
      "slow_percent": 42.9,
      "fast_total": 0,
      "fast_avail": 0,
      "fast_percent": 0.0,
      "latest_update": "20260714030020"
    },
    {
      "station_id": "LU003358",
      "name": "가락대림아파트",
      "address": "서울특별시 송파구 송이로 88",
      "lat": "37.499491",
      "lng": "127.118311",
      "total_count": 7,
      "available_count": 4,
      "total_percent": 57.1,
      "slow_total": 7,
      "slow_avail": 4,
      "slow_percent": 57.1,
      "fast_total": 0,
      "fast_avail": 0,
      "fast_percent": 0.0,
      "latest_update": "20260714071353"
    },
    {
      "station_id": "ME19Y601",
      "name": "가락시장",
      "address": "서울특별시 송파구 양재대로 932",
      "lat": "37.494161",
      "lng": "127.113843",
      "total_count": 6,
      "available_count": 6,
      "total_percent": 100.0,
      "slow_total": 0,
      "slow_avail": 0,
      "slow_percent": 0.0,
      "fast_total": 6,
      "fast_avail": 6,
      "fast_percent": 100.0,
      "latest_update": "20260714071221"
    },
    {
      "station_id": "CGA00068",
      "name": "송파 잠실 엘스_122동",
      "address": "서울특별시 송파구 올림픽로 99",
      "lat": "37.51264553",
      "lng": "127.0848767",
      "total_count": 6,
      "available_count": 4,
      "total_percent": 66.7,
      "slow_total": 6,
      "slow_avail": 4,
      "slow_percent": 66.7,
      "fast_total": 0,
      "fast_avail": 0,
      "fast_percent": 0.0,
      "latest_update": "20260714021506"
    },
    {
      "station_id": "CGA00072",
      "name": "송파 잠실 엘스_152동",
      "address": "서울특별시 송파구 올림픽로 99",
      "lat": "37.51499147",
      "lng": "127.080106",
      "total_count": 6,
      "available_count": 6,
      "total_percent": 100.0,
      "slow_total": 6,
      "slow_avail": 6,
      "slow_percent": 100.0,
      "fast_total": 0,
      "fast_avail": 0,
      "fast_percent": 0.0,
      "latest_update": "20260714061512"
    },
    {
      "station_id": "CGA00073",
      "name": "송파 잠실 엘스_163동",
      "address": "서울특별시 송파구 올림픽로 99",
      "lat": "37.51389257",
      "lng": "127.0796298",
      "total_count": 6,
      "available_count": 3,
      "total_percent": 50.0,
      "slow_total": 6,
      "slow_avail": 3,
      "slow_percent": 50.0,
      "fast_total": 0,
      "fast_avail": 0,
      "fast_percent": 0.0,
      "latest_update": "20260714031510"
    },
    {
      "station_id": "CGA00076",
      "name": "송파 잠실 엘스_157동",
      "address": "서울특별시 송파구 올림픽로 99",
      "lat": "37.51512524",
      "lng": "127.07813",
      "total_count": 6,
      "available_count": 4,
      "total_percent": 66.7,
      "slow_total": 6,
      "slow_avail": 4,
      "slow_percent": 66.7,
      "fast_total": 0,
      "fast_avail": 0,
      "fast_percent": 0.0,
      "latest_update": "20260713214511"
    },
    {
      "station_id": "CGA00077",
      "name": "송파 잠실 엘스_161동",
      "address": "서울특별시 송파구 올림픽로 99",
      "lat": "37.5143435",
      "lng": "127.0789968",
      "total_count": 6,
      "available_count": 4,
      "total_percent": 66.7,
      "slow_total": 6,
      "slow_avail": 4,
      "slow_percent": 66.7,
      "fast_total": 0,
      "fast_avail": 0,
      "fast_percent": 0.0,
      "latest_update": "20260713213014"
    },
    {
      "station_id": "CGA00078",
      "name": "송파 잠실 엘스_150동",
      "address": "서울특별시 송파구 올림픽로 99",
      "lat": "37.51546914",
      "lng": "127.0799029",
      "total_count": 6,
      "available_count": 4,
      "total_percent": 66.7,
      "slow_total": 6,
      "slow_avail": 4,
      "slow_percent": 66.7,
      "fast_total": 0,
      "fast_avail": 0,
      "fast_percent": 0.0,
      "latest_update": "20260713213008"
    },
    {
      "station_id": "CGA00079",
      "name": "송파 잠실 엘스_155동",
      "address": "서울특별시 송파구 올림픽로 99",
      "lat": "37.51506424",
      "lng": "127.0790881",
      "total_count": 6,
      "available_count": 5,
      "total_percent": 83.3,
      "slow_total": 6,
      "slow_avail": 5,
      "slow_percent": 83.3,
      "fast_total": 0,
      "fast_avail": 0,
      "fast_percent": 0.0,
      "latest_update": "20260713220010"
    },
    {
      "station_id": "CGA00152",
      "name": "송파 오금우방아파트",
      "address": "서울특별시 송파구 성내천로 87",
      "lat": "37.5012704",
      "lng": "127.1397425",
      "total_count": 6,
      "available_count": 4,
      "total_percent": 66.7,
      "slow_total": 6,
      "slow_avail": 4,
      "slow_percent": 66.7,
      "fast_total": 0,
      "fast_avail": 0,
      "fast_percent": 0.0,
      "latest_update": "20260714054509"
    },
    {
      "station_id": "CV001061",
      "name": "잠실역공영주차장",
      "address": "서울특별시 송파구 올림픽로 300",
      "lat": "37.5171634",
      "lng": "127.104248",
      "total_count": 6,
      "available_count": 4,
      "total_percent": 66.7,
      "slow_total": 6,
      "slow_avail": 4,
      "slow_percent": 66.7,
      "fast_total": 0,
      "fast_avail": 0,
      "fast_percent": 0.0,
      "latest_update": "20260714070520"
    },
    {
      "station_id": "EC110116",
      "name": "대림가락아파트 2동",
      "address": "서울특별시 송파구 양재대로 1109",
      "lat": "37.506862343",
      "lng": "127.12418374",
      "total_count": 6,
      "available_count": 4,
      "total_percent": 66.7,
      "slow_total": 6,
      "slow_avail": 4,
      "slow_percent": 66.7,
      "fast_total": 0,
      "fast_avail": 0,
      "fast_percent": 0.0,
      "latest_update": "20260714064002"
    },
    {
      "station_id": "EV005021",
      "name": "서울송파 송파체육문화회관",
      "address": "서울특별시 송파구 양산로 15",
      "lat": "37.4905949",
      "lng": "127.1428172",
      "total_count": 6,
      "available_count": 3,
      "total_percent": 50.0,
      "slow_total": 0,
      "slow_avail": 0,
      "slow_percent": 0.0,
      "fast_total": 6,
      "fast_avail": 3,
      "fast_percent": 50.0,
      "latest_update": "20260714065326"
    },
    {
      "station_id": "EV008755",
      "name": "서울송파 롯데캐슬골드1",
      "address": "서울특별시 송파구 올림픽로 269",
      "lat": "37.5144273",
      "lng": "127.1006114",
      "total_count": 6,
      "available_count": 4,
      "total_percent": 66.7,
      "slow_total": 6,
      "slow_avail": 4,
      "slow_percent": 66.7,
      "fast_total": 0,
      "fast_avail": 0,
      "fast_percent": 0.0,
      "latest_update": "20260714060459"
    },
    {
      "station_id": "EV008756",
      "name": "서울송파 롯데캐슬골드2",
      "address": "서울특별시 송파구 올림픽로 269",
      "lat": "37.5144273",
      "lng": "127.1006114",
      "total_count": 6,
      "available_count": 3,
      "total_percent": 50.0,
      "slow_total": 6,
      "slow_avail": 3,
      "slow_percent": 50.0,
      "fast_total": 0,
      "fast_avail": 0,
      "fast_percent": 0.0,
      "latest_update": "20260714070131"
    },
    {
      "station_id": "EV010082",
      "name": "서울송파 경찰병원",
      "address": "서울특별시 송파구 송이로 123",
      "lat": "37.4962473",
      "lng": "127.1234825",
      "total_count": 6,
      "available_count": 2,
      "total_percent": 33.3,
      "slow_total": 4,
      "slow_avail": 2,
      "slow_percent": 50.0,
      "fast_total": 2,
      "fast_avail": 0,
      "fast_percent": 0.0,
      "latest_update": "20260714063516"
    },
    {
      "station_id": "EV012085",
      "name": "서울송파 에이치비즈니스파크A 1",
      "address": "서울특별시 송파구 법원로11길 25",
      "lat": "37.4849481",
      "lng": "127.1162277",
      "total_count": 6,
      "available_count": 5,
      "total_percent": 83.3,
      "slow_total": 6,
      "slow_avail": 5,
      "slow_percent": 83.3,
      "fast_total": 0,
      "fast_avail": 0,
      "fast_percent": 0.0,
      "latest_update": "20260714061907"
    },
    {
      "station_id": "EV012086",
      "name": "서울송파 에이치비즈니스파크A 2",
      "address": "서울특별시 송파구 법원로11길 25 (문정동)",
      "lat": "37.4849481",
      "lng": "127.1162277",
      "total_count": 6,
      "available_count": 5,
      "total_percent": 83.3,
      "slow_total": 6,
      "slow_avail": 5,
      "slow_percent": 83.3,
      "fast_total": 0,
      "fast_avail": 0,
      "fast_percent": 0.0,
      "latest_update": "20260714063918"
    },
    {
      "station_id": "EV012088",
      "name": "서울송파 에이치비즈니스파크C 2",
      "address": "서울특별시 송파구 법원로11길 25",
      "lat": "37.4849481",
      "lng": "127.1162277",
      "total_count": 6,
      "available_count": 4,
      "total_percent": 66.7,
      "slow_total": 6,
      "slow_avail": 4,
      "slow_percent": 66.7,
      "fast_total": 0,
      "fast_avail": 0,
      "fast_percent": 0.0,
      "latest_update": "20260714031121"
    },
    {
      "station_id": "EV012101",
      "name": "서울송파 가락래미안파크팰리스 1(콘센트)",
      "address": "서울특별시 송파구 동남로 225 (가락동, 래미안파크팰리스)",
      "lat": "37.4980047",
      "lng": "127.1308682",
      "total_count": 6,
      "available_count": 6,
      "total_percent": 100.0,
      "slow_total": 6,
      "slow_avail": 6,
      "slow_percent": 100.0,
      "fast_total": 0,
      "fast_avail": 0,
      "fast_percent": 0.0,
      "latest_update": "20260714053844"
    },
    {
      "station_id": "EV012102",
      "name": "서울송파 가락래미안파크팰리스 2(콘센트)",
      "address": "서울특별시 송파구 동남로 225 (가락동, 래미안파크팰리스)",
      "lat": "37.4980047",
      "lng": "127.1308682",
      "total_count": 6,
      "available_count": 6,
      "total_percent": 100.0,
      "slow_total": 6,
      "slow_avail": 6,
      "slow_percent": 100.0,
      "fast_total": 0,
      "fast_avail": 0,
      "fast_percent": 0.0,
      "latest_update": "20260712124119"
    },
    {
      "station_id": "EV012103",
      "name": "서울송파 가락래미안파크팰리스 3(콘센트)",
      "address": "서울특별시 송파구 동남로 225 (가락동, 래미안파크팰리스)",
      "lat": "37.4980047",
      "lng": "127.1308682",
      "total_count": 6,
      "available_count": 6,
      "total_percent": 100.0,
      "slow_total": 6,
      "slow_avail": 6,
      "slow_percent": 100.0,
      "fast_total": 0,
      "fast_avail": 0,
      "fast_percent": 0.0,
      "latest_update": "20260713073706"
    },
    {
      "station_id": "EV012104",
      "name": "서울송파 가락래미안파크팰리스 4(콘센트)",
      "address": "서울특별시 송파구 동남로 225 (가락동, 래미안파크팰리스)",
      "lat": "37.4980047",
      "lng": "127.1308682",
      "total_count": 6,
      "available_count": 6,
      "total_percent": 100.0,
      "slow_total": 6,
      "slow_avail": 6,
      "slow_percent": 100.0,
      "fast_total": 0,
      "fast_avail": 0,
      "fast_percent": 0.0,
      "latest_update": "20260713204529"
    },
    {
      "station_id": "EV012105",
      "name": "서울송파 가락래미안파크팰리스 5(콘센트)",
      "address": "서울특별시 송파구 동남로 225 (가락동, 래미안파크팰리스)",
      "lat": "37.4980047",
      "lng": "127.1308682",
      "total_count": 6,
      "available_count": 5,
      "total_percent": 83.3,
      "slow_total": 6,
      "slow_avail": 5,
      "slow_percent": 83.3,
      "fast_total": 0,
      "fast_avail": 0,
      "fast_percent": 0.0,
      "latest_update": "20260713152754"
    },
    {
      "station_id": "EV012106",
      "name": "서울송파 가락래미안파크팰리스 6(콘센트)",
      "address": "서울특별시 송파구 동남로 225 (가락동, 래미안파크팰리스)",
      "lat": "37.4980047",
      "lng": "127.1308682",
      "total_count": 6,
      "available_count": 5,
      "total_percent": 83.3,
      "slow_total": 6,
      "slow_avail": 5,
      "slow_percent": 83.3,
      "fast_total": 0,
      "fast_avail": 0,
      "fast_percent": 0.0,
      "latest_update": "20260712140813"
    },
    {
      "station_id": "EV012107",
      "name": "서울송파 가락래미안파크팰리스 7(콘센트)",
      "address": "서울특별시 송파구 동남로 225 (가락동, 래미안파크팰리스)",
      "lat": "37.4980047",
      "lng": "127.1308682",
      "total_count": 6,
      "available_count": 6,
      "total_percent": 100.0,
      "slow_total": 6,
      "slow_avail": 6,
      "slow_percent": 100.0,
      "fast_total": 0,
      "fast_avail": 0,
      "fast_percent": 0.0,
      "latest_update": "20260701075904"
    },
    {
      "station_id": "EV012562",
      "name": "서울송파 가락래미안파크팰리스 9(콘센트)",
      "address": "서울특별시 송파구 동남로 225 (가락동, 래미안파크팰리스)",
      "lat": "37.4980047",
      "lng": "127.1308682",
      "total_count": 6,
      "available_count": 4,
      "total_percent": 66.7,
      "slow_total": 6,
      "slow_avail": 4,
      "slow_percent": 66.7,
      "fast_total": 0,
      "fast_avail": 0,
      "fast_percent": 0.0,
      "latest_update": "20260618134810"
    },
    {
      "station_id": "EV013435",
      "name": "서울송파 월드타워",
      "address": "서울특별시 송파구 송파대로 558",
      "lat": "37.5150847",
      "lng": "127.0996972",
      "total_count": 6,
      "available_count": 6,
      "total_percent": 100.0,
      "slow_total": 6,
      "slow_avail": 6,
      "slow_percent": 100.0,
      "fast_total": 0,
      "fast_avail": 0,
      "fast_percent": 0.0,
      "latest_update": "20260713204326"
    },
    {
      "station_id": "EV013538",
      "name": "서울송파 문정역SKV1 2거점",
      "address": "서울특별시 송파구 법원로 128 (문정동)",
      "lat": "37.4868714",
      "lng": "127.1204540",
      "total_count": 6,
      "available_count": 6,
      "total_percent": 100.0,
      "slow_total": 6,
      "slow_avail": 6,
      "slow_percent": 100.0,
      "fast_total": 0,
      "fast_avail": 0,
      "fast_percent": 0.0,
      "latest_update": "20260713210743"
    },
    {
      "station_id": "EV017149",
      "name": "서울송파 위례아이파크",
      "address": "서울특별시 송파구 위례광장로 136",
      "lat": "37.4771958",
      "lng": "127.1423748",
      "total_count": 6,
      "available_count": 5,
      "total_percent": 83.3,
      "slow_total": 6,
      "slow_avail": 5,
      "slow_percent": 83.3,
      "fast_total": 0,
      "fast_avail": 0,
      "fast_percent": 0.0,
      "latest_update": "20260713234520"
    },
    {
      "station_id": "EV017503",
      "name": "서울송파 잠실트리지움 2",
      "address": "서울특별시 송파구 잠실로 62",
      "lat": "37.509503293",
      "lng": "127.08794114",
      "total_count": 6,
      "available_count": 4,
      "total_percent": 66.7,
      "slow_total": 6,
      "slow_avail": 4,
      "slow_percent": 66.7,
      "fast_total": 0,
      "fast_avail": 0,
      "fast_percent": 0.0,
      "latest_update": "20260714055857"
    },
    {
      "station_id": "EV017505",
      "name": "서울송파 잠실트리지움 4",
      "address": "서울특별시 송파구 잠실로 62",
      "lat": "37.509871049",
      "lng": "127.08713570",
      "total_count": 6,
      "available_count": 5,
      "total_percent": 83.3,
      "slow_total": 6,
      "slow_avail": 5,
      "slow_percent": 83.3,
      "fast_total": 0,
      "fast_avail": 0,
      "fast_percent": 0.0,
      "latest_update": "20260714064923"
    },
    {
      "station_id": "EV017507",
      "name": "서울송파 잠실트리지움 6",
      "address": "서울특별시 송파구 잠실로 62",
      "lat": "37.510983090",
      "lng": "127.08807860",
      "total_count": 6,
      "available_count": 3,
      "total_percent": 50.0,
      "slow_total": 6,
      "slow_avail": 3,
      "slow_percent": 50.0,
      "fast_total": 0,
      "fast_avail": 0,
      "fast_percent": 0.0,
      "latest_update": "20260714062912"
    },
    {
      "station_id": "EV017509",
      "name": "서울송파 잠실트리지움 8",
      "address": "서울특별시 송파구 잠실로 62",
      "lat": "37.510979494",
      "lng": "127.08986285",
      "total_count": 6,
      "available_count": 4,
      "total_percent": 66.7,
      "slow_total": 6,
      "slow_avail": 4,
      "slow_percent": 66.7,
      "fast_total": 0,
      "fast_avail": 0,
      "fast_percent": 0.0,
      "latest_update": "20260714011759"
    },
    {
      "station_id": "EV017511",
      "name": "서울송파 잠실트리지움 10",
      "address": "서울특별시 송파구 잠실로 62",
      "lat": "37.509546463",
      "lng": "127.09043231",
      "total_count": 6,
      "available_count": 3,
      "total_percent": 50.0,
      "slow_total": 6,
      "slow_avail": 3,
      "slow_percent": 50.0,
      "fast_total": 0,
      "fast_avail": 0,
      "fast_percent": 0.0,
      "latest_update": "20260714045824"
    },
    {
      "station_id": "EV017513",
      "name": "서울송파 잠실트리지움 12",
      "address": "서울특별시 송파구 잠실로 62",
      "lat": "37.510032199",
      "lng": "127.09147911",
      "total_count": 6,
      "available_count": 4,
      "total_percent": 66.7,
      "slow_total": 6,
      "slow_avail": 4,
      "slow_percent": 66.7,
      "fast_total": 0,
      "fast_avail": 0,
      "fast_percent": 0.0,
      "latest_update": "20260714070333"
    },
    {
      "station_id": "EV018634",
      "name": "서울송파 거여현대1차아파트 1",
      "address": "서울특별시 송파구 오금로54길 10",
      "lat": "37.4936148",
      "lng": "127.1410684",
      "total_count": 6,
      "available_count": 5,
      "total_percent": 83.3,
      "slow_total": 6,
      "slow_avail": 5,
      "slow_percent": 83.3,
      "fast_total": 0,
      "fast_avail": 0,
      "fast_percent": 0.0,
      "latest_update": "20260713231502"
    },
    {
      "station_id": "EV018782",
      "name": "서울송파 가든파이브라이프 6",
      "address": "서울특별시 송파구 충민로 66",
      "lat": "37.4776148",
      "lng": "127.1249618",
      "total_count": 6,
      "available_count": 6,
      "total_percent": 100.0,
      "slow_total": 6,
      "slow_avail": 6,
      "slow_percent": 100.0,
      "fast_total": 0,
      "fast_avail": 0,
      "fast_percent": 0.0,
      "latest_update": "20260714000129"
    },
    {
      "station_id": "EV018783",
      "name": "서울송파 가든파이브라이프 7",
      "address": "서울특별시 송파구 충민로 66",
      "lat": "37.4776148",
      "lng": "127.1249618",
      "total_count": 6,
      "available_count": 6,
      "total_percent": 100.0,
      "slow_total": 6,
      "slow_avail": 6,
      "slow_percent": 100.0,
      "fast_total": 0,
      "fast_avail": 0,
      "fast_percent": 0.0,
      "latest_update": "20260714070131"
    },
    {
      "station_id": "EV018784",
      "name": "서울송파 가든파이브라이프 8",
      "address": "서울특별시 송파구 충민로 66",
      "lat": "37.4776148",
      "lng": "127.1249618",
      "total_count": 6,
      "available_count": 6,
      "total_percent": 100.0,
      "slow_total": 6,
      "slow_avail": 6,
      "slow_percent": 100.0,
      "fast_total": 0,
      "fast_avail": 0,
      "fast_percent": 0.0,
      "latest_update": "20260713162230"
    },
    {
      "station_id": "EV018785",
      "name": "서울송파 가든파이브라이프 9",
      "address": "서울특별시 송파구 충민로 66",
      "lat": "37.4776148",
      "lng": "127.1249618",
      "total_count": 6,
      "available_count": 6,
      "total_percent": 100.0,
      "slow_total": 6,
      "slow_avail": 6,
      "slow_percent": 100.0,
      "fast_total": 0,
      "fast_avail": 0,
      "fast_percent": 0.0,
      "latest_update": "20260713201103"
    },
    {
      "station_id": "EV018786",
      "name": "서울송파 가든파이브라이프 10",
      "address": "서울특별시 송파구 충민로 66",
      "lat": "37.4776148",
      "lng": "127.1249618",
      "total_count": 6,
      "available_count": 5,
      "total_percent": 83.3,
      "slow_total": 6,
      "slow_avail": 5,
      "slow_percent": 83.3,
      "fast_total": 0,
      "fast_avail": 0,
      "fast_percent": 0.0,
      "latest_update": "20260714044131"
    },
    {
      "station_id": "EV018787",
      "name": "서울송파 가든파이브라이프 11",
      "address": "서울특별시 송파구 충민로 66",
      "lat": "37.4776148",
      "lng": "127.1249618",
      "total_count": 6,
      "available_count": 5,
      "total_percent": 83.3,
      "slow_total": 6,
      "slow_avail": 5,
      "slow_percent": 83.3,
      "fast_total": 0,
      "fast_avail": 0,
      "fast_percent": 0.0,
      "latest_update": "20260713155411"
    },
    {
      "station_id": "EZ002307",
      "name": "급속 삼전근린공원",
      "address": "서울특별시 송파구 백제고분로 240",
      "lat": "37.5027114",
      "lng": "127.0930378",
      "total_count": 6,
      "available_count": 0,
      "total_percent": 0.0,
      "slow_total": 0,
      "slow_avail": 0,
      "slow_percent": 0.0,
      "fast_total": 6,
      "fast_avail": 0,
      "fast_percent": 0.0,
      "latest_update": "20260601113310"
    },
    {
      "station_id": "HD000023",
      "name": "송파 가락몰 E-pit",
      "address": "서울특별시 송파구 양재대로 932",
      "lat": "37.4958524",
      "lng": "127.1149803",
      "total_count": 6,
      "available_count": 6,
      "total_percent": 100.0,
      "slow_total": 0,
      "slow_avail": 0,
      "slow_percent": 0.0,
      "fast_total": 6,
      "fast_avail": 6,
      "fast_percent": 100.0,
      "latest_update": "20260714064000"
    },
    {
      "station_id": "HM110333",
      "name": "_제일오피스텔(송파)",
      "address": "서울특별시 송파구 송파대로 260",
      "lat": "37.493139",
      "lng": "127.1188648",
      "total_count": 6,
      "available_count": 6,
      "total_percent": 100.0,
      "slow_total": 6,
      "slow_avail": 6,
      "slow_percent": 100.0,
      "fast_total": 0,
      "fast_avail": 0,
      "fast_percent": 0.0,
      "latest_update": "20260713153224"
    },
    {
      "station_id": "JA110078",
      "name": "롯데월드 어드벤처(백화점구역)",
      "address": "서울특별시 송파구 올림픽로 240",
      "lat": "37.5117927",
      "lng": "127.0983356",
      "total_count": 6,
      "available_count": 6,
      "total_percent": 100.0,
      "slow_total": 6,
      "slow_avail": 6,
      "slow_percent": 100.0,
      "fast_total": 0,
      "fast_avail": 0,
      "fast_percent": 0.0,
      "latest_update": "20260713211406"
    },
    {
      "station_id": "JA110151",
      "name": "송파구 더샵스타리버",
      "address": "서울특별시 송파구 올림픽로35길 93",
      "lat": "37.517773277",
      "lng": "127.10439265",
      "total_count": 6,
      "available_count": 5,
      "total_percent": 83.3,
      "slow_total": 4,
      "slow_avail": 3,
      "slow_percent": 75.0,
      "fast_total": 2,
      "fast_avail": 2,
      "fast_percent": 100.0,
      "latest_update": "20260713211412"
    },
    {
      "station_id": "KP000687",
      "name": "가락쌍용1차 아파트",
      "address": "서울특별시 송파구 가락동 동남로 193",
      "lat": "37.4946987694",
      "lng": "127.1292251319",
      "total_count": 6,
      "available_count": 5,
      "total_percent": 83.3,
      "slow_total": 4,
      "slow_avail": 3,
      "slow_percent": 75.0,
      "fast_total": 2,
      "fast_avail": 2,
      "fast_percent": 100.0,
      "latest_update": "20260714042016"
    },
    {
      "station_id": "LU100473",
      "name": "송파신성노바빌아파트",
      "address": "서울특별시 송파구 한가람로 468",
      "lat": "37.5383136",
      "lng": "127.1168792",
      "total_count": 6,
      "available_count": 6,
      "total_percent": 100.0,
      "slow_total": 6,
      "slow_avail": 6,
      "slow_percent": 100.0,
      "fast_total": 0,
      "fast_avail": 0,
      "fast_percent": 0.0,
      "latest_update": "20260713214539"
    },
    {
      "station_id": "NT100373",
      "name": "송파 가든파이브툴",
      "address": "서울특별시 송파구 충민로 10",
      "lat": "37.4786173",
      "lng": "127.1191067",
      "total_count": 6,
      "available_count": 5,
      "total_percent": 83.3,
      "slow_total": 4,
      "slow_avail": 4,
      "slow_percent": 100.0,
      "fast_total": 2,
      "fast_avail": 1,
      "fast_percent": 50.0,
      "latest_update": "20260713222650"
    },
    {
      "station_id": "ME19X403",
      "name": "서울올림픽공원 남2문주차장",
      "address": "서울특별시 송파구 올림픽로",
      "lat": "37.514973",
      "lng": "127.123837",
      "total_count": 5,
      "available_count": 4,
      "total_percent": 80.0,
      "slow_total": 0,
      "slow_avail": 0,
      "slow_percent": 0.0,
      "fast_total": 5,
      "fast_avail": 4,
      "fast_percent": 80.0,
      "latest_update": "20260714071200"
    },
    {
      "station_id": "BE240709",
      "name": "워터 서울시교통회관",
      "address": "서울특별시 송파구 올림픽로 319",
      "lat": "37.5157661",
      "lng": "127.1056117",
      "total_count": 5,
      "available_count": 4,
      "total_percent": 80.0,
      "slow_total": 1,
      "slow_avail": 0,
      "slow_percent": 0.0,
      "fast_total": 4,
      "fast_avail": 4,
      "fast_percent": 100.0,
      "latest_update": "20260714064711"
    },
    {
      "station_id": "CGA00238",
      "name": "송파 잠실장미아파트①_25동~26동",
      "address": "서울특별시 송파구 올림픽로35길 104",
      "lat": "37.5215190",
      "lng": "127.1011520",
      "total_count": 5,
      "available_count": 1,
      "total_percent": 20.0,
      "slow_total": 5,
      "slow_avail": 1,
      "slow_percent": 20.0,
      "fast_total": 0,
      "fast_avail": 0,
      "fast_percent": 0.0,
      "latest_update": "20260714070011"
    },
    {
      "station_id": "CGA00240",
      "name": "송파 잠실장미아파트③_23동",
      "address": "서울특별시 송파구 올림픽로35길 104",
      "lat": "37.5198130",
      "lng": "127.1021280",
      "total_count": 5,
      "available_count": 1,
      "total_percent": 20.0,
      "slow_total": 5,
      "slow_avail": 1,
      "slow_percent": 20.0,
      "fast_total": 0,
      "fast_avail": 0,
      "fast_percent": 0.0,
      "latest_update": "20260714063009"
    },
    {
      "station_id": "CGA00246",
      "name": "송파 잠실장미아파트⑨_6동",
      "address": "서울특별시 송파구 올림픽로35길 104",
      "lat": "37.5190840",
      "lng": "127.0969630",
      "total_count": 5,
      "available_count": 2,
      "total_percent": 40.0,
      "slow_total": 5,
      "slow_avail": 2,
      "slow_percent": 40.0,
      "fast_total": 0,
      "fast_avail": 0,
      "fast_percent": 0.0,
      "latest_update": "20260714040013"
    },
    {
      "station_id": "EC001035",
      "name": "송파미성아파트",
      "address": "서울특별시 송파구 오금로32길 10",
      "lat": "37.5833581",
      "lng": "126.8789018",
      "total_count": 5,
      "available_count": 3,
      "total_percent": 60.0,
      "slow_total": 5,
      "slow_avail": 3,
      "slow_percent": 60.0,
      "fast_total": 0,
      "fast_avail": 0,
      "fast_percent": 0.0,
      "latest_update": "20260714045801"
    },
    {
      "station_id": "EV004850",
      "name": "서울송파 송파꿈에그린아파트2405동",
      "address": "서울특별시 송파구 위례광장로 121",
      "lat": "37.476865",
      "lng": "127.1382163",
      "total_count": 5,
      "available_count": 3,
      "total_percent": 60.0,
      "slow_total": 5,
      "slow_avail": 3,
      "slow_percent": 60.0,
      "fast_total": 0,
      "fast_avail": 0,
      "fast_percent": 0.0,
      "latest_update": "20260714044818"
    },
    {
      "station_id": "EV005893",
      "name": "서울송파 위례스타힐스1",
      "address": "서울특별시 송파구 위례광장로 215",
      "lat": "37.480250550",
      "lng": "127.14632201",
      "total_count": 5,
      "available_count": 4,
      "total_percent": 80.0,
      "slow_total": 5,
      "slow_avail": 4,
      "slow_percent": 80.0,
      "fast_total": 0,
      "fast_avail": 0,
      "fast_percent": 0.0,
      "latest_update": "20260714070733"
    },
    {
      "station_id": "EV005894",
      "name": "서울송파 위례스타힐스2",
      "address": "서울특별시 송파구 위례광장로 215",
      "lat": "37.480256438",
      "lng": "127.14702299",
      "total_count": 5,
      "available_count": 4,
      "total_percent": 80.0,
      "slow_total": 5,
      "slow_avail": 4,
      "slow_percent": 80.0,
      "fast_total": 0,
      "fast_avail": 0,
      "fast_percent": 0.0,
      "latest_update": "20260714060056"
    },
    {
      "station_id": "EV012087",
      "name": "서울송파 에이치비즈니스파크C 1",
      "address": "서울특별시 송파구 법원로11길 25",
      "lat": "37.4841331",
      "lng": "127.1166725",
      "total_count": 5,
      "available_count": 5,
      "total_percent": 100.0,
      "slow_total": 5,
      "slow_avail": 5,
      "slow_percent": 100.0,
      "fast_total": 0,
      "fast_avail": 0,
      "fast_percent": 0.0,
      "latest_update": "20260713230441"
    },
    {
      "station_id": "JA110019",
      "name": "서울 송파구 롯데 캐슬프라자",
      "address": "서울특별시 송파구 올림픽로 269",
      "lat": "37.5144528",
      "lng": "127.1010537",
      "total_count": 5,
      "available_count": 1,
      "total_percent": 20.0,
      "slow_total": 5,
      "slow_avail": 1,
      "slow_percent": 20.0,
      "fast_total": 0,
      "fast_avail": 0,
      "fast_percent": 0.0,
      "latest_update": "20260713192001"
    },
    {
      "station_id": "JA110107",
      "name": "서울 송파구 문정프라비다옥토",
      "address": "서울특별시 송파구 법원로4길 17",
      "lat": "37.4832625",
      "lng": "127.1222565",
      "total_count": 5,
      "available_count": 4,
      "total_percent": 80.0,
      "slow_total": 5,
      "slow_avail": 4,
      "slow_percent": 80.0,
      "fast_total": 0,
      "fast_avail": 0,
      "fast_percent": 0.0,
      "latest_update": "20260714071407"
    },
    {
      "station_id": "L3110114",
      "name": "롯데백화점잠실점",
      "address": "서울특별시 송파구 올림픽로 240 (잠실동)",
      "lat": "37.5123289",
      "lng": "127.0976166",
      "total_count": 5,
      "available_count": 0,
      "total_percent": 0.0,
      "slow_total": 5,
      "slow_avail": 0,
      "slow_percent": 0.0,
      "fast_total": 0,
      "fast_avail": 0,
      "fast_percent": 0.0,
      "latest_update": "20260324151940"
    },
    {
      "station_id": "LU002705",
      "name": "거여5단지아파트",
      "address": "서울특별시 송파구 양산로4길 16",
      "lat": "37.48921",
      "lng": "127.144964",
      "total_count": 5,
      "available_count": 1,
      "total_percent": 20.0,
      "slow_total": 5,
      "slow_avail": 1,
      "slow_percent": 20.0,
      "fast_total": 0,
      "fast_avail": 0,
      "fast_percent": 0.0,
      "latest_update": "20260714064618"
    },
    {
      "station_id": "LU100203",
      "name": "문정푸르지오",
      "address": "서울특별시 송파구 문정로 55",
      "lat": "37.4867642",
      "lng": "127.12759785",
      "total_count": 5,
      "available_count": 4,
      "total_percent": 80.0,
      "slow_total": 5,
      "slow_avail": 4,
      "slow_percent": 80.0,
      "fast_total": 0,
      "fast_avail": 0,
      "fast_percent": 0.0,
      "latest_update": "20260713214023"
    },
    {
      "station_id": "LU101364",
      "name": "마천우방아파트",
      "address": "서울특별시 송파구 성내천로 211",
      "lat": "37.5000222",
      "lng": "127.1520609",
      "total_count": 5,
      "available_count": 4,
      "total_percent": 80.0,
      "slow_total": 5,
      "slow_avail": 4,
      "slow_percent": 80.0,
      "fast_total": 0,
      "fast_avail": 0,
      "fast_percent": 0.0,
      "latest_update": "20260714062041"
    },
    {
      "station_id": "CGA00050",
      "name": "잠실 파크리오B상가(B3F)",
      "address": "서울특별시 송파구 올림픽로35길 10",
      "lat": "37.5203137",
      "lng": "127.1132652",
      "total_count": 4,
      "available_count": 4,
      "total_percent": 100.0,
      "slow_total": 4,
      "slow_avail": 4,
      "slow_percent": 100.0,
      "fast_total": 0,
      "fast_avail": 0,
      "fast_percent": 0.0,
      "latest_update": "20260713154514"
    },
    {
      "station_id": "CGA00239",
      "name": "송파 잠실장미아파트②_27동~28동",
      "address": "서울특별시 송파구 올림픽로35길 104",
      "lat": "37.5209460",
      "lng": "127.1026260",
      "total_count": 4,
      "available_count": 0,
      "total_percent": 0.0,
      "slow_total": 4,
      "slow_avail": 0,
      "slow_percent": 0.0,
      "fast_total": 0,
      "fast_avail": 0,
      "fast_percent": 0.0,
      "latest_update": "20260714041510"
    },
    {
      "station_id": "CGA00243",
      "name": "송파 잠실장미아파트⑥_20동~21동",
      "address": "서울특별시 송파구 올림픽로35길 104",
      "lat": "37.5188520",
      "lng": "127.1010140",
      "total_count": 4,
      "available_count": 4,
      "total_percent": 100.0,
      "slow_total": 4,
      "slow_avail": 4,
      "slow_percent": 100.0,
      "fast_total": 0,
      "fast_avail": 0,
      "fast_percent": 0.0,
      "latest_update": "20260713173006"
    },
    {
      "station_id": "CGA00245",
      "name": "송파 잠실장미아파트⑧_9동",
      "address": "서울특별시 송파구 올림픽로35길 104",
      "lat": "37.5186460",
      "lng": "127.0979980",
      "total_count": 4,
      "available_count": 2,
      "total_percent": 50.0,
      "slow_total": 4,
      "slow_avail": 2,
      "slow_percent": 50.0,
      "fast_total": 0,
      "fast_avail": 0,
      "fast_percent": 0.0,
      "latest_update": "20260714060014"
    },
    {
      "station_id": "CV000114",
      "name": "롯데캐슬골드(롯데쇼핑)",
      "address": "서울특별시 송파구 올림픽로 269",
      "lat": "37.514285",
      "lng": "127.100909",
      "total_count": 4,
      "available_count": 4,
      "total_percent": 100.0,
      "slow_total": 4,
      "slow_avail": 4,
      "slow_percent": 100.0,
      "fast_total": 0,
      "fast_avail": 0,
      "fast_percent": 0.0,
      "latest_update": "20260713175516"
    },
    {
      "station_id": "CV001643",
      "name": "서울위례솔초등학교",
      "address": "서울특별시 송파구 위례북로2길 12",
      "lat": "37.48664",
      "lng": "127.151052",
      "total_count": 4,
      "available_count": 4,
      "total_percent": 100.0,
      "slow_total": 4,
      "slow_avail": 4,
      "slow_percent": 100.0,
      "fast_total": 0,
      "fast_avail": 0,
      "fast_percent": 0.0,
      "latest_update": "20260713114022"
    },
    {
      "station_id": "CV001644",
      "name": "서울위례솔중학교",
      "address": "서울특별시 송파구 위례북로2길 10",
      "lat": "37.487128",
      "lng": "127.150117",
      "total_count": 4,
      "available_count": 4,
      "total_percent": 100.0,
      "slow_total": 4,
      "slow_avail": 4,
      "slow_percent": 100.0,
      "fast_total": 0,
      "fast_avail": 0,
      "fast_percent": 0.0,
      "latest_update": "20260713101024"
    },
    {
      "station_id": "CV002911",
      "name": "송파파인타운7단지아파트 지상1층",
      "address": "서울특별시 송파구 충민로4길 19",
      "lat": "37.479279",
      "lng": "127.131581",
      "total_count": 4,
      "available_count": 4,
      "total_percent": 100.0,
      "slow_total": 0,
      "slow_avail": 0,
      "slow_percent": 0.0,
      "fast_total": 4,
      "fast_avail": 4,
      "fast_percent": 100.0,
      "latest_update": "20260714055534"
    },
    {
      "station_id": "CV004392",
      "name": "포르쉐 센터 세영모빌리티 송파스튜디오",
      "address": "서울특별시 송파구 송파대로 423 (석촌동, 석촌빌딩)",
      "lat": "37.5043427",
      "lng": "127.1075323",
      "total_count": 4,
      "available_count": 4,
      "total_percent": 100.0,
      "slow_total": 0,
      "slow_avail": 0,
      "slow_percent": 0.0,
      "fast_total": 4,
      "fast_avail": 4,
      "fast_percent": 100.0,
      "latest_update": "20260713120531"
    },
    {
      "station_id": "EC001036",
      "name": "방이동대림가락아파트",
      "address": "서울특별시 송파구 양재대로 1109",
      "lat": "37.5073658",
      "lng": "127.1236618",
      "total_count": 4,
      "available_count": 2,
      "total_percent": 50.0,
      "slow_total": 4,
      "slow_avail": 2,
      "slow_percent": 50.0,
      "fast_total": 0,
      "fast_avail": 0,
      "fast_percent": 0.0,
      "latest_update": "20260714014002"
    },
    {
      "station_id": "EC004161",
      "name": "송파파크데일1단지 103동 B2",
      "address": "서울특별시 송파구 성내천로37길 37",
      "lat": "37.4998737",
      "lng": "127.1591055",
      "total_count": 4,
      "available_count": 1,
      "total_percent": 25.0,
      "slow_total": 4,
      "slow_avail": 1,
      "slow_percent": 25.0,
      "fast_total": 0,
      "fast_avail": 0,
      "fast_percent": 0.0,
      "latest_update": "20260714022601"
    },
    {
      "station_id": "EC110039",
      "name": "한맥기술",
      "address": "서울특별시 송파구 오금로 554",
      "lat": "37.4925564",
      "lng": "127.1503925",
      "total_count": 4,
      "available_count": 4,
      "total_percent": 100.0,
      "slow_total": 4,
      "slow_avail": 4,
      "slow_percent": 100.0,
      "fast_total": 0,
      "fast_avail": 0,
      "fast_percent": 0.0,
      "latest_update": "20260713102802"
    },
    {
      "station_id": "EV004876",
      "name": "서울송파 문정래미안아파트106동",
      "address": "서울특별시 송파구 문정로 83",
      "lat": "37.489474747",
      "lng": "127.13084891",
      "total_count": 4,
      "available_count": 3,
      "total_percent": 75.0,
      "slow_total": 4,
      "slow_avail": 3,
      "slow_percent": 75.0,
      "fast_total": 0,
      "fast_avail": 0,
      "fast_percent": 0.0,
      "latest_update": "20260714063516"
    },
    {
      "station_id": "EV007331",
      "name": "서울송파 가락상아2차아파트",
      "address": "서울특별시 송파구 오금로 407",
      "lat": "37.4986414",
      "lng": "127.1365867",
      "total_count": 4,
      "available_count": 3,
      "total_percent": 75.0,
      "slow_total": 4,
      "slow_avail": 3,
      "slow_percent": 75.0,
      "fast_total": 0,
      "fast_avail": 0,
      "fast_percent": 0.0,
      "latest_update": "20260714002144"
    },
    {
      "station_id": "EV008847",
      "name": "서울송파 문정3차푸르지오아파트",
      "address": "서울특별시 송파구 송이로 257",
      "lat": "37.4874594",
      "lng": "127.1329632",
      "total_count": 4,
      "available_count": 4,
      "total_percent": 100.0,
      "slow_total": 4,
      "slow_avail": 4,
      "slow_percent": 100.0,
      "fast_total": 0,
      "fast_avail": 0,
      "fast_percent": 0.0,
      "latest_update": "20260713231100"
    },
    {
      "station_id": "EV010528",
      "name": "서울송파 송파근린공원 공영주차장",
      "address": "서울특별시 송파구 송파대로42길 29",
      "lat": "37.5063491",
      "lng": "127.1100015",
      "total_count": 4,
      "available_count": 4,
      "total_percent": 100.0,
      "slow_total": 0,
      "slow_avail": 0,
      "slow_percent": 0.0,
      "fast_total": 4,
      "fast_avail": 4,
      "fast_percent": 100.0,
      "latest_update": "20260714025512"
    },
    {
      "station_id": "EV017712",
      "name": "서울송파 방이코오롱아파트 3",
      "address": "서울특별시 송파구 오금로31길 28 (방이동, 코오롱아파트)",
      "lat": "37.5089465",
      "lng": "127.1242908",
      "total_count": 4,
      "available_count": 1,
      "total_percent": 25.0,
      "slow_total": 4,
      "slow_avail": 1,
      "slow_percent": 25.0,
      "fast_total": 0,
      "fast_avail": 0,
      "fast_percent": 0.0,
      "latest_update": "20260714055857"
    },
    {
      "station_id": "EV017713",
      "name": "서울송파 방이코오롱아파트 4",
      "address": "서울특별시 송파구 오금로31길 28 (방이동, 코오롱아파트)",
      "lat": "37.5089465",
      "lng": "127.1242908",
      "total_count": 4,
      "available_count": 2,
      "total_percent": 50.0,
      "slow_total": 4,
      "slow_avail": 2,
      "slow_percent": 50.0,
      "fast_total": 0,
      "fast_avail": 0,
      "fast_percent": 0.0,
      "latest_update": "20260714063315"
    },
    {
      "station_id": "EV018788",
      "name": "서울송파 가든파이브라이프 12",
      "address": "서울특별시 송파구 충민로 66",
      "lat": "37.4776148",
      "lng": "127.1249618",
      "total_count": 4,
      "available_count": 4,
      "total_percent": 100.0,
      "slow_total": 4,
      "slow_avail": 4,
      "slow_percent": 100.0,
      "fast_total": 0,
      "fast_avail": 0,
      "fast_percent": 0.0,
      "latest_update": "20260712185116"
    },
    {
      "station_id": "EZ100002",
      "name": "송파헬리오시티",
      "address": "서울특별시 송파구 송파대로 345",
      "lat": "37.4976183",
      "lng": "127.1072604",
      "total_count": 4,
      "available_count": 0,
      "total_percent": 0.0,
      "slow_total": 4,
      "slow_avail": 0,
      "slow_percent": 0.0,
      "fast_total": 0,
      "fast_avail": 0,
      "fast_percent": 0.0,
      "latest_update": "20260601113310"
    },
    {
      "station_id": "EZ200256",
      "name": "가락동부센트레빌 입주자대표회의",
      "address": "서울특별시 송파구 송파대로32길 33",
      "lat": "37.4980089",
      "lng": "127.1162727",
      "total_count": 4,
      "available_count": 0,
      "total_percent": 0.0,
      "slow_total": 4,
      "slow_avail": 0,
      "slow_percent": 0.0,
      "fast_total": 0,
      "fast_avail": 0,
      "fast_percent": 0.0,
      "latest_update": "20260601113310"
    },
    {
      "station_id": "EZ210034",
      "name": "가락동부센트레빌 입주자대표회의(콘센트)",
      "address": "서울특별시 송파구 송파대로32길 33",
      "lat": "37.4977884",
      "lng": "127.1162715",
      "total_count": 4,
      "available_count": 0,
      "total_percent": 0.0,
      "slow_total": 4,
      "slow_avail": 0,
      "slow_percent": 0.0,
      "fast_total": 0,
      "fast_avail": 0,
      "fast_percent": 0.0,
      "latest_update": "20260601113310"
    },
    {
      "station_id": "GS000009",
      "name": "가든파이브주유소",
      "address": "서울특별시 송파구 탄천동로 740",
      "lat": "37.476086",
      "lng": "127.123543",
      "total_count": 4,
      "available_count": 3,
      "total_percent": 75.0,
      "slow_total": 0,
      "slow_avail": 0,
      "slow_percent": 0.0,
      "fast_total": 4,
      "fast_avail": 3,
      "fast_percent": 75.0,
      "latest_update": "20260714065955"
    },
    {
      "station_id": "HE192181",
      "name": "쌍용프라자",
      "address": "서울특별시 송파구 동남로 189",
      "lat": "37.494626",
      "lng": "127.129830",
      "total_count": 4,
      "available_count": 3,
      "total_percent": 75.0,
      "slow_total": 4,
      "slow_avail": 3,
      "slow_percent": 75.0,
      "fast_total": 0,
      "fast_avail": 0,
      "fast_percent": 0.0,
      "latest_update": "20260714064300"
    },
    {
      "station_id": "HE212794",
      "name": "송파파인타운8단지아파트",
      "address": "서울특별시 송파구 충민로4길 6",
      "lat": "37.479202",
      "lng": "127.128290",
      "total_count": 4,
      "available_count": 3,
      "total_percent": 75.0,
      "slow_total": 4,
      "slow_avail": 3,
      "slow_percent": 75.0,
      "fast_total": 0,
      "fast_avail": 0,
      "fast_percent": 0.0,
      "latest_update": "20260714065300"
    },
    {
      "station_id": "HE240197",
      "name": "잠실역공영주차장",
      "address": "서울특별시 송파구 올림픽로 300",
      "lat": "37.5131012",
      "lng": "127.1034332",
      "total_count": 4,
      "available_count": 4,
      "total_percent": 100.0,
      "slow_total": 3,
      "slow_avail": 3,
      "slow_percent": 100.0,
      "fast_total": 1,
      "fast_avail": 1,
      "fast_percent": 100.0,
      "latest_update": "20260713232800"
    },
    {
      "station_id": "HY001115",
      "name": "송파 레미니스2단지",
      "address": "서울특별시 송파구 동남로 341",
      "lat": "37.5067336",
      "lng": "127.1386886",
      "total_count": 4,
      "available_count": 2,
      "total_percent": 50.0,
      "slow_total": 4,
      "slow_avail": 2,
      "slow_percent": 50.0,
      "fast_total": 0,
      "fast_avail": 0,
      "fast_percent": 0.0,
      "latest_update": "20260713212206"
    },
    {
      "station_id": "JA110010",
      "name": "롯데월드타워 지하 2층",
      "address": "서울특별시 송파구 올림픽로 300",
      "lat": "37.513752",
      "lng": "127.1044469",
      "total_count": 4,
      "available_count": 4,
      "total_percent": 100.0,
      "slow_total": 0,
      "slow_avail": 0,
      "slow_percent": 0.0,
      "fast_total": 4,
      "fast_avail": 4,
      "fast_percent": 100.0,
      "latest_update": "20260713222000"
    },
    {
      "station_id": "KP000690",
      "name": "송파삼성래미안",
      "address": "서울특별시 송파구 송파동 오금로32길 14",
      "lat": "37.5052524778",
      "lng": "127.11780238",
      "total_count": 4,
      "available_count": 3,
      "total_percent": 75.0,
      "slow_total": 3,
      "slow_avail": 3,
      "slow_percent": 100.0,
      "fast_total": 1,
      "fast_avail": 0,
      "fast_percent": 0.0,
      "latest_update": "20260713210021"
    },
    {
      "station_id": "KP001263",
      "name": "거여4단지 아파트",
      "address": "서울특별시 송파구 거여동 양산로4길 8 ",
      "lat": "37.4895863312",
      "lng": "127.1433912604",
      "total_count": 4,
      "available_count": 4,
      "total_percent": 100.0,
      "slow_total": 3,
      "slow_avail": 3,
      "slow_percent": 100.0,
      "fast_total": 1,
      "fast_avail": 1,
      "fast_percent": 100.0,
      "latest_update": "20260714003023"
    },
    {
      "station_id": "KP001264",
      "name": "거여5단지 아파트",
      "address": "서울특별시 송파구 거여동 양산로4길 16 ",
      "lat": "37.4892095924",
      "lng": "127.1449645201",
      "total_count": 4,
      "available_count": 4,
      "total_percent": 100.0,
      "slow_total": 3,
      "slow_avail": 3,
      "slow_percent": 100.0,
      "fast_total": 1,
      "fast_avail": 1,
      "fast_percent": 100.0,
      "latest_update": "20260714011018"
    },
    {
      "station_id": "KP002960",
      "name": "갤러리아팰리스",
      "address": "서울특별시 송파구 잠실동 40",
      "lat": "37.511529",
      "lng": "127.094596",
      "total_count": 4,
      "available_count": 1,
      "total_percent": 25.0,
      "slow_total": 4,
      "slow_avail": 1,
      "slow_percent": 25.0,
      "fast_total": 0,
      "fast_avail": 0,
      "fast_percent": 0.0,
      "latest_update": "20260713204018"
    },
    {
      "station_id": "KP003022",
      "name": "송파더센트레",
      "address": "서울특별시 송파구 장지동 879",
      "lat": "37.47935896489",
      "lng": "127.1401853902",
      "total_count": 4,
      "available_count": 1,
      "total_percent": 25.0,
      "slow_total": 4,
      "slow_avail": 1,
      "slow_percent": 25.0,
      "fast_total": 0,
      "fast_avail": 0,
      "fast_percent": 0.0,
      "latest_update": "20260714053007"
    },
    {
      "station_id": "KP003149",
      "name": "위례스타힐스",
      "address": "서울특별시 송파구 장지동 위례광장로 215",
      "lat": "37.481504",
      "lng": "127.143668",
      "total_count": 4,
      "available_count": 4,
      "total_percent": 100.0,
      "slow_total": 4,
      "slow_avail": 4,
      "slow_percent": 100.0,
      "fast_total": 0,
      "fast_avail": 0,
      "fast_percent": 0.0,
      "latest_update": "20260714065012"
    },
    {
      "station_id": "KP003275",
      "name": "문정래미안아파트",
      "address": "서울특별시 송파구 문정동 문정로 83",
      "lat": "37.490893",
      "lng": "127.130226",
      "total_count": 4,
      "available_count": 4,
      "total_percent": 100.0,
      "slow_total": 4,
      "slow_avail": 4,
      "slow_percent": 100.0,
      "fast_total": 0,
      "fast_avail": 0,
      "fast_percent": 0.0,
      "latest_update": "20260713141015"
    },
    {
      "station_id": "LU000559",
      "name": "송파헤븐시티더테라스",
      "address": "서울특별시 송파구 거여동 605-3 송파헤븐시티 더 테라스",
      "lat": "37.485792",
      "lng": "127.142566",
      "total_count": 4,
      "available_count": 3,
      "total_percent": 75.0,
      "slow_total": 4,
      "slow_avail": 3,
      "slow_percent": 75.0,
      "fast_total": 0,
      "fast_avail": 0,
      "fast_percent": 0.0,
      "latest_update": "20260714071457"
    },
    {
      "station_id": "NT100009",
      "name": "송파 파인타운1단지",
      "address": "서울특별시 송파구 충민로 188",
      "lat": "37.4863182",
      "lng": "127.1341958",
      "total_count": 4,
      "available_count": 4,
      "total_percent": 100.0,
      "slow_total": 4,
      "slow_avail": 4,
      "slow_percent": 100.0,
      "fast_total": 0,
      "fast_avail": 0,
      "fast_percent": 0.0,
      "latest_update": "20260714033350"
    },
    {
      "station_id": "CA000106",
      "name": "잠실엘퍼스트오피스텔",
      "address": "서울특별시 송파구 백제고분로51길 7",
      "lat": "37.515822625",
      "lng": "127.11466980",
      "total_count": 3,
      "available_count": 0,
      "total_percent": 0.0,
      "slow_total": 3,
      "slow_avail": 0,
      "slow_percent": 0.0,
      "fast_total": 0,
      "fast_avail": 0,
      "fast_percent": 0.0,
      "latest_update": "20260324145843"
    },
    {
      "station_id": "CGA00241",
      "name": "송파 잠실장미아파트④_15동",
      "address": "서울특별시 송파구 올림픽로35길 104",
      "lat": "37.5207440",
      "lng": "127.0998780",
      "total_count": 3,
      "available_count": 0,
      "total_percent": 0.0,
      "slow_total": 3,
      "slow_avail": 0,
      "slow_percent": 0.0,
      "fast_total": 0,
      "fast_avail": 0,
      "fast_percent": 0.0,
      "latest_update": "20260713170012"
    },
    {
      "station_id": "CGA00242",
      "name": "송파 잠실장미아파트⑤_12동",
      "address": "서울특별시 송파구 올림픽로35길 104",
      "lat": "37.5191090",
      "lng": "127.1000230",
      "total_count": 3,
      "available_count": 2,
      "total_percent": 66.7,
      "slow_total": 3,
      "slow_avail": 2,
      "slow_percent": 66.7,
      "fast_total": 0,
      "fast_avail": 0,
      "fast_percent": 0.0,
      "latest_update": "20260714064509"
    },
    {
      "station_id": "CGA00244",
      "name": "송파 잠실장미아파트⑦_2동",
      "address": "서울특별시 송파구 올림픽로35길 104",
      "lat": "37.5173590",
      "lng": "127.0981190",
      "total_count": 3,
      "available_count": 1,
      "total_percent": 33.3,
      "slow_total": 3,
      "slow_avail": 1,
      "slow_percent": 33.3,
      "fast_total": 0,
      "fast_avail": 0,
      "fast_percent": 0.0,
      "latest_update": "20260714054511"
    },
    {
      "station_id": "CV000913",
      "name": "위례포레샤인13단지아파트",
      "address": "서울특별시 송파구 위례서이로 25",
      "lat": "37.482792",
      "lng": "127.137587",
      "total_count": 3,
      "available_count": 3,
      "total_percent": 100.0,
      "slow_total": 2,
      "slow_avail": 2,
      "slow_percent": 100.0,
      "fast_total": 1,
      "fast_avail": 1,
      "fast_percent": 100.0,
      "latest_update": "20260714064018"
    },
    {
      "station_id": "CV000940",
      "name": "포레나송파아파트 1713동",
      "address": "서울특별시 송파구 위례송파로 123",
      "lat": "37.485945",
      "lng": "127.148357",
      "total_count": 3,
      "available_count": 3,
      "total_percent": 100.0,
      "slow_total": 2,
      "slow_avail": 2,
      "slow_percent": 100.0,
      "fast_total": 1,
      "fast_avail": 1,
      "fast_percent": 100.0,
      "latest_update": "20260714015019"
    },
    {
      "station_id": "CV000941",
      "name": "송파레이크힐",
      "address": "서울특별시 송파구 위례송파로 89",
      "lat": "37.485766",
      "lng": "127.14421",
      "total_count": 3,
      "available_count": 2,
      "total_percent": 66.7,
      "slow_total": 2,
      "slow_avail": 1,
      "slow_percent": 50.0,
      "fast_total": 1,
      "fast_avail": 1,
      "fast_percent": 100.0,
      "latest_update": "20260714005019"
    },
    {
      "station_id": "CV002006",
      "name": "포레나송파아파트 1708동",
      "address": "서울특별시 송파구 위례송파로 123",
      "lat": "37.4860052",
      "lng": "127.1485027",
      "total_count": 3,
      "available_count": 3,
      "total_percent": 100.0,
      "slow_total": 2,
      "slow_avail": 2,
      "slow_percent": 100.0,
      "fast_total": 1,
      "fast_avail": 1,
      "fast_percent": 100.0,
      "latest_update": "20260714020030"
    },
    {
      "station_id": "CV002007",
      "name": "포레나송파아파트 1714동",
      "address": "서울특별시 송파구 위례송파로 123",
      "lat": "37.4855821",
      "lng": "127.1482418",
      "total_count": 3,
      "available_count": 3,
      "total_percent": 100.0,
      "slow_total": 2,
      "slow_avail": 2,
      "slow_percent": 100.0,
      "fast_total": 1,
      "fast_avail": 1,
      "fast_percent": 100.0,
      "latest_update": "20260714024528"
    },
    {
      "station_id": "EC004163",
      "name": "송파파크데일1단지 104동 B2",
      "address": "서울특별시 송파구 성내천로37길 37",
      "lat": "37.4986755",
      "lng": "127.1590181",
      "total_count": 3,
      "available_count": 2,
      "total_percent": 66.7,
      "slow_total": 3,
      "slow_avail": 2,
      "slow_percent": 66.7,
      "fast_total": 0,
      "fast_avail": 0,
      "fast_percent": 0.0,
      "latest_update": "20260714065403"
    },
    {
      "station_id": "EC004164",
      "name": "송파파크데일1단지 111동 B2",
      "address": "서울특별시 송파구 성내천로37길 37",
      "lat": "37.4986886",
      "lng": "127.1593122",
      "total_count": 3,
      "available_count": 1,
      "total_percent": 33.3,
      "slow_total": 3,
      "slow_avail": 1,
      "slow_percent": 33.3,
      "fast_total": 0,
      "fast_avail": 0,
      "fast_percent": 0.0,
      "latest_update": "20260714070801"
    },
    {
      "station_id": "EC004165",
      "name": "송파파크데일1단지 106동 B2",
      "address": "서울특별시 송파구 성내천로37길 37",
      "lat": "37.4985939",
      "lng": "127.1594251",
      "total_count": 3,
      "available_count": 1,
      "total_percent": 33.3,
      "slow_total": 3,
      "slow_avail": 1,
      "slow_percent": 33.3,
      "fast_total": 0,
      "fast_avail": 0,
      "fast_percent": 0.0,
      "latest_update": "20260714054801"
    },
    {
      "station_id": "EP230086",
      "name": "서울 송례초등학교",
      "address": "서울특별시 송파구 위례순환로 439",
      "lat": "37.477894",
      "lng": "127.1384959",
      "total_count": 3,
      "available_count": 0,
      "total_percent": 0.0,
      "slow_total": 3,
      "slow_avail": 0,
      "slow_percent": 0.0,
      "fast_total": 0,
      "fast_avail": 0,
      "fast_percent": 0.0,
      "latest_update": "20260324150039"
    },
    {
      "station_id": "ER000555",
      "name": "세양청마루아파트",
      "address": "서울 송파구 송이로31길 66",
      "lat": "37.4926832",
      "lng": "127.1369758",
      "total_count": 3,
      "available_count": 3,
      "total_percent": 100.0,
      "slow_total": 3,
      "slow_avail": 3,
      "slow_percent": 100.0,
      "fast_total": 0,
      "fast_avail": 0,
      "fast_percent": 0.0,
      "latest_update": "20260713165822"
    },
    {
      "station_id": "EV000603",
      "name": "풍납미성아파트",
      "address": "서울특별시 송파구 풍성로 14",
      "lat": "37.534481",
      "lng": "127.1140965",
      "total_count": 3,
      "available_count": 0,
      "total_percent": 0.0,
      "slow_total": 3,
      "slow_avail": 0,
      "slow_percent": 0.0,
      "fast_total": 0,
      "fast_avail": 0,
      "fast_percent": 0.0,
      "latest_update": "20260626083310"
    },
    {
      "station_id": "EV001965",
      "name": "힐스테이트송파위례B2",
      "address": "서울특별시 송파구 위례광장로 170",
      "lat": "37.480275",
      "lng": "127.1428511",
      "total_count": 3,
      "available_count": 3,
      "total_percent": 100.0,
      "slow_total": 3,
      "slow_avail": 3,
      "slow_percent": 100.0,
      "fast_total": 0,
      "fast_avail": 0,
      "fast_percent": 0.0,
      "latest_update": "20260712045840"
    },
    {
      "station_id": "EV001966",
      "name": "힐스테이트송파위례B3",
      "address": "서울특별시 송파구 위례광장로 170",
      "lat": "37.480144",
      "lng": "127.1428282",
      "total_count": 3,
      "available_count": 3,
      "total_percent": 100.0,
      "slow_total": 3,
      "slow_avail": 3,
      "slow_percent": 100.0,
      "fast_total": 0,
      "fast_avail": 0,
      "fast_percent": 0.0,
      "latest_update": "20260711175944"
    },
    {
      "station_id": "EV002136",
      "name": "서울송파 위례중앙푸르지오1단지2",
      "address": "서울특별시 송파구 위례광장로 120",
      "lat": "37.4746045",
      "lng": "127.141772",
      "total_count": 3,
      "available_count": 0,
      "total_percent": 0.0,
      "slow_total": 3,
      "slow_avail": 0,
      "slow_percent": 0.0,
      "fast_total": 0,
      "fast_avail": 0,
      "fast_percent": 0.0,
      "latest_update": "20260714012620"
    },
    {
      "station_id": "EV002491",
      "name": "서울송파 송파푸르지오시티B4",
      "address": "서울특별시 송파구 새말로 62",
      "lat": "37.4807632",
      "lng": "127.1212461",
      "total_count": 3,
      "available_count": 3,
      "total_percent": 100.0,
      "slow_total": 3,
      "slow_avail": 3,
      "slow_percent": 100.0,
      "fast_total": 0,
      "fast_avail": 0,
      "fast_percent": 0.0,
      "latest_update": "20260714023058"
    },
    {
      "station_id": "EV004033",
      "name": "힐스테이트송파위례",
      "address": "서울특별시 송파구 위례광장로 170",
      "lat": "37.479896",
      "lng": "127.1423248",
      "total_count": 3,
      "available_count": 2,
      "total_percent": 66.7,
      "slow_total": 3,
      "slow_avail": 2,
      "slow_percent": 66.7,
      "fast_total": 0,
      "fast_avail": 0,
      "fast_percent": 0.0,
      "latest_update": "20260713221426"
    },
    {
      "station_id": "EV004851",
      "name": "서울송파 송파꿈에그린아파트2401동",
      "address": "서울특별시 송파구 위례광장로 121",
      "lat": "37.476865",
      "lng": "127.1382163",
      "total_count": 3,
      "available_count": 0,
      "total_percent": 0.0,
      "slow_total": 3,
      "slow_avail": 0,
      "slow_percent": 0.0,
      "fast_total": 0,
      "fast_avail": 0,
      "fast_percent": 0.0,
      "latest_update": "20260714063114"
    },
    {
      "station_id": "EV004874",
      "name": "서울송파 문정래미안아파트122동",
      "address": "서울특별시 송파구 문정로 83",
      "lat": "37.491403647",
      "lng": "127.13017382",
      "total_count": 3,
      "available_count": 3,
      "total_percent": 100.0,
      "slow_total": 3,
      "slow_avail": 3,
      "slow_percent": 100.0,
      "fast_total": 0,
      "fast_avail": 0,
      "fast_percent": 0.0,
      "latest_update": "20260713073506"
    },
    {
      "station_id": "EV004875",
      "name": "서울송파 문정래미안아파트101동",
      "address": "서울특별시 송파구 문정로 83",
      "lat": "37.491176830",
      "lng": "127.13158688",
      "total_count": 3,
      "available_count": 2,
      "total_percent": 66.7,
      "slow_total": 3,
      "slow_avail": 2,
      "slow_percent": 66.7,
      "fast_total": 0,
      "fast_avail": 0,
      "fast_percent": 0.0,
      "latest_update": "20260713193404"
    },
    {
      "station_id": "EV005690",
      "name": "서울송파 신동아로쟌뷰",
      "address": "서울특별시 송파구 석촌호수로 188",
      "lat": "37.50623",
      "lng": "127.0980153",
      "total_count": 3,
      "available_count": 3,
      "total_percent": 100.0,
      "slow_total": 3,
      "slow_avail": 3,
      "slow_percent": 100.0,
      "fast_total": 0,
      "fast_avail": 0,
      "fast_percent": 0.0,
      "latest_update": "20260713173314"
    },
    {
      "station_id": "EV007030",
      "name": "서울송파 거여4단지아파트",
      "address": "서울특별시 송파구 양산로4길 8",
      "lat": "37.489563",
      "lng": "127.1432578",
      "total_count": 3,
      "available_count": 1,
      "total_percent": 33.3,
      "slow_total": 3,
      "slow_avail": 1,
      "slow_percent": 33.3,
      "fast_total": 0,
      "fast_avail": 0,
      "fast_percent": 0.0,
      "latest_update": "20260714063315"
    },
    {
      "station_id": "EV007522",
      "name": "서울송파 한양2차아파트",
      "address": "서울특별시 송파구 가락로 192",
      "lat": "37.5047253",
      "lng": "127.1159469",
      "total_count": 3,
      "available_count": 1,
      "total_percent": 33.3,
      "slow_total": 3,
      "slow_avail": 1,
      "slow_percent": 33.3,
      "fast_total": 0,
      "fast_avail": 0,
      "fast_percent": 0.0,
      "latest_update": "20260714063315"
    },
    {
      "station_id": "EV008987",
      "name": "서울송파 한성백제박물관(완속)",
      "address": "서울특별시 송파구 위례성대로 71",
      "lat": "37.5155051",
      "lng": "127.1199196",
      "total_count": 3,
      "available_count": 3,
      "total_percent": 100.0,
      "slow_total": 3,
      "slow_avail": 3,
      "slow_percent": 100.0,
      "fast_total": 0,
      "fast_avail": 0,
      "fast_percent": 0.0,
      "latest_update": "20260713172507"
    },
    {
      "station_id": "EV010731",
      "name": "서울송파 풍납한강극동아파트1",
      "address": "서울특별시 송파구 토성로 38-6",
      "lat": "37.5294608",
      "lng": "127.1140542",
      "total_count": 3,
      "available_count": 2,
      "total_percent": 66.7,
      "slow_total": 3,
      "slow_avail": 2,
      "slow_percent": 66.7,
      "fast_total": 0,
      "fast_avail": 0,
      "fast_percent": 0.0,
      "latest_update": "20260713195454"
    },
    {
      "station_id": "EV010732",
      "name": "서울송파 풍납한강극동아파트2",
      "address": "서울특별시 송파구 토성로 38-6",
      "lat": "37.529308388",
      "lng": "127.11316211",
      "total_count": 3,
      "available_count": 1,
      "total_percent": 33.3,
      "slow_total": 3,
      "slow_avail": 1,
      "slow_percent": 33.3,
      "fast_total": 0,
      "fast_avail": 0,
      "fast_percent": 0.0,
      "latest_update": "20260714042205"
    },
    {
      "station_id": "EV010733",
      "name": "서울송파 풍납한강극동아파트3",
      "address": "서울특별시 송파구 토성로 38-6",
      "lat": "37.530038399",
      "lng": "127.11295392",
      "total_count": 3,
      "available_count": 0,
      "total_percent": 0.0,
      "slow_total": 3,
      "slow_avail": 0,
      "slow_percent": 0.0,
      "fast_total": 0,
      "fast_avail": 0,
      "fast_percent": 0.0,
      "latest_update": "20260713232105"
    },
    {
      "station_id": "EV011742",
      "name": "서울송파 래미안파크팰리스 1",
      "address": "서울특별시 송파구 동남로 225",
      "lat": "37.497222275",
      "lng": "127.13186323",
      "total_count": 3,
      "available_count": 3,
      "total_percent": 100.0,
      "slow_total": 3,
      "slow_avail": 3,
      "slow_percent": 100.0,
      "fast_total": 0,
      "fast_avail": 0,
      "fast_percent": 0.0,
      "latest_update": "20260713083745"
    },
    {
      "station_id": "EV011743",
      "name": "서울송파 래미안파크팰리스 2",
      "address": "서울특별시 송파구 동남로 225",
      "lat": "37.497614716",
      "lng": "127.13141158",
      "total_count": 3,
      "available_count": 2,
      "total_percent": 66.7,
      "slow_total": 3,
      "slow_avail": 2,
      "slow_percent": 66.7,
      "fast_total": 0,
      "fast_avail": 0,
      "fast_percent": 0.0,
      "latest_update": "20260714004953"
    },
    {
      "station_id": "EV011744",
      "name": "서울송파 래미안파크팰리스 3",
      "address": "서울특별시 송파구 동남로 225",
      "lat": "37.498059981",
      "lng": "127.13206826",
      "total_count": 3,
      "available_count": 1,
      "total_percent": 33.3,
      "slow_total": 3,
      "slow_avail": 1,
      "slow_percent": 33.3,
      "fast_total": 0,
      "fast_avail": 0,
      "fast_percent": 0.0,
      "latest_update": "20260714061706"
    },
    {
      "station_id": "EV011745",
      "name": "서울송파 래미안파크팰리스 4",
      "address": "서울특별시 송파구 동남로 225",
      "lat": "37.498617735",
      "lng": "127.13284389",
      "total_count": 3,
      "available_count": 2,
      "total_percent": 66.7,
      "slow_total": 3,
      "slow_avail": 2,
      "slow_percent": 66.7,
      "fast_total": 0,
      "fast_avail": 0,
      "fast_percent": 0.0,
      "latest_update": "20260714071137"
    },
    {
      "station_id": "EV011746",
      "name": "서울송파 래미안파크팰리스 5",
      "address": "서울특별시 송파구 동남로 225",
      "lat": "37.498004734",
      "lng": "127.13086820",
      "total_count": 3,
      "available_count": 1,
      "total_percent": 33.3,
      "slow_total": 3,
      "slow_avail": 1,
      "slow_percent": 33.3,
      "fast_total": 0,
      "fast_avail": 0,
      "fast_percent": 0.0,
      "latest_update": "20260714053641"
    },
    {
      "station_id": "EV011747",
      "name": "서울송파 래미안파크팰리스 6",
      "address": "서울특별시 송파구 동남로 225",
      "lat": "37.498511095",
      "lng": "127.13152058",
      "total_count": 3,
      "available_count": 2,
      "total_percent": 66.7,
      "slow_total": 3,
      "slow_avail": 2,
      "slow_percent": 66.7,
      "fast_total": 0,
      "fast_avail": 0,
      "fast_percent": 0.0,
      "latest_update": "20260714070731"
    },
    {
      "station_id": "EV011748",
      "name": "서울송파 래미안파크팰리스 7",
      "address": "서울특별시 송파구 동남로 225",
      "lat": "37.498987883",
      "lng": "127.13218864",
      "total_count": 3,
      "available_count": 0,
      "total_percent": 0.0,
      "slow_total": 3,
      "slow_avail": 0,
      "slow_percent": 0.0,
      "fast_total": 0,
      "fast_avail": 0,
      "fast_percent": 0.0,
      "latest_update": "20260713191425"
    },
    {
      "station_id": "EV012784",
      "name": "서울송파 올림픽훼밀리타운 1",
      "address": "서울특별시 송파구 중대로 24",
      "lat": "37.4881257",
      "lng": "127.1110591",
      "total_count": 3,
      "available_count": 1,
      "total_percent": 33.3,
      "slow_total": 3,
      "slow_avail": 1,
      "slow_percent": 33.3,
      "fast_total": 0,
      "fast_avail": 0,
      "fast_percent": 0.0,
      "latest_update": "20260713210340"
    },
    {
      "station_id": "EV012785",
      "name": "서울송파 올림픽훼밀리타운 2",
      "address": "서울특별시 송파구 중대로 24",
      "lat": "37.4881257",
      "lng": "127.1110591",
      "total_count": 3,
      "available_count": 2,
      "total_percent": 66.7,
      "slow_total": 3,
      "slow_avail": 2,
      "slow_percent": 66.7,
      "fast_total": 0,
      "fast_avail": 0,
      "fast_percent": 0.0,
      "latest_update": "20260714071137"
    },
    {
      "station_id": "EV012786",
      "name": "서울송파 올림픽훼밀리타운 3",
      "address": "서울특별시 송파구 중대로 24",
      "lat": "37.4881257",
      "lng": "127.1110591",
      "total_count": 3,
      "available_count": 2,
      "total_percent": 66.7,
      "slow_total": 3,
      "slow_avail": 2,
      "slow_percent": 66.7,
      "fast_total": 0,
      "fast_avail": 0,
      "fast_percent": 0.0,
      "latest_update": "20260714030519"
    },
    {
      "station_id": "EV012788",
      "name": "서울송파 올림픽훼밀리타운 5",
      "address": "서울특별시 송파구 중대로 24",
      "lat": "37.4881257",
      "lng": "127.1110591",
      "total_count": 3,
      "available_count": 1,
      "total_percent": 33.3,
      "slow_total": 3,
      "slow_avail": 1,
      "slow_percent": 33.3,
      "fast_total": 0,
      "fast_avail": 0,
      "fast_percent": 0.0,
      "latest_update": "20260714063516"
    },
    {
      "station_id": "EV012789",
      "name": "서울송파 올림픽훼밀리타운 6",
      "address": "서울특별시 송파구 중대로 24",
      "lat": "37.4881257",
      "lng": "127.1110591",
      "total_count": 3,
      "available_count": 3,
      "total_percent": 100.0,
      "slow_total": 3,
      "slow_avail": 3,
      "slow_percent": 100.0,
      "fast_total": 0,
      "fast_avail": 0,
      "fast_percent": 0.0,
      "latest_update": "20260714070733"
    },
    {
      "station_id": "EV012790",
      "name": "서울송파 올림픽훼밀리타운 7",
      "address": "서울특별시 송파구 중대로 24",
      "lat": "37.4881257",
      "lng": "127.1110591",
      "total_count": 3,
      "available_count": 3,
      "total_percent": 100.0,
      "slow_total": 3,
      "slow_avail": 3,
      "slow_percent": 100.0,
      "fast_total": 0,
      "fast_avail": 0,
      "fast_percent": 0.0,
      "latest_update": "20260713231502"
    },
    {
      "station_id": "EV012791",
      "name": "서울송파 올림픽훼밀리타운 8",
      "address": "서울특별시 송파구 중대로 24",
      "lat": "37.4881257",
      "lng": "127.1110591",
      "total_count": 3,
      "available_count": 3,
      "total_percent": 100.0,
      "slow_total": 3,
      "slow_avail": 3,
      "slow_percent": 100.0,
      "fast_total": 0,
      "fast_avail": 0,
      "fast_percent": 0.0,
      "latest_update": "20260714064521"
    },
    {
      "station_id": "EV012792",
      "name": "서울송파 올림픽훼밀리타운 9",
      "address": "서울특별시 송파구 중대로 24",
      "lat": "37.4881257",
      "lng": "127.1110591",
      "total_count": 3,
      "available_count": 3,
      "total_percent": 100.0,
      "slow_total": 3,
      "slow_avail": 3,
      "slow_percent": 100.0,
      "fast_total": 0,
      "fast_avail": 0,
      "fast_percent": 0.0,
      "latest_update": "20260713065441"
    },
    {
      "station_id": "EV012793",
      "name": "서울송파 올림픽훼밀리타운 10",
      "address": "서울특별시 송파구 중대로 24",
      "lat": "37.4881257",
      "lng": "127.1110591",
      "total_count": 3,
      "available_count": 2,
      "total_percent": 66.7,
      "slow_total": 3,
      "slow_avail": 2,
      "slow_percent": 66.7,
      "fast_total": 0,
      "fast_avail": 0,
      "fast_percent": 0.0,
      "latest_update": "20260712162940"
    },
    {
      "station_id": "EV012794",
      "name": "서울송파 올림픽훼밀리타운 11",
      "address": "서울특별시 송파구 중대로 24",
      "lat": "37.4881257",
      "lng": "127.1110591",
      "total_count": 3,
      "available_count": 3,
      "total_percent": 100.0,
      "slow_total": 3,
      "slow_avail": 3,
      "slow_percent": 100.0,
      "fast_total": 0,
      "fast_avail": 0,
      "fast_percent": 0.0,
      "latest_update": "20260714062510"
    },
    {
      "station_id": "EV012795",
      "name": "서울송파 올림픽훼밀리타운 12",
      "address": "서울특별시 송파구 중대로 24",
      "lat": "37.4881257",
      "lng": "127.1110591",
      "total_count": 3,
      "available_count": 3,
      "total_percent": 100.0,
      "slow_total": 3,
      "slow_avail": 3,
      "slow_percent": 100.0,
      "fast_total": 0,
      "fast_avail": 0,
      "fast_percent": 0.0,
      "latest_update": "20260713123005"
    },
    {
      "station_id": "EV012797",
      "name": "서울송파 올림픽훼밀리타운 14",
      "address": "서울특별시 송파구 중대로 24",
      "lat": "37.4881257",
      "lng": "127.1110591",
      "total_count": 3,
      "available_count": 1,
      "total_percent": 33.3,
      "slow_total": 3,
      "slow_avail": 1,
      "slow_percent": 33.3,
      "fast_total": 0,
      "fast_avail": 0,
      "fast_percent": 0.0,
      "latest_update": "20260714014431"
    },
    {
      "station_id": "EV012798",
      "name": "서울송파 올림픽훼밀리타운 15",
      "address": "서울특별시 송파구 중대로 24",
      "lat": "37.4881257",
      "lng": "127.1110591",
      "total_count": 3,
      "available_count": 2,
      "total_percent": 66.7,
      "slow_total": 3,
      "slow_avail": 2,
      "slow_percent": 66.7,
      "fast_total": 0,
      "fast_avail": 0,
      "fast_percent": 0.0,
      "latest_update": "20260713220419"
    },
    {
      "station_id": "EV012799",
      "name": "서울송파 올림픽훼밀리타운 16",
      "address": "서울특별시 송파구 중대로 24",
      "lat": "37.4881257",
      "lng": "127.1110591",
      "total_count": 3,
      "available_count": 2,
      "total_percent": 66.7,
      "slow_total": 3,
      "slow_avail": 2,
      "slow_percent": 66.7,
      "fast_total": 0,
      "fast_avail": 0,
      "fast_percent": 0.0,
      "latest_update": "20260713185813"
    },
    {
      "station_id": "EV012800",
      "name": "서울송파 올림픽훼밀리타운 17",
      "address": "서울특별시 송파구 중대로 24",
      "lat": "37.4881257",
      "lng": "127.1110591",
      "total_count": 3,
      "available_count": 2,
      "total_percent": 66.7,
      "slow_total": 3,
      "slow_avail": 2,
      "slow_percent": 66.7,
      "fast_total": 0,
      "fast_avail": 0,
      "fast_percent": 0.0,
      "latest_update": "20260713214608"
    },
    {
      "station_id": "EV012802",
      "name": "서울송파 올림픽훼밀리타운 19",
      "address": "서울특별시 송파구 중대로 24",
      "lat": "37.4881257",
      "lng": "127.1110591",
      "total_count": 3,
      "available_count": 2,
      "total_percent": 66.7,
      "slow_total": 3,
      "slow_avail": 2,
      "slow_percent": 66.7,
      "fast_total": 0,
      "fast_avail": 0,
      "fast_percent": 0.0,
      "latest_update": "20260714002745"
    },
    {
      "station_id": "EV012803",
      "name": "서울송파 올림픽훼밀리타운 20",
      "address": "서울특별시 송파구 중대로 24",
      "lat": "37.4881257",
      "lng": "127.1110591",
      "total_count": 3,
      "available_count": 1,
      "total_percent": 33.3,
      "slow_total": 3,
      "slow_avail": 1,
      "slow_percent": 33.3,
      "fast_total": 0,
      "fast_avail": 0,
      "fast_percent": 0.0,
      "latest_update": "20260714002946"
    },
    {
      "station_id": "EV012804",
      "name": "서울송파 올림픽훼밀리타운 21",
      "address": "서울특별시 송파구 중대로 24",
      "lat": "37.4881257",
      "lng": "127.1110591",
      "total_count": 3,
      "available_count": 3,
      "total_percent": 100.0,
      "slow_total": 3,
      "slow_avail": 3,
      "slow_percent": 100.0,
      "fast_total": 0,
      "fast_avail": 0,
      "fast_percent": 0.0,
      "latest_update": "20260713212756"
    },
    {
      "station_id": "EV012805",
      "name": "서울송파 올림픽훼밀리타운 22",
      "address": "서울특별시 송파구 중대로 24",
      "lat": "37.4881257",
      "lng": "127.1110591",
      "total_count": 3,
      "available_count": 1,
      "total_percent": 33.3,
      "slow_total": 3,
      "slow_avail": 1,
      "slow_percent": 33.3,
      "fast_total": 0,
      "fast_avail": 0,
      "fast_percent": 0.0,
      "latest_update": "20260713214608"
    },