{
  "district": "송파구",
  "zscode": "11710",
  "summary": {
    "total_count": 4000,
    "available_count": 3031,
    "total_percent": 75.8,
    "slow_total": 3725,
    "slow_avail": 2825,
    "slow_percent": 75.8,
    "fast_total": 275,
    "fast_avail": 206,
    "fast_percent": 74.9,
    "station_count": 621
  },
  "stations": [
    {
      "station_id": "LU002297",
      "name": "송파하비오푸르지오오피스텔",
      "address": "서울특별시 송파구 송파대로 111",
      "lat": "37.479687",
      "lng": "127.12498",
      "total_count": 75,
      "available_count": 59,
      "total_percent": 78.7,
      "slow_total": 75,
      "slow_avail": 59,
      "slow_percent": 78.7,
      "fast_total": 0,
      "fast_avail": 0,
      "fast_percent": 0.0,
      "latest_update": "20260714095705"
    },
    {
      "station_id": "PL031461",
      "name": "서울 파크하비오푸르지오아파트",
      "address": "서울 송파구 송파대로 111",
      "lat": "37.4796871",
      "lng": "127.1249798",
      "total_count": 71,
      "available_count": 63,
      "total_percent": 88.7,
      "slow_total": 69,
      "slow_avail": 61,
      "slow_percent": 88.4,
      "fast_total": 2,
      "fast_avail": 2,
      "fast_percent": 100.0,
      "latest_update": "20260714102507"
    },
    {
      "station_id": "NT102766",
      "name": "잠실 리센츠아파트2",
      "address": "서울특별시 송파구 올림픽로 135",
      "lat": "37.51673",
      "lng": "127.08988",
      "total_count": 70,
      "available_count": 57,
      "total_percent": 81.4,
      "slow_total": 70,
      "slow_avail": 57,
      "slow_percent": 81.4,
      "fast_total": 0,
      "fast_avail": 0,
      "fast_percent": 0.0,
      "latest_update": "20260714101550"
    },
    {
      "station_id": "PL032580",
      "name": "힐스테이트e편한세상문정",
      "address": "서울 송파구 송이로31길 20",
      "lat": "37.4899817",
      "lng": "127.1343011",
      "total_count": 70,
      "available_count": 70,
      "total_percent": 100.0,
      "slow_total": 70,
      "slow_avail": 70,
      "slow_percent": 100.0,
      "fast_total": 0,
      "fast_avail": 0,
      "fast_percent": 0.0,
      "latest_update": "20260628123224"
    },
    {
      "station_id": "NT102765",
      "name": "잠실 리센츠아파트1",
      "address": "서울특별시 송파구 올림픽로 135",
      "lat": "37.51673",
      "lng": "127.08988",
      "total_count": 67,
      "available_count": 59,
      "total_percent": 88.1,
      "slow_total": 67,
      "slow_avail": 59,
      "slow_percent": 88.1,
      "fast_total": 0,
      "fast_avail": 0,
      "fast_percent": 0.0,
      "latest_update": "20260714100950"
    },
    {
      "station_id": "PC000664",
      "name": "문정엠스테이트(송파)",
      "address": "서울특별시 송파구 법원로 114",
      "lat": "37.48605527",
      "lng": "127.12100938",
      "total_count": 53,
      "available_count": 42,
      "total_percent": 79.2,
      "slow_total": 51,
      "slow_avail": 40,
      "slow_percent": 78.4,
      "fast_total": 2,
      "fast_avail": 2,
      "fast_percent": 100.0,
      "latest_update": "20260714094520"
    },
    {
      "station_id": "LU101707",
      "name": "잠실엘스(132동170동)",
      "address": "서울특별시 송파구 올림픽로 99",
      "lat": "37.5151253",
      "lng": "127.07813",
      "total_count": 52,
      "available_count": 39,
      "total_percent": 75.0,
      "slow_total": 52,
      "slow_avail": 39,
      "slow_percent": 75.0,
      "fast_total": 0,
      "fast_avail": 0,
      "fast_percent": 0.0,
      "latest_update": "20260714094746"
    },
    {
      "station_id": "PC000705",
      "name": "송파레이크파크호반써밋1",
      "address": "서울특별시 송파구 위례송파로 40",
      "lat": "37.4849724",
      "lng": "127.1377617",
      "total_count": 52,
      "available_count": 51,
      "total_percent": 98.1,
      "slow_total": 50,
      "slow_avail": 49,
      "slow_percent": 98.0,
      "fast_total": 2,
      "fast_avail": 2,
      "fast_percent": 100.0,
      "latest_update": "20260714101138"
    },
    {
      "station_id": "PI713370",
      "name": "문정래미안아파트",
      "address": "서울특별시 송파구 문정로 83",
      "lat": "37.4892043",
      "lng": "127.130232",
      "total_count": 52,
      "available_count": 46,
      "total_percent": 88.5,
      "slow_total": 52,
      "slow_avail": 46,
      "slow_percent": 88.5,
      "fast_total": 0,
      "fast_avail": 0,
      "fast_percent": 0.0,
      "latest_update": "20260714100041"
    },
    {
      "station_id": "PI001443",
      "name": "위례스타힐스아파트",
      "address": "서울특별시 송파구 위례광장로 215",
      "lat": "37.4816597",
      "lng": "127.144857",
      "total_count": 50,
      "available_count": 38,
      "total_percent": 76.0,
      "slow_total": 50,
      "slow_avail": 38,
      "slow_percent": 76.0,
      "fast_total": 0,
      "fast_avail": 0,
      "fast_percent": 0.0,
      "latest_update": "20260714102408"
    },
    {
      "station_id": "LU101706",
      "name": "잠실엘스(101동111동)",
      "address": "서울특별시 송파구 올림픽로 99",
      "lat": "37.5151253",
      "lng": "127.07813",
      "total_count": 48,
      "available_count": 31,
      "total_percent": 64.6,
      "slow_total": 48,
      "slow_avail": 31,
      "slow_percent": 64.6,
      "fast_total": 0,
      "fast_avail": 0,
      "fast_percent": 0.0,
      "latest_update": "20260714101909"
    },
    {
      "station_id": "PI204119",
      "name": "서울시 송파구 롯데타워지하4층",
      "address": "서울특별시 송파구 올림픽로 300",
      "lat": "37.512620263",
      "lng": "127.10253581",
      "total_count": 46,
      "available_count": 29,
      "total_percent": 63.0,
      "slow_total": 46,
      "slow_avail": 29,
      "slow_percent": 63.0,
      "fast_total": 0,
      "fast_avail": 0,
      "fast_percent": 0.0,
      "latest_update": "20260714101145"
    },
    {
      "station_id": "PL004573",
      "name": "위례포레샤인23단지",
      "address": "서울특별시 송파구 위례순환로 477",
      "lat": "37.47511",
      "lng": "127.136558",
      "total_count": 41,
      "available_count": 35,
      "total_percent": 85.4,
      "slow_total": 41,
      "slow_avail": 35,
      "slow_percent": 85.4,
      "fast_total": 0,
      "fast_avail": 0,
      "fast_percent": 0.0,
      "latest_update": "20260714101612"
    },
    {
      "station_id": "HU200017",
      "name": "송파레이크파크호반써밋 l l",
      "address": "서울특별시 송파구 위례송파로 80",
      "lat": "37.484990719",
      "lng": "127.14264472",
      "total_count": 40,
      "available_count": 0,
      "total_percent": 0.0,
      "slow_total": 40,
      "slow_avail": 0,
      "slow_percent": 0.0,
      "fast_total": 0,
      "fast_avail": 0,
      "fast_percent": 0.0,
      "latest_update": "20260625110003"
    },
    {
      "station_id": "LU101573",
      "name": "레이크팰리스",
      "address": "서울특별시 송파구 잠실로 88",
      "lat": "37.5075342",
      "lng": "127.0932143",
      "total_count": 40,
      "available_count": 30,
      "total_percent": 75.0,
      "slow_total": 40,
      "slow_avail": 30,
      "slow_percent": 75.0,
      "fast_total": 0,
      "fast_avail": 0,
      "fast_percent": 0.0,
      "latest_update": "20260714100737"
    },
    {
      "station_id": "NT100373",
      "name": "송파 가든파이브툴",
      "address": "서울특별시 송파구 충민로 10",
      "lat": "37.4786173",
      "lng": "127.1191067",
      "total_count": 40,
      "available_count": 21,
      "total_percent": 52.5,
      "slow_total": 38,
      "slow_avail": 20,
      "slow_percent": 52.6,
      "fast_total": 2,
      "fast_avail": 1,
      "fast_percent": 50.0,
      "latest_update": "20260714095650"
    },
    {
      "station_id": "PI001492",
      "name": "송파더센트레아파트",
      "address": "서울특별시 송파구 위례광장로 163",
      "lat": "37.479621",
      "lng": "127.139302",
      "total_count": 40,
      "available_count": 31,
      "total_percent": 77.5,
      "slow_total": 40,
      "slow_avail": 31,
      "slow_percent": 77.5,
      "fast_total": 0,
      "fast_avail": 0,
      "fast_percent": 0.0,
      "latest_update": "20260714102408"
    },
    {
      "station_id": "PW801466",
      "name": "송파레이크파크 호반써밋2아파트 입주자대표회의(T)",
      "address": "서울특별시 송파구 위례송파로 80",
      "lat": "37.484941615",
      "lng": "127.14191805",
      "total_count": 36,
      "available_count": 36,
      "total_percent": 100.0,
      "slow_total": 36,
      "slow_avail": 36,
      "slow_percent": 100.0,
      "fast_total": 0,
      "fast_avail": 0,
      "fast_percent": 0.0,
      "latest_update": "20260714095341"
    },
    {
      "station_id": "HY001231",
      "name": "송파 레이크팰리스",
      "address": "서울특별시 송파구 잠실로 88",
      "lat": "37.50809",
      "lng": "127.093422",
      "total_count": 35,
      "available_count": 28,
      "total_percent": 80.0,
      "slow_total": 35,
      "slow_avail": 28,
      "slow_percent": 80.0,
      "fast_total": 0,
      "fast_avail": 0,
      "fast_percent": 0.0,
      "latest_update": "20260714091302"
    },
    {
      "station_id": "PI204092",
      "name": "서울시 송파구 올림픽공원남4문주차장",
      "address": "서울특별시 송파구 올림픽로 424",
      "lat": "37.517042894",
      "lng": "127.11610438",
      "total_count": 33,
      "available_count": 25,
      "total_percent": 75.8,
      "slow_total": 23,
      "slow_avail": 16,
      "slow_percent": 69.6,
      "fast_total": 10,
      "fast_avail": 9,
      "fast_percent": 90.0,
      "latest_update": "20260714101143"
    },
    {
      "station_id": "JA110075",
      "name": "롯데월드 어드벤처(마트구역) 서울 ",
      "address": "서울특별시 송파구 올림픽로 240",
      "lat": "37.5115734",
      "lng": "127.0964718",
      "total_count": 31,
      "available_count": 30,
      "total_percent": 96.8,
      "slow_total": 23,
      "slow_avail": 22,
      "slow_percent": 95.7,
      "fast_total": 8,
      "fast_avail": 8,
      "fast_percent": 100.0,
      "latest_update": "20260714100009"
    },
    {
      "station_id": "NT102058",
      "name": "잠실 올림픽공원아이파크",
      "address": "서울특별시 송파구 올림픽로43길 34",
      "lat": "37.52491",
      "lng": "127.11444",
      "total_count": 29,
      "available_count": 24,
      "total_percent": 82.8,
      "slow_total": 29,
      "slow_avail": 24,
      "slow_percent": 82.8,
      "fast_total": 0,
      "fast_avail": 0,
      "fast_percent": 0.0,
      "latest_update": "20260714102250"
    },
    {
      "station_id": "JA110177",
      "name": "시그니엘 레지던스",
      "address": "서울특별시 송파구 올림픽로 300",
      "lat": "37.513713",
      "lng": "127.1043018",
      "total_count": 28,
      "available_count": 21,
      "total_percent": 75.0,
      "slow_total": 26,
      "slow_avail": 19,
      "slow_percent": 73.1,
      "fast_total": 2,
      "fast_avail": 2,
      "fast_percent": 100.0,
      "latest_update": "20260714094015"
    },
    {
      "station_id": "PI200982",
      "name": "서울시 송파구 케이티송파타워",
      "address": "서울특별시 송파구 잠실로 209",
      "lat": "37.5138711",
      "lng": "127.1063644",
      "total_count": 28,
      "available_count": 16,
      "total_percent": 57.1,
      "slow_total": 20,
      "slow_avail": 12,
      "slow_percent": 60.0,
      "fast_total": 8,
      "fast_avail": 4,
      "fast_percent": 50.0,
      "latest_update": "20260714092125"
    },
    {
      "station_id": "PC000468",
      "name": "송파레미니스2단지아파트",
      "address": "서울특별시 송파구 동남로 341",
      "lat": "37.5065920",
      "lng": "127.1379390",
      "total_count": 27,
      "available_count": 27,
      "total_percent": 100.0,
      "slow_total": 25,
      "slow_avail": 25,
      "slow_percent": 100.0,
      "fast_total": 2,
      "fast_avail": 2,
      "fast_percent": 100.0,
      "latest_update": "20260714061500"
    },
    {
      "station_id": "PI306224",
      "name": "서울시 송파구 문정역테라타워",
      "address": "서울특별시 송파구 송파대로 167",
      "lat": "37.484815",
      "lng": "127.121505",
      "total_count": 27,
      "available_count": 16,
      "total_percent": 59.3,
      "slow_total": 27,
      "slow_avail": 16,
      "slow_percent": 59.3,
      "fast_total": 0,
      "fast_avail": 0,
      "fast_percent": 0.0,
      "latest_update": "20260714102619"
    },
    {
      "station_id": "PI713007",
      "name": "이편한세상송파파크센트럴",
      "address": "서울특별시 송파구 오금로 551",
      "lat": "37.4931824",
      "lng": "127.1503678",
      "total_count": 26,
      "available_count": 25,
      "total_percent": 96.2,
      "slow_total": 26,
      "slow_avail": 25,
      "slow_percent": 96.2,
      "fast_total": 0,
      "fast_avail": 0,
      "fast_percent": 0.0,
      "latest_update": "20260714101530"
    },
    {
      "station_id": "CU200016",
      "name": "송파삼성래미안",
      "address": "서울특별시 송파구 오금로32길 14",
      "lat": "37.504664",
      "lng": "127.118821",
      "total_count": 24,
      "available_count": 22,
      "total_percent": 91.7,
      "slow_total": 24,
      "slow_avail": 22,
      "slow_percent": 91.7,
      "fast_total": 0,
      "fast_avail": 0,
      "fast_percent": 0.0,
      "latest_update": "20260714094716"
    },
    {
      "station_id": "PK000148",
      "name": "송파공영차고지",
      "address": "서울특별시 송파구 헌릉로 870",
      "lat": "37.4685958",
      "lng": "127.1298208",
      "total_count": 24,
      "available_count": 5,
      "total_percent": 20.8,
      "slow_total": 0,
      "slow_avail": 0,
      "slow_percent": 0.0,
      "fast_total": 24,
      "fast_avail": 5,
      "fast_percent": 20.8,
      "latest_update": "20260714102153"
    },
    {
      "station_id": "GO000078",
      "name": "문현현대지식산업센터",
      "address": "서울특별시 송파구 법원로11길 7",
      "lat": "37.4858",
      "lng": "127.1194",
      "total_count": 22,
      "available_count": 4,
      "total_percent": 18.2,
      "slow_total": 18,
      "slow_avail": 2,
      "slow_percent": 11.1,
      "fast_total": 4,
      "fast_avail": 2,
      "fast_percent": 50.0,
      "latest_update": "20260713123216"
    },
    {
      "station_id": "IN120010",
      "name": "잠실한솔아파트",
      "address": "서울특별시 송파구 백제고분로 348",
      "lat": "37.503573",
      "lng": "127.10455",
      "total_count": 21,
      "available_count": 0,
      "total_percent": 0.0,
      "slow_total": 21,
      "slow_avail": 0,
      "slow_percent": 0.0,
      "fast_total": 0,
      "fast_avail": 0,
      "fast_percent": 0.0,
      "latest_update": "20260615122834"
    },
    {
      "station_id": "JA110026",
      "name": "롯데월드타워 지하 3층",
      "address": "서울특별시 송파구 올림픽로 300",
      "lat": "37.5135139",
      "lng": "127.1032016",
      "total_count": 21,
      "available_count": 13,
      "total_percent": 61.9,
      "slow_total": 21,
      "slow_avail": 13,
      "slow_percent": 61.9,
      "fast_total": 0,
      "fast_avail": 0,
      "fast_percent": 0.0,
      "latest_update": "20260714102001"
    },
    {
      "station_id": "PI767274",
      "name": "송파테라타워2",
      "address": "서울 송파구 송파대로 201",
      "lat": "37.4877388",
      "lng": "127.1206859",
      "total_count": 21,
      "available_count": 5,
      "total_percent": 23.8,
      "slow_total": 21,
      "slow_avail": 5,
      "slow_percent": 23.8,
      "fast_total": 0,
      "fast_avail": 0,
      "fast_percent": 0.0,
      "latest_update": "20260714101059"
    },
    {
      "station_id": "PIS00007",
      "name": "서울 송파구 잠실한솔아파트",
      "address": "서울특별시 송파구 백제고분로 348",
      "lat": "37.5035730",
      "lng": "127.1045500",
      "total_count": 21,
      "available_count": 19,
      "total_percent": 90.5,
      "slow_total": 21,
      "slow_avail": 19,
      "slow_percent": 90.5,
      "fast_total": 0,
      "fast_avail": 0,
      "fast_percent": 0.0,
      "latest_update": "20260714095824"
    },
    {
      "station_id": "LU100200",
      "name": "잠실우성아파트",
      "address": "서울특별시 송파구 올림픽로4길 42",
      "lat": "37.5083256",
      "lng": "127.0720279",
      "total_count": 20,
      "available_count": 16,
      "total_percent": 80.0,
      "slow_total": 20,
      "slow_avail": 16,
      "slow_percent": 80.0,
      "fast_total": 0,
      "fast_avail": 0,
      "fast_percent": 0.0,
      "latest_update": "20260714102051"
    },
    {
      "station_id": "NT102289",
      "name": "송파 래미안송파파인탑아파트",
      "address": "서울특별시 송파구 오금로32길 31",
      "lat": "37.50298",
      "lng": "127.11948",
      "total_count": 20,
      "available_count": 17,
      "total_percent": 85.0,
      "slow_total": 20,
      "slow_avail": 17,
      "slow_percent": 85.0,
      "fast_total": 0,
      "fast_avail": 0,
      "fast_percent": 0.0,
      "latest_update": "20260714101150"
    },
    {
      "station_id": "PI200798",
      "name": "서울시 송파구 헬리오시티아파트",
      "address": "서울특별시 송파구 송파대로 345",
      "lat": "37.497014569",
      "lng": "127.10700180",
      "total_count": 20,
      "available_count": 13,
      "total_percent": 65.0,
      "slow_total": 20,
      "slow_avail": 13,
      "slow_percent": 65.0,
      "fast_total": 0,
      "fast_avail": 0,
      "fast_percent": 0.0,
      "latest_update": "20260714100133"
    },
    {
      "station_id": "PL032671",
      "name": "송파더센트레",
      "address": "서울 송파구 위례광장로 163",
      "lat": "37.4796684",
      "lng": "127.1393228",
      "total_count": 20,
      "available_count": 19,
      "total_percent": 95.0,
      "slow_total": 20,
      "slow_avail": 19,
      "slow_percent": 95.0,
      "fast_total": 0,
      "fast_avail": 0,
      "fast_percent": 0.0,
      "latest_update": "20260714100303"
    },
    {
      "station_id": "CV002910",
      "name": "송파파인타운7단지아파트 지하2층",
      "address": "서울특별시 송파구 충민로4길 19",
      "lat": "37.479057",
      "lng": "127.130109",
      "total_count": 19,
      "available_count": 17,
      "total_percent": 89.5,
      "slow_total": 19,
      "slow_avail": 17,
      "slow_percent": 89.5,
      "fast_total": 0,
      "fast_avail": 0,
      "fast_percent": 0.0,
      "latest_update": "20260714094539"
    },
    {
      "station_id": "HM000398",
      "name": "동아효성아파트",
      "address": "서울특별시 송파구 양산로8길 24",
      "lat": "37.491199756",
      "lng": "127.14637327",
      "total_count": 19,
      "available_count": 19,
      "total_percent": 100.0,
      "slow_total": 19,
      "slow_avail": 19,
      "slow_percent": 100.0,
      "fast_total": 0,
      "fast_avail": 0,
      "fast_percent": 0.0,
      "latest_update": "20260714023605"
    },
    {
      "station_id": "PC000110",
      "name": "송파 아이파크 오피스텔",
      "address": "서울특별시 송파구 법원로 55",
      "lat": "37.479863",
      "lng": "127.121761",
      "total_count": 18,
      "available_count": 12,
      "total_percent": 66.7,
      "slow_total": 16,
      "slow_avail": 11,
      "slow_percent": 68.8,
      "fast_total": 2,
      "fast_avail": 1,
      "fast_percent": 50.0,
      "latest_update": "20260714094842"
    },
    {
      "station_id": "PI204207",
      "name": "서울시 송파구 홈플러스잠실점",
      "address": "서울특별시 송파구 올림픽로35가길 16",
      "lat": "37.5162517",
      "lng": "127.1030065",
      "total_count": 18,
      "available_count": 15,
      "total_percent": 83.3,
      "slow_total": 14,
      "slow_avail": 13,
      "slow_percent": 92.9,
      "fast_total": 4,
      "fast_avail": 2,
      "fast_percent": 50.0,
      "latest_update": "20260714095645"
    },
    {
      "station_id": "PL030413",
      "name": "송파한화오벨리스크",
      "address": "서울 송파구 충민로 5",
      "lat": "37.4800861",
      "lng": "127.1191700",
      "total_count": 18,
      "available_count": 12,
      "total_percent": 66.7,
      "slow_total": 18,
      "slow_avail": 12,
      "slow_percent": 66.7,
      "fast_total": 0,
      "fast_avail": 0,
      "fast_percent": 0.0,
      "latest_update": "20260714094859"
    },
    {
      "station_id": "HM110158",
      "name": "_문정프라자",
      "address": "서울특별시 송파구 중대로 80",
      "lat": "37.4917394",
      "lng": "127.1177515",
      "total_count": 17,
      "available_count": 9,
      "total_percent": 52.9,
      "slow_total": 17,
      "slow_avail": 9,
      "slow_percent": 52.9,
      "fast_total": 0,
      "fast_avail": 0,
      "fast_percent": 0.0,
      "latest_update": "20260714101222"
    },
    {
      "station_id": "PI712977",
      "name": "송파파인타운6단지",
      "address": "서울특별시 송파구 충민로6길 14",
      "lat": "37.4806977",
      "lng": "127.1314396",
      "total_count": 17,
      "available_count": 15,
      "total_percent": 88.2,
      "slow_total": 17,
      "slow_avail": 15,
      "slow_percent": 88.2,
      "fast_total": 0,
      "fast_avail": 0,
      "fast_percent": 0.0,
      "latest_update": "20260714095534"
    },
    {
      "station_id": "PI715452",
      "name": "송파파인10단지",
      "address": "서울특별시 송파구 송파대로8길 20",
      "lat": "37.478134",
      "lng": "127.1311867",
      "total_count": 17,
      "available_count": 15,
      "total_percent": 88.2,
      "slow_total": 17,
      "slow_avail": 15,
      "slow_percent": 88.2,
      "fast_total": 0,
      "fast_avail": 0,
      "fast_percent": 0.0,
      "latest_update": "20260714081036"
    },
    {
      "station_id": "CI0I0001",
      "name": "문정현대지식신업센터",
      "address": "서울특별시 송파구 법원로11길 7",
      "lat": "37.4853545",
      "lng": "127.1192266",
      "total_count": 16,
      "available_count": 5,
      "total_percent": 31.2,
      "slow_total": 16,
      "slow_avail": 5,
      "slow_percent": 31.2,
      "fast_total": 0,
      "fast_avail": 0,
      "fast_percent": 0.0,
      "latest_update": "20260714101427"
    },
    {
      "station_id": "HM000999",
      "name": "송파파크데일2단지",
      "address": "서울특별시 송파구 성내천로47길 38",
      "lat": "37.496362630",
      "lng": "127.15791624",
      "total_count": 16,
      "available_count": 16,
      "total_percent": 100.0,
      "slow_total": 16,
      "slow_avail": 16,
      "slow_percent": 100.0,
      "fast_total": 0,
      "fast_avail": 0,
      "fast_percent": 0.0,
      "latest_update": "20260714092411"
    },
    {
      "station_id": "JA110077",
      "name": "롯데월드 어드벤처 서울",
      "address": "서울특별시 송파구 올림픽로 240",
      "lat": "37.510626",
      "lng": "127.0981983",
      "total_count": 16,
      "available_count": 13,
      "total_percent": 81.2,
      "slow_total": 12,
      "slow_avail": 9,
      "slow_percent": 75.0,
      "fast_total": 4,
      "fast_avail": 4,
      "fast_percent": 100.0,
      "latest_update": "20260714102106"
    },
    {
      "station_id": "PC000556",
      "name": "송파파인타운5단지아파트",
      "address": "서울특별시 송파구 충민로4길 5",
      "lat": "37.479620",
      "lng": "127.129726",
      "total_count": 16,
      "available_count": 16,
      "total_percent": 100.0,
      "slow_total": 15,
      "slow_avail": 15,
      "slow_percent": 100.0,
      "fast_total": 1,
      "fast_avail": 1,
      "fast_percent": 100.0,
      "latest_update": "20260714090008"
    },
    {
      "station_id": "PC000658",
      "name": "서울동부지방검찰청(송파)",
      "address": "서울특별시 송파구 정의로 30",
      "lat": "37.4827957",
      "lng": "127.117993",
      "total_count": 16,
      "available_count": 14,
      "total_percent": 87.5,
      "slow_total": 12,
      "slow_avail": 10,
      "slow_percent": 83.3,
      "fast_total": 4,
      "fast_avail": 4,
      "fast_percent": 100.0,
      "latest_update": "20260714102309"
    },
    {
      "station_id": "PI809544",
      "name": "서울 송파구 송파꿈에그린아파트",
      "address": "서울특별시 송파구 위례광장로 121",
      "lat": "37.4768650",
      "lng": "127.1382163",
      "total_count": 16,
      "available_count": 12,
      "total_percent": 75.0,
      "slow_total": 16,
      "slow_avail": 12,
      "slow_percent": 75.0,
      "fast_total": 0,
      "fast_avail": 0,
      "fast_percent": 0.0,
      "latest_update": "20260714094829"
    },
    {
      "station_id": "JA110162",
      "name": "롯데타워(지하2층)",
      "address": "서울특별시 송파구 올림픽로 300",
      "lat": "37.513713",
      "lng": "127.1043018",
      "total_count": 15,
      "available_count": 12,
      "total_percent": 80.0,
      "slow_total": 15,
      "slow_avail": 12,
      "slow_percent": 80.0,
      "fast_total": 0,
      "fast_avail": 0,
      "fast_percent": 0.0,
      "latest_update": "20260714102013"
    },
    {
      "station_id": "PI204162",
      "name": "서울시 송파구 올림픽공원남2문주차장",
      "address": "서울특별시 송파구 올림픽로 424",
      "lat": "37.514984370",
      "lng": "127.12468075",
      "total_count": 15,
      "available_count": 7,
      "total_percent": 46.7,
      "slow_total": 11,
      "slow_avail": 5,
      "slow_percent": 45.5,
      "fast_total": 4,
      "fast_avail": 2,
      "fast_percent": 50.0,
      "latest_update": "20260714095146"
    },
    {
      "station_id": "LU100688",
      "name": "가락2차쌍용아파트",
      "address": "서울특별시 송파구 송이로15길 31",
      "lat": "37.50217165",
      "lng": "127.12216813",
      "total_count": 14,
      "available_count": 13,
      "total_percent": 92.9,
      "slow_total": 14,
      "slow_avail": 13,
      "slow_percent": 92.9,
      "fast_total": 0,
      "fast_avail": 0,
      "fast_percent": 0.0,
      "latest_update": "20260714090836"
    },
    {
      "station_id": "NUNU0048",
      "name": "가락시장 가락119안전센터옆",
      "address": "서울특별시 송파구 양재대로 932",
      "lat": "37.494537692",
      "lng": "127.10871359",
      "total_count": 14,
      "available_count": 0,
      "total_percent": 0.0,
      "slow_total": 14,
      "slow_avail": 0,
      "slow_percent": 0.0,
      "fast_total": 0,
      "fast_avail": 0,
      "fast_percent": 0.0,
      "latest_update": ""
    },
    {
      "station_id": "PI001491",
      "name": "동아한가람아파트",
      "address": "서울특별시 송파구 한가람로 446",
      "lat": "37.536626",
      "lng": "127.115059",
      "total_count": 14,
      "available_count": 13,
      "total_percent": 92.9,
      "slow_total": 14,
      "slow_avail": 13,
      "slow_percent": 92.9,
      "fast_total": 0,
      "fast_avail": 0,
      "fast_percent": 0.0,
      "latest_update": "20260714102407"
    },
    {
      "station_id": "PI200976",
      "name": "서울시 송파구 송파성원쌍떼빌",
      "address": "서울특별시 송파구 송파대로28길 27",
      "lat": "37.494886894",
      "lng": "127.12009319",
      "total_count": 14,
      "available_count": 13,
      "total_percent": 92.9,
      "slow_total": 14,
      "slow_avail": 13,
      "slow_percent": 92.9,
      "fast_total": 0,
      "fast_avail": 0,
      "fast_percent": 0.0,
      "latest_update": "20260714101139"
    },
    {
      "station_id": "PI768702",
      "name": "서울시농수산식품공사(가락몰)",
      "address": "서울특별시 송파구 양재대로 932",
      "lat": "37.494153110",
      "lng": "127.11585691",
      "total_count": 14,
      "available_count": 10,
      "total_percent": 71.4,
      "slow_total": 14,
      "slow_avail": 10,
      "slow_percent": 71.4,
      "fast_total": 0,
      "fast_avail": 0,
      "fast_percent": 0.0,
      "latest_update": "20260714085601"
    },
    {
      "station_id": "HM000729",
      "name": "송파파인타운9단지 아파트",
      "address": "서울특별시 송파구 송파대로8길 17",
      "lat": "37.478009617",
      "lng": "127.129565",
      "total_count": 13,
      "available_count": 13,
      "total_percent": 100.0,
      "slow_total": 13,
      "slow_avail": 13,
      "slow_percent": 100.0,
      "fast_total": 0,
      "fast_avail": 0,
      "fast_percent": 0.0,
      "latest_update": "20260714064609"
    },
    {
      "station_id": "NT100844",
      "name": "송파 위례리슈빌아파트",
      "address": "서울특별시 송파구 위례송파로 124",
      "lat": "37.484228292",
      "lng": "127.14742731",
      "total_count": 13,
      "available_count": 8,
      "total_percent": 61.5,
      "slow_total": 13,
      "slow_avail": 8,
      "slow_percent": 61.5,
      "fast_total": 0,
      "fast_avail": 0,
      "fast_percent": 0.0,
      "latest_update": "20260714092750"
    },
    {
      "station_id": "PI204010",
      "name": "서울시 송파구 농수산식품공사",
      "address": "서울특별시 송파구 양재대로 932",
      "lat": "37.494130177",
      "lng": "127.11627245",
      "total_count": 13,
      "available_count": 9,
      "total_percent": 69.2,
      "slow_total": 13,
      "slow_avail": 9,
      "slow_percent": 69.2,
      "fast_total": 0,
      "fast_avail": 0,
      "fast_percent": 0.0,
      "latest_update": "20260714102130"
    },
    {
      "station_id": "PL030896",
      "name": "현대3차아파트",
      "address": "서울특별시 송파구 거마로 41",
      "lat": "36.9880214",
      "lng": "126.9203625",
      "total_count": 13,
      "available_count": 12,
      "total_percent": 92.3,
      "slow_total": 13,
      "slow_avail": 12,
      "slow_percent": 92.3,
      "fast_total": 0,
      "fast_avail": 0,
      "fast_percent": 0.0,
      "latest_update": "20260714084140"
    },
    {
      "station_id": "CGA00070",
      "name": "송파 잠실 엘스_148동",
      "address": "서울특별시 송파구 올림픽로 99",
      "lat": "37.51565802",
      "lng": "127.0803895",
      "total_count": 12,
      "available_count": 11,
      "total_percent": 91.7,
      "slow_total": 12,
      "slow_avail": 11,
      "slow_percent": 91.7,
      "fast_total": 0,
      "fast_avail": 0,
      "fast_percent": 0.0,
      "latest_update": "20260714071513"
    },
    {
      "station_id": "DYME2052",
      "name": "서울 잠실더샵스타파크",
      "address": "서울특별시 송파구 올림픽로35가길 10",
      "lat": "37.516941",
      "lng": "127.1026334",
      "total_count": 12,
      "available_count": 10,
      "total_percent": 83.3,
      "slow_total": 12,
      "slow_avail": 10,
      "slow_percent": 83.3,
      "fast_total": 0,
      "fast_avail": 0,
      "fast_percent": 0.0,
      "latest_update": "20260714085901"
    },
    {
      "station_id": "LU001650",
      "name": "오금대림아파트",
      "address": "서울특별시 송파구 위례성대로 176",
      "lat": "37.510637",
      "lng": "127.128759",
      "total_count": 12,
      "available_count": 11,
      "total_percent": 91.7,
      "slow_total": 12,
      "slow_avail": 11,
      "slow_percent": 91.7,
      "fast_total": 0,
      "fast_avail": 0,
      "fast_percent": 0.0,
      "latest_update": "20260714100132"
    },
    {
      "station_id": "PC000490",
      "name": "거여1단지아파트(송파)",
      "address": "서울특별시 송파구 양산로8길 8",
      "lat": "37.490916",
      "lng": "127.144566",
      "total_count": 12,
      "available_count": 9,
      "total_percent": 75.0,
      "slow_total": 10,
      "slow_avail": 7,
      "slow_percent": 70.0,
      "fast_total": 2,
      "fast_avail": 2,
      "fast_percent": 100.0,
      "latest_update": "20260714094645"
    },
    {
      "station_id": "PI808141",
      "name": "서울 송파구 송파파인타운8단지아파트",
      "address": "서울특별시 송파구 충민로4길 6",
      "lat": "37.4796538",
      "lng": "127.1280781",
      "total_count": 12,
      "available_count": 12,
      "total_percent": 100.0,
      "slow_total": 12,
      "slow_avail": 12,
      "slow_percent": 100.0,
      "fast_total": 0,
      "fast_avail": 0,
      "fast_percent": 0.0,
      "latest_update": "20260714062753"
    },
    {
      "station_id": "PL004439",
      "name": "더샵스타리버",
      "address": "서울특별시 송파구 올림픽로35길 93",
      "lat": "37.5177325",
      "lng": "127.104433",
      "total_count": 12,
      "available_count": 5,
      "total_percent": 41.7,
      "slow_total": 12,
      "slow_avail": 5,
      "slow_percent": 41.7,
      "fast_total": 0,
      "fast_avail": 0,
      "fast_percent": 0.0,
      "latest_update": "20260714101127"
    },
    {
      "station_id": "HY001508",
      "name": "송파 레미니스2단지III",
      "address": "서울특별시 송파구 동남로 341",
      "lat": "37.5062793",
      "lng": "127.1380487",
      "total_count": 11,
      "available_count": 10,
      "total_percent": 90.9,
      "slow_total": 11,
      "slow_avail": 10,
      "slow_percent": 90.9,
      "fast_total": 0,
      "fast_avail": 0,
      "fast_percent": 0.0,
      "latest_update": "20260714083203"
    },
    {
      "station_id": "LU003943",
      "name": "송파레이크힐아파트",
      "address": "서울특별시 송파구 위례송파로 89",
      "lat": "37.486251",
      "lng": "127.144579",
      "total_count": 11,
      "available_count": 9,
      "total_percent": 81.8,
      "slow_total": 11,
      "slow_avail": 9,
      "slow_percent": 81.8,
      "fast_total": 0,
      "fast_avail": 0,
      "fast_percent": 0.0,
      "latest_update": "20260714090405"
    },
    {
      "station_id": "PC000728",
      "name": "송파레미니스1단지아파트",
      "address": "서울특별시 송파구 성내천로 6",
      "lat": "37.5083372",
      "lng": "127.1348282",
      "total_count": 11,
      "available_count": 11,
      "total_percent": 100.0,
      "slow_total": 10,
      "slow_avail": 10,
      "slow_percent": 100.0,
      "fast_total": 1,
      "fast_avail": 1,
      "fast_percent": 100.0,
      "latest_update": "20260714093310"
    },
    {
      "station_id": "PI204169",
      "name": "서울시 송파구 IT벤처타워",
      "address": "서울특별시 송파구 중대로 135",
      "lat": "37.495096",
      "lng": "127.122427",
      "total_count": 11,
      "available_count": 7,
      "total_percent": 63.6,
      "slow_total": 11,
      "slow_avail": 7,
      "slow_percent": 63.6,
      "fast_total": 0,
      "fast_avail": 0,
      "fast_percent": 0.0,
      "latest_update": "20260714101308"
    },
    {
      "station_id": "PL032147",
      "name": "서울 송파구 잠실푸르지오월드마크",
      "address": "서울 송파구 올림픽로35가길 9",
      "lat": "37.5174846",
      "lng": "127.1034448",
      "total_count": 11,
      "available_count": 8,
      "total_percent": 72.7,
      "slow_total": 10,
      "slow_avail": 7,
      "slow_percent": 70.0,
      "fast_total": 1,
      "fast_avail": 1,
      "fast_percent": 100.0,
      "latest_update": "20260714084846"
    },
    {
      "station_id": "PL033757",
      "name": "송파문화재단",
      "address": "서울 송파구 송파대로42길 29",
      "lat": "37.5063350",
      "lng": "127.1104869",
      "total_count": 11,
      "available_count": 10,
      "total_percent": 90.9,
      "slow_total": 11,
      "slow_avail": 10,
      "slow_percent": 90.9,
      "fast_total": 0,
      "fast_avail": 0,
      "fast_percent": 0.0,
      "latest_update": "20260714102203"
    },
    {
      "station_id": "BE240105",
      "name": "워터 송파 한양타워",
      "address": "서울특별시 송파구 법원로11길 12",
      "lat": "37.485955450",
      "lng": "127.11797785",
      "total_count": 10,
      "available_count": 5,
      "total_percent": 50.0,
      "slow_total": 6,
      "slow_avail": 3,
      "slow_percent": 50.0,
      "fast_total": 4,
      "fast_avail": 2,
      "fast_percent": 50.0,
      "latest_update": "20260714101032"
    },
    {
      "station_id": "CGA00069",
      "name": "송파 잠실 엘스_123동",
      "address": "서울특별시 송파구 올림픽로 99",
      "lat": "37.51305131",
      "lng": "127.0844247",
      "total_count": 10,
      "available_count": 9,
      "total_percent": 90.0,
      "slow_total": 10,
      "slow_avail": 9,
      "slow_percent": 90.0,
      "fast_total": 0,
      "fast_avail": 0,
      "fast_percent": 0.0,
      "latest_update": "20260714074506"
    },
    {
      "station_id": "EV013173",
      "name": "서울송파 가든파이브웍스 1",
      "address": "서울특별시 송파구 충민로 52",
      "lat": "37.4776671",
      "lng": "127.1224226",
      "total_count": 10,
      "available_count": 5,
      "total_percent": 50.0,
      "slow_total": 10,
      "slow_avail": 5,
      "slow_percent": 50.0,
      "fast_total": 0,
      "fast_avail": 0,
      "fast_percent": 0.0,
      "latest_update": "20260714100924"
    },
    {
      "station_id": "EV017502",
      "name": "서울송파 잠실트리지움 1",
      "address": "서울특별시 송파구 잠실로 62",
      "lat": "37.509548421",
      "lng": "127.08783657",
      "total_count": 10,
      "available_count": 9,
      "total_percent": 90.0,
      "slow_total": 10,
      "slow_avail": 9,
      "slow_percent": 90.0,
      "fast_total": 0,
      "fast_avail": 0,
      "fast_percent": 0.0,
      "latest_update": "20260714094108"
    },
    {
      "station_id": "EV017504",
      "name": "서울송파 잠실트리지움 3",
      "address": "서울특별시 송파구 잠실로 62",
      "lat": "37.509875557",
      "lng": "127.08713288",
      "total_count": 10,
      "available_count": 8,
      "total_percent": 80.0,
      "slow_total": 10,
      "slow_avail": 8,
      "slow_percent": 80.0,
      "fast_total": 0,
      "fast_avail": 0,
      "fast_percent": 0.0,
      "latest_update": "20260714100119"
    },
    {
      "station_id": "HY001108",
      "name": "송파 아시아선수촌아파트",
      "address": "서울특별시 송파구 올림픽로4길 15",
      "lat": "37.507554",
      "lng": "127.076926",
      "total_count": 10,
      "available_count": 9,
      "total_percent": 90.0,
      "slow_total": 10,
      "slow_avail": 9,
      "slow_percent": 90.0,
      "fast_total": 0,
      "fast_avail": 0,
      "fast_percent": 0.0,
      "latest_update": "20260714081604"
    },
    {
      "station_id": "IN120056",
      "name": "가락우성아파트",
      "address": "서울특별시 송파구 송파대로32길 8",
      "lat": "37.4965",
      "lng": "127.1178",
      "total_count": 10,
      "available_count": 0,
      "total_percent": 0.0,
      "slow_total": 10,
      "slow_avail": 0,
      "slow_percent": 0.0,
      "fast_total": 0,
      "fast_avail": 0,
      "fast_percent": 0.0,
      "latest_update": "20260615122838"
    },
    {
      "station_id": "NT102295",
      "name": "송파 가락극동아파트",
      "address": "서울특별시 송파구 동남로18길 9",
      "lat": "37.49485",
      "lng": "127.13283",
      "total_count": 10,
      "available_count": 7,
      "total_percent": 70.0,
      "slow_total": 10,
      "slow_avail": 7,
      "slow_percent": 70.0,
      "fast_total": 0,
      "fast_avail": 0,
      "fast_percent": 0.0,
      "latest_update": "20260714095250"
    },
    {
      "station_id": "PI767262",
      "name": "힐스테이트에코문정",
      "address": "서울 송파구 법원로4길 10",
      "lat": "37.4826158",
      "lng": "127.1228264",
      "total_count": 10,
      "available_count": 8,
      "total_percent": 80.0,
      "slow_total": 10,
      "slow_avail": 8,
      "slow_percent": 80.0,
      "fast_total": 0,
      "fast_avail": 0,
      "fast_percent": 0.0,
      "latest_update": "20260714094555"
    },
    {
      "station_id": "PIS00033",
      "name": "서울 송파구 가락우성아파트",
      "address": "서울특별시 송파구 송파대로32길 8",
      "lat": "37.4965000",
      "lng": "127.1178000",
      "total_count": 10,
      "available_count": 6,
      "total_percent": 60.0,
      "slow_total": 10,
      "slow_avail": 6,
      "slow_percent": 60.0,
      "fast_total": 0,
      "fast_avail": 0,
      "fast_percent": 0.0,
      "latest_update": "20260714093834"
    },
    {
      "station_id": "PW011044",
      "name": "파크리오아파트2단지",
      "address": "서울특별시 송파구 올림픽로 435",
      "lat": "37.521360105650",
      "lng": "127.1049725389",
      "total_count": 10,
      "available_count": 7,
      "total_percent": 70.0,
      "slow_total": 10,
      "slow_avail": 7,
      "slow_percent": 70.0,
      "fast_total": 0,
      "fast_avail": 0,
      "fast_percent": 0.0,
      "latest_update": "20260714094112"
    },
    {
      "station_id": "PW011045",
      "name": "파크리오아파트1단지",
      "address": "서울특별시 송파구 올림픽로 435",
      "lat": "37.521360105650",
      "lng": "127.1049725389",
      "total_count": 10,
      "available_count": 8,
      "total_percent": 80.0,
      "slow_total": 10,
      "slow_avail": 8,
      "slow_percent": 80.0,
      "fast_total": 0,
      "fast_avail": 0,
      "fast_percent": 0.0,
      "latest_update": "20260714093114"
    },
    {
      "station_id": "PW011178",
      "name": "파크리오아파트3단지",
      "address": "서울특별시 송파구 올림픽로 435",
      "lat": "37.521360105650",
      "lng": "127.1049725389",
      "total_count": 10,
      "available_count": 8,
      "total_percent": 80.0,
      "slow_total": 10,
      "slow_avail": 8,
      "slow_percent": 80.0,
      "fast_total": 0,
      "fast_avail": 0,
      "fast_percent": 0.0,
      "latest_update": "20260714101913"
    },
    {
      "station_id": "CGA00067",
      "name": "송파 잠실 엘스_125동",
      "address": "서울특별시 송파구 올림픽로 99",
      "lat": "37.51365517",
      "lng": "127.0841539",
      "total_count": 9,
      "available_count": 6,
      "total_percent": 66.7,
      "slow_total": 9,
      "slow_avail": 6,
      "slow_percent": 66.7,
      "fast_total": 0,
      "fast_avail": 0,
      "fast_percent": 0.0,
      "latest_update": "20260714094511"
    },
    {
      "station_id": "CGA00071",
      "name": "송파 잠실 엘스_161동",
      "address": "서울특별시 송파구 올림픽로 99",
      "lat": "37.51432551",
      "lng": "127.0789516",
      "total_count": 9,
      "available_count": 8,
      "total_percent": 88.9,
      "slow_total": 9,
      "slow_avail": 8,
      "slow_percent": 88.9,
      "fast_total": 0,
      "fast_avail": 0,
      "fast_percent": 0.0,
      "latest_update": "20260714101515"
    },
    {
      "station_id": "CGA00074",
      "name": "송파 잠실 엘스_117동",
      "address": "서울특별시 송파구 올림픽로 99",
      "lat": "37.51259292",
      "lng": "127.0828407",
      "total_count": 9,
      "available_count": 6,
      "total_percent": 66.7,
      "slow_total": 9,
      "slow_avail": 6,
      "slow_percent": 66.7,
      "fast_total": 0,
      "fast_avail": 0,
      "fast_percent": 0.0,
      "latest_update": "20260714094511"
    },
    {
      "station_id": "CGA00075",
      "name": "송파 잠실 엘스_147동",
      "address": "서울특별시 송파구 올림픽로 99",
      "lat": "37.51610901",
      "lng": "127.0796774",
      "total_count": 9,
      "available_count": 7,
      "total_percent": 77.8,
      "slow_total": 9,
      "slow_avail": 7,
      "slow_percent": 77.8,
      "fast_total": 0,
      "fast_avail": 0,
      "fast_percent": 0.0,
      "latest_update": "20260714091511"
    },
    {
      "station_id": "EC110034",
      "name": "가락한신아파트",
      "address": "서울특별시 송파구 송파대로 220",
      "lat": "37.4897889",
      "lng": "127.1212023",
      "total_count": 9,
      "available_count": 8,
      "total_percent": 88.9,
      "slow_total": 9,
      "slow_avail": 8,
      "slow_percent": 88.9,
      "fast_total": 0,
      "fast_avail": 0,
      "fast_percent": 0.0,
      "latest_update": "20260714080802"
    },
    {
      "station_id": "EV006828",
      "name": "서울송파 헬리오시티상가",
      "address": "서울특별시 송파구 송파대로 345",
      "lat": "37.4976146",
      "lng": "127.1025318",
      "total_count": 9,
      "available_count": 5,
      "total_percent": 55.6,
      "slow_total": 9,
      "slow_avail": 5,
      "slow_percent": 55.6,
      "fast_total": 0,
      "fast_avail": 0,
      "fast_percent": 0.0,
      "latest_update": "20260714095113"
    },
    {
      "station_id": "EV013174",
      "name": "서울송파 가든파이브웍스 2",
      "address": "서울특별시 송파구 충민로 52",
      "lat": "37.4777176",
      "lng": "127.122746",
      "total_count": 9,
      "available_count": 6,
      "total_percent": 66.7,
      "slow_total": 9,
      "slow_avail": 6,
      "slow_percent": 66.7,
      "fast_total": 0,
      "fast_avail": 0,
      "fast_percent": 0.0,
      "latest_update": "20260714095718"
    },
    {
      "station_id": "EV013539",
      "name": "서울송파 문정역SKV1 3거점",
      "address": "서울특별시 송파구 법원로 128 (문정동)",
      "lat": "37.4868914",
      "lng": "127.1204540",
      "total_count": 9,
      "available_count": 2,
      "total_percent": 22.2,
      "slow_total": 9,
      "slow_avail": 2,
      "slow_percent": 22.2,
      "fast_total": 0,
      "fast_avail": 0,
      "fast_percent": 0.0,
      "latest_update": "20260714094711"
    },
    {
      "station_id": "EV017506",
      "name": "서울송파 잠실트리지움 5",
      "address": "서울특별시 송파구 잠실로 62",
      "lat": "37.511021423",
      "lng": "127.08802492",
      "total_count": 9,
      "available_count": 8,
      "total_percent": 88.9,
      "slow_total": 9,
      "slow_avail": 8,
      "slow_percent": 88.9,
      "fast_total": 0,
      "fast_avail": 0,
      "fast_percent": 0.0,
      "latest_update": "20260714091253"
    },
    {
      "station_id": "EV017508",
      "name": "서울송파 잠실트리지움 7",
      "address": "서울특별시 송파구 잠실로 62",
      "lat": "37.510986273",
      "lng": "127.08983458",
      "total_count": 9,
      "available_count": 6,
      "total_percent": 66.7,
      "slow_total": 9,
      "slow_avail": 6,
      "slow_percent": 66.7,
      "fast_total": 0,
      "fast_avail": 0,
      "fast_percent": 0.0,
      "latest_update": "20260714074156"
    },
    {
      "station_id": "EV017510",
      "name": "서울송파 잠실트리지움 9",
      "address": "서울특별시 송파구 잠실로 62",
      "lat": "37.509510448",
      "lng": "127.09039833",
      "total_count": 9,
      "available_count": 8,
      "total_percent": 88.9,
      "slow_total": 9,
      "slow_avail": 8,
      "slow_percent": 88.9,
      "fast_total": 0,
      "fast_avail": 0,
      "fast_percent": 0.0,
      "latest_update": "20260714090849"
    },
    {
      "station_id": "EV017512",
      "name": "서울송파 잠실트리지움 11",
      "address": "서울특별시 송파구 잠실로 62",
      "lat": "37.510029973",
      "lng": "127.09144518",
      "total_count": 9,
      "available_count": 8,
      "total_percent": 88.9,
      "slow_total": 9,
      "slow_avail": 8,
      "slow_percent": 88.9,
      "fast_total": 0,
      "fast_avail": 0,
      "fast_percent": 0.0,
      "latest_update": "20260714093906"
    },
    {
      "station_id": "HM001624",
      "name": "삼성SDS타워 서관",
      "address": "서울특별시 송파구 올림픽로35길 125",
      "lat": "37.516297774",
      "lng": "127.10046780",
      "total_count": 9,
      "available_count": 3,
      "total_percent": 33.3,
      "slow_total": 6,
      "slow_avail": 0,
      "slow_percent": 0.0,
      "fast_total": 3,
      "fast_avail": 3,
      "fast_percent": 100.0,
      "latest_update": "20260714090018"
    },
    {
      "station_id": "NT100559",
      "name": "송파법조타운푸르지오시티(오피스텔)",
      "address": "서울특별시 송파구 법원로4길 5",
      "lat": "37.4829139",
      "lng": "127.1218733",
      "total_count": 9,
      "available_count": 7,
      "total_percent": 77.8,
      "slow_total": 9,
      "slow_avail": 7,
      "slow_percent": 77.8,
      "fast_total": 0,
      "fast_avail": 0,
      "fast_percent": 0.0,
      "latest_update": "20260714101950"
    },
    {
      "station_id": "NT102116",
      "name": "송파 거여3단지아파트",
      "address": "서울특별시 송파구 양산로2길 44",
      "lat": "37.49046",
      "lng": "127.14754",
      "total_count": 9,
      "available_count": 9,
      "total_percent": 100.0,
      "slow_total": 9,
      "slow_avail": 9,
      "slow_percent": 100.0,
      "fast_total": 0,
      "fast_avail": 0,
      "fast_percent": 0.0,
      "latest_update": "20260714084850"
    },
    {
      "station_id": "NT102502",
      "name": "송파 씨티극동아파트",
      "address": "서울특별시 송파구 한가람로 478",
      "lat": "37.53979",
      "lng": "127.11795",
      "total_count": 9,
      "available_count": 9,
      "total_percent": 100.0,
      "slow_total": 9,
      "slow_avail": 9,
      "slow_percent": 100.0,
      "fast_total": 0,
      "fast_avail": 0,
      "fast_percent": 0.0,
      "latest_update": "20260714092550"
    },
    {
      "station_id": "PC000421",
      "name": "향군타워(송파)",
      "address": "서울특별시 송파구 올림픽로35길 123",
      "lat": "37.5165770",
      "lng": "127.1012250",
      "total_count": 9,
      "available_count": 3,
      "total_percent": 33.3,
      "slow_total": 8,
      "slow_avail": 2,
      "slow_percent": 25.0,
      "fast_total": 1,
      "fast_avail": 1,
      "fast_percent": 100.0,
      "latest_update": "20260714101606"
    },
    {
      "station_id": "PC000531",
      "name": "가락우성2차아파트(송파)",
      "address": "서울특별시 송파구 중대로12길 35",
      "lat": "37.4920156",
      "lng": "127.1254714",
      "total_count": 9,
      "available_count": 8,
      "total_percent": 88.9,
      "slow_total": 8,
      "slow_avail": 7,
      "slow_percent": 87.5,
      "fast_total": 1,
      "fast_avail": 1,
      "fast_percent": 100.0,
      "latest_update": "20260714092352"
    },
    {
      "station_id": "PI200946",
      "name": "서울시 송파구 송파위례24단지꿈에그린",
      "address": "서울특별시 송파구 위례광장로 121",
      "lat": "37.476865",
      "lng": "127.1382163",
      "total_count": 9,
      "available_count": 9,
      "total_percent": 100.0,
      "slow_total": 9,
      "slow_avail": 9,
      "slow_percent": 100.0,
      "fast_total": 0,
      "fast_avail": 0,
      "fast_percent": 0.0,
      "latest_update": "20260714071615"
    },
    {
      "station_id": "PI707382",
      "name": "힐스테이트에코송파",
      "address": "서울특별시 송파구 정의로7길 13",
      "lat": "37.4852878",
      "lng": "127.1151196",
      "total_count": 9,
      "available_count": 5,
      "total_percent": 55.6,
      "slow_total": 9,
      "slow_avail": 5,
      "slow_percent": 55.6,
      "fast_total": 0,
      "fast_avail": 0,
      "fast_percent": 0.0,
      "latest_update": "20260714102512"
    },
    {
      "station_id": "PI710976",
      "name": "위례송파푸르지오",
      "address": "서울특별시 송파구 위례광장로 185",
      "lat": "37.4804806",
      "lng": "127.139929",
      "total_count": 9,
      "available_count": 9,
      "total_percent": 100.0,
      "slow_total": 9,
      "slow_avail": 9,
      "slow_percent": 100.0,
      "fast_total": 0,
      "fast_avail": 0,
      "fast_percent": 0.0,
      "latest_update": "20260714091021"
    },
    {
      "station_id": "PI740766",
      "name": "문정대명벨리온B",
      "address": "서울특별시 송파구 법원로 127",
      "lat": "37.486284493",
      "lng": "127.11870258",
      "total_count": 9,
      "available_count": 1,
      "total_percent": 11.1,
      "slow_total": 9,
      "slow_avail": 1,
      "slow_percent": 11.1,
      "fast_total": 0,
      "fast_avail": 0,
      "fast_percent": 0.0,
      "latest_update": "20260714100820"
    },
    {
      "station_id": "PW013094",
      "name": "서울시 문정 아이파크",
      "address": "서울특별시 송파구 법원로4길 6",
      "lat": "37.482317757",
      "lng": "127.12211001",
      "total_count": 9,
      "available_count": 5,
      "total_percent": 55.6,
      "slow_total": 9,
      "slow_avail": 5,
      "slow_percent": 55.6,
      "fast_total": 0,
      "fast_avail": 0,
      "fast_percent": 0.0,
      "latest_update": "20260714082044"
    },
    {
      "station_id": "PW014880",
      "name": "송파와이즈더샵입주자대표회의",
      "address": "서울특별시 송파구 위례광장로 270",
      "lat": "37.477106334",
      "lng": "127.14365174",
      "total_count": 9,
      "available_count": 8,
      "total_percent": 88.9,
      "slow_total": 9,
      "slow_avail": 8,
      "slow_percent": 88.9,
      "fast_total": 0,
      "fast_avail": 0,
      "fast_percent": 0.0,
      "latest_update": "20260714102625"
    },
    {
      "station_id": "PWE01697",
      "name": "가락쌍용1차아파트",
      "address": "서울특별시 송파구 동남로 193",
      "lat": "37.49470",
      "lng": "127.12923",
      "total_count": 9,
      "available_count": 9,
      "total_percent": 100.0,
      "slow_total": 9,
      "slow_avail": 9,
      "slow_percent": 100.0,
      "fast_total": 0,
      "fast_avail": 0,
      "fast_percent": 0.0,
      "latest_update": "20260714055411"
    },
    {
      "station_id": "CGA00158",
      "name": "송파 파인타운2단지",
      "address": "서울특별시 송파구 충민로 151",
      "lat": "37.4835171",
      "lng": "127.1313064",
      "total_count": 8,
      "available_count": 8,
      "total_percent": 100.0,
      "slow_total": 8,
      "slow_avail": 8,
      "slow_percent": 100.0,
      "fast_total": 0,
      "fast_avail": 0,
      "fast_percent": 0.0,
      "latest_update": "20260714090017"
    },
    {
      "station_id": "EV013537",
      "name": "서울송파 문정역SKV1 1거점",
      "address": "서울특별시 송파구 법원로 128 (문정동)",
      "lat": "37.4868514",
      "lng": "127.1204540",
      "total_count": 8,
      "available_count": 2,
      "total_percent": 25.0,
      "slow_total": 8,
      "slow_avail": 2,
      "slow_percent": 25.0,
      "fast_total": 0,
      "fast_avail": 0,
      "fast_percent": 0.0,
      "latest_update": "20260714100523"
    },
    {
      "station_id": "EZ210005",
      "name": "송파웰츠타워 관리위원회",
      "address": "서울특별시 송파구 송파대로28길 43",
      "lat": "37.496713",
      "lng": "127.1219888",
      "total_count": 8,
      "available_count": 0,
      "total_percent": 0.0,
      "slow_total": 8,
      "slow_avail": 0,
      "slow_percent": 0.0,
      "fast_total": 0,
      "fast_avail": 0,
      "fast_percent": 0.0,
      "latest_update": "20260601113310"
    },
    {
      "station_id": "JA110025",
      "name": "롯데월드타워 그린카존",
      "address": "서울특별시 송파구 올림픽로 300",
      "lat": "37.5135139",
      "lng": "127.1032016",
      "total_count": 8,
      "available_count": 6,
      "total_percent": 75.0,
      "slow_total": 8,
      "slow_avail": 6,
      "slow_percent": 75.0,
      "fast_total": 0,
      "fast_avail": 0,
      "fast_percent": 0.0,
      "latest_update": "20260714085601"
    },
    {
      "station_id": "KP000926",
      "name": "레이크팰리스",
      "address": "서울특별시 송파구 잠실동 잠실로 88",
      "lat": "37.5075341602",
      "lng": "127.093213298",
      "total_count": 8,
      "available_count": 6,
      "total_percent": 75.0,
      "slow_total": 6,
      "slow_avail": 5,
      "slow_percent": 83.3,
      "fast_total": 2,
      "fast_avail": 1,
      "fast_percent": 50.0,
      "latest_update": "20260714082021"
    },
    {
      "station_id": "KP001804",
      "name": "리센츠 아파트",
      "address": "서울특별시 송파구 올림픽로 135",
      "lat": "37.513161",
      "lng": "127.090312",
      "total_count": 8,
      "available_count": 8,
      "total_percent": 100.0,
      "slow_total": 6,
      "slow_avail": 6,
      "slow_percent": 100.0,
      "fast_total": 2,
      "fast_avail": 2,
      "fast_percent": 100.0,
      "latest_update": "20260714070017"
    },
    {
      "station_id": "KP002812",
      "name": "위례 포레샤인 23단지",
      "address": "서울특별시 송파구 장지동 380-1",
      "lat": "37.47617081866",
      "lng": "127.1353309043",
      "total_count": 8,
      "available_count": 6,
      "total_percent": 75.0,
      "slow_total": 8,
      "slow_avail": 6,
      "slow_percent": 75.0,
      "fast_total": 0,
      "fast_avail": 0,
      "fast_percent": 0.0,
      "latest_update": "20260714091017"
    },
    {
      "station_id": "LU100759",
      "name": "송파파인타운2단지",
      "address": "서울특별시 송파구 충민로 151",
      "lat": "37.48351714",
      "lng": "127.13130639",
      "total_count": 8,
      "available_count": 7,
      "total_percent": 87.5,
      "slow_total": 8,
      "slow_avail": 7,
      "slow_percent": 87.5,
      "fast_total": 0,
      "fast_avail": 0,
      "fast_percent": 0.0,
      "latest_update": "20260714093329"
    },
    {
      "station_id": "NT102120",
      "name": "송파 가락금호아파트",
      "address": "서울특별시 송파구 송파대로32길 15",
      "lat": "37.49658",
      "lng": "127.11575",
      "total_count": 8,
      "available_count": 6,
      "total_percent": 75.0,
      "slow_total": 8,
      "slow_avail": 6,
      "slow_percent": 75.0,
      "fast_total": 0,
      "fast_avail": 0,
      "fast_percent": 0.0,
      "latest_update": "20260714053550"
    },
    {
      "station_id": "NT102470",
      "name": "송파 위례신도시송파푸르지오",
      "address": "서울특별시 송파구 위례광장로 185",
      "lat": "37.48047",
      "lng": "127.14004",
      "total_count": 8,
      "available_count": 7,
      "total_percent": 87.5,
      "slow_total": 8,
      "slow_avail": 7,
      "slow_percent": 87.5,
      "fast_total": 0,
      "fast_avail": 0,
      "fast_percent": 0.0,
      "latest_update": "20260713161450"
    },
    {
      "station_id": "PC000448",
      "name": "위례신도시 송파푸르지오",
      "address": "서울특별시 송파구 위례광장로 185",
      "lat": "37.4804770",
      "lng": "127.1400400",
      "total_count": 8,
      "available_count": 6,
      "total_percent": 75.0,
      "slow_total": 6,
      "slow_avail": 4,
      "slow_percent": 66.7,
      "fast_total": 2,
      "fast_avail": 2,
      "fast_percent": 100.0,
      "latest_update": "20260714085946"
    },
    {
      "station_id": "PI053318",
      "name": "송파파인타운3단지",
      "address": "서울특별시 송파구 충민로 152",
      "lat": "37.483724096",
      "lng": "127.13284013",
      "total_count": 8,
      "available_count": 7,
      "total_percent": 87.5,
      "slow_total": 8,
      "slow_avail": 7,
      "slow_percent": 87.5,
      "fast_total": 0,
      "fast_avail": 0,
      "fast_percent": 0.0,
      "latest_update": "20260714083102"
    },
    {
      "station_id": "PI204270",
      "name": "서울시 송파구 올림픽스포츠콤플렉스",
      "address": "서울특별시 송파구 올림픽로 424",
      "lat": "37.520339698",
      "lng": "127.11551787",
      "total_count": 8,
      "available_count": 5,
      "total_percent": 62.5,
      "slow_total": 7,
      "slow_avail": 4,
      "slow_percent": 57.1,
      "fast_total": 1,
      "fast_avail": 1,
      "fast_percent": 100.0,
      "latest_update": "20260714084646"
    },
    {
      "station_id": "PI645117",
      "name": "BMW차징스테이션 리센츠상가",
      "address": "서울특별시 송파구 올림픽로 145",
      "lat": "37.5119805",
      "lng": "127.0870419",
      "total_count": 8,
      "available_count": 6,
      "total_percent": 75.0,
      "slow_total": 8,
      "slow_avail": 6,
      "slow_percent": 75.0,
      "fast_total": 0,
      "fast_avail": 0,
      "fast_percent": 0.0,
      "latest_update": "20260714100719"
    },
    {
      "station_id": "PI767322",
      "name": "힐스테이트송파위례",
      "address": "서울특별시 송파구 위례광장로 170",
      "lat": "37.479896",
      "lng": "127.1423248",
      "total_count": 8,
      "available_count": 8,
      "total_percent": 100.0,
      "slow_total": 8,
      "slow_avail": 8,
      "slow_percent": 100.0,
      "fast_total": 0,
      "fast_avail": 0,
      "fast_percent": 0.0,
      "latest_update": "20260714073554"
    },
    {
      "station_id": "BPA00010",
      "name": "우성르보아위례",
      "address": "서울특별시 송파구 위례서로 234",
      "lat": "37.48",
      "lng": "127.14",
      "total_count": 7,
      "available_count": 5,
      "total_percent": 71.4,
      "slow_total": 7,
      "slow_avail": 5,
      "slow_percent": 71.4,
      "fast_total": 0,
      "fast_avail": 0,
      "fast_percent": 0.0,
      "latest_update": "20260714082916"
    },
    {
      "station_id": "CV000639",
      "name": "송파호반베르디움더퍼스트",
      "address": "서울특별시 송파구 동남로 342",
      "lat": "37.505459",
      "lng": "127.139985",
      "total_count": 7,
      "available_count": 6,
      "total_percent": 85.7,
      "slow_total": 7,
      "slow_avail": 6,
      "slow_percent": 85.7,
      "fast_total": 0,
      "fast_avail": 0,
      "fast_percent": 0.0,
      "latest_update": "20260714082518"
    },
    {
      "station_id": "EP220163",
      "name": "잠실올림픽공원아이파크 충전소",
      "address": "서울특별시 송파구 올림픽로43길 34",
      "lat": "37.525873648",
      "lng": "127.11515365",
      "total_count": 7,
      "available_count": 0,
      "total_percent": 0.0,
      "slow_total": 7,
      "slow_avail": 0,
      "slow_percent": 0.0,
      "fast_total": 0,
      "fast_avail": 0,
      "fast_percent": 0.0,
      "latest_update": "20260324150039"
    },
    {
      "station_id": "EV010734",
      "name": "서울송파 풍납한강극동아파트4",
      "address": "서울특별시 송파구 토성로 38-6",
      "lat": "37.529908777",
      "lng": "127.11187894",
      "total_count": 7,
      "available_count": 7,
      "total_percent": 100.0,
      "slow_total": 7,
      "slow_avail": 7,
      "slow_percent": 100.0,
      "fast_total": 0,
      "fast_avail": 0,
      "fast_percent": 0.0,
      "latest_update": "20260714091253"
    },
    {
      "station_id": "EV012108",
      "name": "서울송파 가락래미안파크팰리스 8(콘센트)",
      "address": "서울특별시 송파구 동남로 225 (가락동, 래미안파크팰리스)",
      "lat": "37.4980047",
      "lng": "127.1308682",
      "total_count": 7,
      "available_count": 6,
      "total_percent": 85.7,
      "slow_total": 7,
      "slow_avail": 6,
      "slow_percent": 85.7,
      "fast_total": 0,
      "fast_avail": 0,
      "fast_percent": 0.0,
      "latest_update": "20260714051636"
    },
    {
      "station_id": "EV017148",
      "name": "서울송파 위례아이파크2차",
      "address": "서울특별시 송파구 위례광장로 230",
      "lat": "37.4786198",
      "lng": "127.1435334",
      "total_count": 7,
      "available_count": 5,
      "total_percent": 71.4,
      "slow_total": 7,
      "slow_avail": 5,
      "slow_percent": 71.4,
      "fast_total": 0,
      "fast_avail": 0,
      "fast_percent": 0.0,
      "latest_update": "20260714093906"
    },
    {
      "station_id": "HM000646",
      "name": "송파푸르지오시티",
      "address": "서울특별시 송파구 새말로 62",
      "lat": "37.4807968",
      "lng": "127.1214582",
      "total_count": 7,
      "available_count": 6,
      "total_percent": 85.7,
      "slow_total": 7,
      "slow_avail": 6,
      "slow_percent": 85.7,
      "fast_total": 0,
      "fast_avail": 0,
      "fast_percent": 0.0,
      "latest_update": "20260714070807"
    },
    {
      "station_id": "HM110016",
      "name": "Tower730",
      "address": "서울 송파구 송파대로 570",
      "lat": "37.5157751",
      "lng": "127.0990622",
      "total_count": 7,
      "available_count": 4,
      "total_percent": 57.1,
      "slow_total": 7,
      "slow_avail": 4,
      "slow_percent": 57.1,
      "fast_total": 0,
      "fast_avail": 0,
      "fast_percent": 0.0,
      "latest_update": "20260714094618"
    },
    {
      "station_id": "JA110076",
      "name": "롯데월드 어드벤처(호텔구역) 서울",
      "address": "서울특별시 송파구 올림픽로 240",
      "lat": "37.511264",
      "lng": "127.1002351",
      "total_count": 7,
      "available_count": 7,
      "total_percent": 100.0,
      "slow_total": 5,
      "slow_avail": 5,
      "slow_percent": 100.0,
      "fast_total": 2,
      "fast_avail": 2,
      "fast_percent": 100.0,
      "latest_update": "20260714065006"
    },
    {
      "station_id": "KP002873",
      "name": "송파꿈에그린(위례24단지)",
      "address": "서울특별시 송파구 장지동 516",
      "lat": "37.47592327474",
      "lng": "127.1390103411",
      "total_count": 7,
      "available_count": 7,
      "total_percent": 100.0,
      "slow_total": 7,
      "slow_avail": 7,
      "slow_percent": 100.0,
      "fast_total": 0,
      "fast_avail": 0,
      "fast_percent": 0.0,
      "latest_update": "20260714033018"
    },
    {
      "station_id": "LU002378",
      "name": "송파한양1차아파트",
      "address": "서울특별시 송파구 가락로 187",
      "lat": "37.494577",
      "lng": "127.134916",
      "total_count": 7,
      "available_count": 6,
      "total_percent": 85.7,
      "slow_total": 7,
      "slow_avail": 6,
      "slow_percent": 85.7,
      "fast_total": 0,
      "fast_avail": 0,
      "fast_percent": 0.0,
      "latest_update": "20260714092846"
    },
    {
      "station_id": "LU003358",
      "name": "가락대림아파트",
      "address": "서울특별시 송파구 송이로 88",
      "lat": "37.499491",
      "lng": "127.118311",
      "total_count": 7,
      "available_count": 6,
      "total_percent": 85.7,
      "slow_total": 7,
      "slow_avail": 6,
      "slow_percent": 85.7,
      "fast_total": 0,
      "fast_avail": 0,
      "fast_percent": 0.0,
      "latest_update": "20260714075426"
    },
    {
      "station_id": "NT102646",
      "name": "송파 위례아이파크",
      "address": "서울특별시 송파구 위례광장로 136",
      "lat": "37.47719",
      "lng": "127.14237",
      "total_count": 7,
      "available_count": 7,
      "total_percent": 100.0,
      "slow_total": 7,
      "slow_avail": 7,
      "slow_percent": 100.0,
      "fast_total": 0,
      "fast_avail": 0,
      "fast_percent": 0.0,
      "latest_update": "20260714075350"
    },
    {
      "station_id": "PI200386",
      "name": "서울시 송파구 문정엠스테이트",
      "address": "서울특별시 송파구 법원로 114",
      "lat": "37.486055279780",
      "lng": "127.1210093821",
      "total_count": 7,
      "available_count": 3,
      "total_percent": 42.9,
      "slow_total": 7,
      "slow_avail": 3,
      "slow_percent": 42.9,
      "fast_total": 0,
      "fast_avail": 0,
      "fast_percent": 0.0,
      "latest_update": "20260714094613"
    },
    {
      "station_id": "PI710321",
      "name": "송파파인타운3단지B",
      "address": "서울특별시 송파구 충민로 152",
      "lat": "37.484302700",
      "lng": "127.13310121",
      "total_count": 7,
      "available_count": 7,
      "total_percent": 100.0,
      "slow_total": 7,
      "slow_avail": 7,
      "slow_percent": 100.0,
      "fast_total": 0,
      "fast_avail": 0,
      "fast_percent": 0.0,
      "latest_update": "20260714080527"
    },
    {
      "station_id": "PI807805",
      "name": "서울 송파구 송파롯데캐슬파인힐",
      "address": "서울특별시 송파구 중대로 121",
      "lat": "37.4943521",
      "lng": "127.1214124",
      "total_count": 7,
      "available_count": 7,
      "total_percent": 100.0,
      "slow_total": 7,
      "slow_avail": 7,
      "slow_percent": 100.0,
      "fast_total": 0,
      "fast_avail": 0,
      "fast_percent": 0.0,
      "latest_update": "20260714080806"
    },
    {
      "station_id": "PL033284",
      "name": "가락동부센트레빌아파트",
      "address": "서울 송파구 송파대로32길 33",
      "lat": "37.4983324",
      "lng": "127.1163372",
      "total_count": 7,
      "available_count": 7,
      "total_percent": 100.0,
      "slow_total": 7,
      "slow_avail": 7,
      "slow_percent": 100.0,
      "fast_total": 0,
      "fast_avail": 0,
      "fast_percent": 0.0,
      "latest_update": "20260714090936"
    },
    {
      "station_id": "PW010068",
      "name": "가락금호아파트",
      "address": "서울특별시 송파구 송파대로32길 15",
      "lat": "37.4965832220",
      "lng": "127.115757765",
      "total_count": 7,
      "available_count": 7,
      "total_percent": 100.0,
      "slow_total": 7,
      "slow_avail": 7,
      "slow_percent": 100.0,
      "fast_total": 0,
      "fast_avail": 0,
      "fast_percent": 0.0,
      "latest_update": "20260519112012"
    },
    {
      "station_id": "ME19Y601",
      "name": "가락시장",
      "address": "서울특별시 송파구 양재대로 932",
      "lat": "37.494161",
      "lng": "127.113843",
      "total_count": 6,
      "available_count": 6,
      "total_percent": 100.0,
      "slow_total": 0,
      "slow_avail": 0,
      "slow_percent": 0.0,
      "fast_total": 6,
      "fast_avail": 6,
      "fast_percent": 100.0,
      "latest_update": "20260714101721"
    },
    {
      "station_id": "CGA00068",
      "name": "송파 잠실 엘스_122동",
      "address": "서울특별시 송파구 올림픽로 99",
      "lat": "37.51264553",
      "lng": "127.0848767",
      "total_count": 6,
      "available_count": 6,
      "total_percent": 100.0,
      "slow_total": 6,
      "slow_avail": 6,
      "slow_percent": 100.0,
      "fast_total": 0,
      "fast_avail": 0,
      "fast_percent": 0.0,
      "latest_update": "20260714091508"
    },
    {
      "station_id": "CGA00072",
      "name": "송파 잠실 엘스_152동",
      "address": "서울특별시 송파구 올림픽로 99",
      "lat": "37.51499147",
      "lng": "127.080106",
      "total_count": 6,
      "available_count": 6,
      "total_percent": 100.0,
      "slow_total": 6,
      "slow_avail": 6,
      "slow_percent": 100.0,
      "fast_total": 0,
      "fast_avail": 0,
      "fast_percent": 0.0,
      "latest_update": "20260714061512"
    },
    {
      "station_id": "CGA00073",
      "name": "송파 잠실 엘스_163동",
      "address": "서울특별시 송파구 올림픽로 99",
      "lat": "37.51389257",
      "lng": "127.0796298",
      "total_count": 6,
      "available_count": 5,
      "total_percent": 83.3,
      "slow_total": 6,
      "slow_avail": 5,
      "slow_percent": 83.3,
      "fast_total": 0,
      "fast_avail": 0,
      "fast_percent": 0.0,
      "latest_update": "20260714093012"
    },
    {
      "station_id": "CGA00076",
      "name": "송파 잠실 엘스_157동",
      "address": "서울특별시 송파구 올림픽로 99",
      "lat": "37.51512524",
      "lng": "127.07813",
      "total_count": 6,
      "available_count": 6,
      "total_percent": 100.0,
      "slow_total": 6,
      "slow_avail": 6,
      "slow_percent": 100.0,
      "fast_total": 0,
      "fast_avail": 0,
      "fast_percent": 0.0,
      "latest_update": "20260714094507"
    },
    {
      "station_id": "CGA00077",
      "name": "송파 잠실 엘스_161동",
      "address": "서울특별시 송파구 올림픽로 99",
      "lat": "37.5143435",
      "lng": "127.0789968",
      "total_count": 6,
      "available_count": 5,
      "total_percent": 83.3,
      "slow_total": 6,
      "slow_avail": 5,
      "slow_percent": 83.3,
      "fast_total": 0,
      "fast_avail": 0,
      "fast_percent": 0.0,
      "latest_update": "20260714091514"
    },
    {
      "station_id": "CGA00078",
      "name": "송파 잠실 엘스_150동",
      "address": "서울특별시 송파구 올림픽로 99",
      "lat": "37.51546914",
      "lng": "127.0799029",
      "total_count": 6,
      "available_count": 5,
      "total_percent": 83.3,
      "slow_total": 6,
      "slow_avail": 5,
      "slow_percent": 83.3,
      "fast_total": 0,
      "fast_avail": 0,
      "fast_percent": 0.0,
      "latest_update": "20260714084512"
    },
    {
      "station_id": "CGA00079",
      "name": "송파 잠실 엘스_155동",
      "address": "서울특별시 송파구 올림픽로 99",
      "lat": "37.51506424",
      "lng": "127.0790881",
      "total_count": 6,
      "available_count": 6,
      "total_percent": 100.0,
      "slow_total": 6,
      "slow_avail": 6,
      "slow_percent": 100.0,
      "fast_total": 0,
      "fast_avail": 0,
      "fast_percent": 0.0,
      "latest_update": "20260714073010"
    },
    {
      "station_id": "CGA00152",
      "name": "송파 오금우방아파트",
      "address": "서울특별시 송파구 성내천로 87",
      "lat": "37.5012704",
      "lng": "127.1397425",
      "total_count": 6,
      "available_count": 5,
      "total_percent": 83.3,
      "slow_total": 6,
      "slow_avail": 5,
      "slow_percent": 83.3,
      "fast_total": 0,
      "fast_avail": 0,
      "fast_percent": 0.0,
      "latest_update": "20260714074511"
    },
    {
      "station_id": "CV001061",
      "name": "잠실역공영주차장",
      "address": "서울특별시 송파구 올림픽로 300",
      "lat": "37.5171634",
      "lng": "127.104248",
      "total_count": 6,
      "available_count": 1,
      "total_percent": 16.7,
      "slow_total": 6,
      "slow_avail": 1,
      "slow_percent": 16.7,
      "fast_total": 0,
      "fast_avail": 0,
      "fast_percent": 0.0,
      "latest_update": "20260714100523"
    },
    {
      "station_id": "EC110116",
      "name": "대림가락아파트 2동",
      "address": "서울특별시 송파구 양재대로 1109",
      "lat": "37.506862343",
      "lng": "127.12418374",
      "total_count": 6,
      "available_count": 6,
      "total_percent": 100.0,
      "slow_total": 6,
      "slow_avail": 6,
      "slow_percent": 100.0,
      "fast_total": 0,
      "fast_avail": 0,
      "fast_percent": 0.0,
      "latest_update": "20260714082602"
    },
    {
      "station_id": "EV005021",
      "name": "서울송파 송파체육문화회관",
      "address": "서울특별시 송파구 양산로 15",
      "lat": "37.4905949",
      "lng": "127.1428172",
      "total_count": 6,
      "available_count": 6,
      "total_percent": 100.0,
      "slow_total": 0,
      "slow_avail": 0,
      "slow_percent": 0.0,
      "fast_total": 6,
      "fast_avail": 6,
      "fast_percent": 100.0,
      "latest_update": "20260714095024"
    },
    {
      "station_id": "EV008755",
      "name": "서울송파 롯데캐슬골드1",
      "address": "서울특별시 송파구 올림픽로 269",
      "lat": "37.5144273",
      "lng": "127.1006114",
      "total_count": 6,
      "available_count": 6,
      "total_percent": 100.0,
      "slow_total": 6,
      "slow_avail": 6,
      "slow_percent": 100.0,
      "fast_total": 0,
      "fast_avail": 0,
      "fast_percent": 0.0,
      "latest_update": "20260714083628"
    },
    {
      "station_id": "EV008756",
      "name": "서울송파 롯데캐슬골드2",
      "address": "서울특별시 송파구 올림픽로 269",
      "lat": "37.5144273",
      "lng": "127.1006114",
      "total_count": 6,
      "available_count": 6,
      "total_percent": 100.0,
      "slow_total": 6,
      "slow_avail": 6,
      "slow_percent": 100.0,
      "fast_total": 0,
      "fast_avail": 0,
      "fast_percent": 0.0,
      "latest_update": "20260714082622"
    },
    {
      "station_id": "EV010082",
      "name": "서울송파 경찰병원",
      "address": "서울특별시 송파구 송이로 123",
      "lat": "37.4962473",
      "lng": "127.1234825",
      "total_count": 6,
      "available_count": 1,
      "total_percent": 16.7,
      "slow_total": 4,
      "slow_avail": 1,
      "slow_percent": 25.0,
      "fast_total": 2,
      "fast_avail": 0,
      "fast_percent": 0.0,
      "latest_update": "20260714100723"
    },
    {
      "station_id": "EV012085",
      "name": "서울송파 에이치비즈니스파크A 1",
      "address": "서울특별시 송파구 법원로11길 25",
      "lat": "37.4849481",
      "lng": "127.1162277",
      "total_count": 6,
      "available_count": 2,
      "total_percent": 33.3,
      "slow_total": 6,
      "slow_avail": 2,
      "slow_percent": 33.3,
      "fast_total": 0,
      "fast_avail": 0,
      "fast_percent": 0.0,
      "latest_update": "20260714101328"
    },
    {
      "station_id": "EV012086",
      "name": "서울송파 에이치비즈니스파크A 2",
      "address": "서울특별시 송파구 법원로11길 25 (문정동)",
      "lat": "37.4849481",
      "lng": "127.1162277",
      "total_count": 6,
      "available_count": 0,
      "total_percent": 0.0,
      "slow_total": 6,
      "slow_avail": 0,
      "slow_percent": 0.0,
      "fast_total": 0,
      "fast_avail": 0,
      "fast_percent": 0.0,
      "latest_update": "20260714101328"
    },
    {
      "station_id": "EV012088",
      "name": "서울송파 에이치비즈니스파크C 2",
      "address": "서울특별시 송파구 법원로11길 25",
      "lat": "37.4849481",
      "lng": "127.1162277",
      "total_count": 6,
      "available_count": 1,
      "total_percent": 16.7,
      "slow_total": 6,
      "slow_avail": 1,
      "slow_percent": 16.7,
      "fast_total": 0,
      "fast_avail": 0,
      "fast_percent": 0.0,
      "latest_update": "20260714095718"
    },
    {
      "station_id": "EV012101",
      "name": "서울송파 가락래미안파크팰리스 1(콘센트)",
      "address": "서울특별시 송파구 동남로 225 (가락동, 래미안파크팰리스)",
      "lat": "37.4980047",
      "lng": "127.1308682",
      "total_count": 6,
      "available_count": 6,
      "total_percent": 100.0,
      "slow_total": 6,
      "slow_avail": 6,
      "slow_percent": 100.0,
      "fast_total": 0,
      "fast_avail": 0,
      "fast_percent": 0.0,
      "latest_update": "20260714053844"
    },
    {
      "station_id": "EV012102",
      "name": "서울송파 가락래미안파크팰리스 2(콘센트)",
      "address": "서울특별시 송파구 동남로 225 (가락동, 래미안파크팰리스)",
      "lat": "37.4980047",
      "lng": "127.1308682",
      "total_count": 6,
      "available_count": 6,
      "total_percent": 100.0,
      "slow_total": 6,
      "slow_avail": 6,
      "slow_percent": 100.0,
      "fast_total": 0,
      "fast_avail": 0,
      "fast_percent": 0.0,
      "latest_update": "20260712124119"
    },
    {
      "station_id": "EV012103",
      "name": "서울송파 가락래미안파크팰리스 3(콘센트)",
      "address": "서울특별시 송파구 동남로 225 (가락동, 래미안파크팰리스)",
      "lat": "37.4980047",
      "lng": "127.1308682",
      "total_count": 6,
      "available_count": 6,
      "total_percent": 100.0,
      "slow_total": 6,
      "slow_avail": 6,
      "slow_percent": 100.0,
      "fast_total": 0,
      "fast_avail": 0,
      "fast_percent": 0.0,
      "latest_update": "20260713073706"
    },
    {
      "station_id": "EV012104",
      "name": "서울송파 가락래미안파크팰리스 4(콘센트)",
      "address": "서울특별시 송파구 동남로 225 (가락동, 래미안파크팰리스)",
      "lat": "37.4980047",
      "lng": "127.1308682",
      "total_count": 6,
      "available_count": 6,
      "total_percent": 100.0,
      "slow_total": 6,
      "slow_avail": 6,
      "slow_percent": 100.0,
      "fast_total": 0,
      "fast_avail": 0,
      "fast_percent": 0.0,
      "latest_update": "20260713204529"
    },
    {
      "station_id": "EV012105",
      "name": "서울송파 가락래미안파크팰리스 5(콘센트)",
      "address": "서울특별시 송파구 동남로 225 (가락동, 래미안파크팰리스)",
      "lat": "37.4980047",
      "lng": "127.1308682",
      "total_count": 6,
      "available_count": 6,
      "total_percent": 100.0,
      "slow_total": 6,
      "slow_avail": 6,
      "slow_percent": 100.0,
      "fast_total": 0,
      "fast_avail": 0,
      "fast_percent": 0.0,
      "latest_update": "20260714101827"
    },
    {
      "station_id": "EV012106",
      "name": "서울송파 가락래미안파크팰리스 6(콘센트)",
      "address": "서울특별시 송파구 동남로 225 (가락동, 래미안파크팰리스)",
      "lat": "37.4980047",
      "lng": "127.1308682",
      "total_count": 6,
      "available_count": 5,
      "total_percent": 83.3,
      "slow_total": 6,
      "slow_avail": 5,
      "slow_percent": 83.3,
      "fast_total": 0,
      "fast_avail": 0,
      "fast_percent": 0.0,
      "latest_update": "20260712140813"
    },
    {
      "station_id": "EV012107",
      "name": "서울송파 가락래미안파크팰리스 7(콘센트)",
      "address": "서울특별시 송파구 동남로 225 (가락동, 래미안파크팰리스)",
      "lat": "37.4980047",
      "lng": "127.1308682",
      "total_count": 6,
      "available_count": 6,
      "total_percent": 100.0,
      "slow_total": 6,
      "slow_avail": 6,
      "slow_percent": 100.0,
      "fast_total": 0,
      "fast_avail": 0,
      "fast_percent": 0.0,
      "latest_update": "20260701075904"
    },
    {
      "station_id": "EV012562",
      "name": "서울송파 가락래미안파크팰리스 9(콘센트)",
      "address": "서울특별시 송파구 동남로 225 (가락동, 래미안파크팰리스)",
      "lat": "37.4980047",
      "lng": "127.1308682",
      "total_count": 6,
      "available_count": 4,
      "total_percent": 66.7,
      "slow_total": 6,
      "slow_avail": 4,
      "slow_percent": 66.7,
      "fast_total": 0,
      "fast_avail": 0,
      "fast_percent": 0.0,
      "latest_update": "20260618134810"
    },
    {
      "station_id": "EV013435",
      "name": "서울송파 월드타워",
      "address": "서울특별시 송파구 송파대로 558",
      "lat": "37.5150847",
      "lng": "127.0996972",
      "total_count": 6,
      "available_count": 5,
      "total_percent": 83.3,
      "slow_total": 6,
      "slow_avail": 5,
      "slow_percent": 83.3,
      "fast_total": 0,
      "fast_avail": 0,
      "fast_percent": 0.0,
      "latest_update": "20260714095113"
    },
    {
      "station_id": "EV013538",
      "name": "서울송파 문정역SKV1 2거점",
      "address": "서울특별시 송파구 법원로 128 (문정동)",
      "lat": "37.4868714",
      "lng": "127.1204540",
      "total_count": 6,
      "available_count": 2,
      "total_percent": 33.3,
      "slow_total": 6,
      "slow_avail": 2,
      "slow_percent": 33.3,
      "fast_total": 0,
      "fast_avail": 0,
      "fast_percent": 0.0,
      "latest_update": "20260714101931"
    },
    {
      "station_id": "EV017149",
      "name": "서울송파 위례아이파크",
      "address": "서울특별시 송파구 위례광장로 136",
      "lat": "37.4771958",
      "lng": "127.1423748",
      "total_count": 6,
      "available_count": 5,
      "total_percent": 83.3,
      "slow_total": 6,
      "slow_avail": 5,
      "slow_percent": 83.3,
      "fast_total": 0,
      "fast_avail": 0,
      "fast_percent": 0.0,
      "latest_update": "20260713234520"
    },
    {
      "station_id": "EV017503",
      "name": "서울송파 잠실트리지움 2",
      "address": "서울특별시 송파구 잠실로 62",
      "lat": "37.509503293",
      "lng": "127.08794114",
      "total_count": 6,
      "available_count": 6,
      "total_percent": 100.0,
      "slow_total": 6,
      "slow_avail": 6,
      "slow_percent": 100.0,
      "fast_total": 0,
      "fast_avail": 0,
      "fast_percent": 0.0,
      "latest_update": "20260714093303"
    },
    {
      "station_id": "EV017505",
      "name": "서울송파 잠실트리지움 4",
      "address": "서울특별시 송파구 잠실로 62",
      "lat": "37.509871049",
      "lng": "127.08713570",
      "total_count": 6,
      "available_count": 5,
      "total_percent": 83.3,
      "slow_total": 6,
      "slow_avail": 5,
      "slow_percent": 83.3,
      "fast_total": 0,
      "fast_avail": 0,
      "fast_percent": 0.0,
      "latest_update": "20260714064923"
    },
    {
      "station_id": "EV017507",
      "name": "서울송파 잠실트리지움 6",
      "address": "서울특별시 송파구 잠실로 62",
      "lat": "37.510983090",
      "lng": "127.08807860",
      "total_count": 6,
      "available_count": 6,
      "total_percent": 100.0,
      "slow_total": 6,
      "slow_avail": 6,
      "slow_percent": 100.0,
      "fast_total": 0,
      "fast_avail": 0,
      "fast_percent": 0.0,
      "latest_update": "20260714092458"
    },
    {
      "station_id": "EV017509",
      "name": "서울송파 잠실트리지움 8",
      "address": "서울특별시 송파구 잠실로 62",
      "lat": "37.510979494",
      "lng": "127.08986285",
      "total_count": 6,
      "available_count": 6,
      "total_percent": 100.0,
      "slow_total": 6,
      "slow_avail": 6,
      "slow_percent": 100.0,
      "fast_total": 0,
      "fast_avail": 0,
      "fast_percent": 0.0,
      "latest_update": "20260714083308"
    },
    {
      "station_id": "EV017511",
      "name": "서울송파 잠실트리지움 10",
      "address": "서울특별시 송파구 잠실로 62",
      "lat": "37.509546463",
      "lng": "127.09043231",
      "total_count": 6,
      "available_count": 4,
      "total_percent": 66.7,
      "slow_total": 6,
      "slow_avail": 4,
      "slow_percent": 66.7,
      "fast_total": 0,
      "fast_avail": 0,
      "fast_percent": 0.0,
      "latest_update": "20260714094510"
    },
    {
      "station_id": "EV017513",
      "name": "서울송파 잠실트리지움 12",
      "address": "서울특별시 송파구 잠실로 62",
      "lat": "37.510032199",
      "lng": "127.09147911",
      "total_count": 6,
      "available_count": 5,
      "total_percent": 83.3,
      "slow_total": 6,
      "slow_avail": 5,
      "slow_percent": 83.3,
      "fast_total": 0,
      "fast_avail": 0,
      "fast_percent": 0.0,
      "latest_update": "20260714081013"
    },
    {
      "station_id": "EV018634",
      "name": "서울송파 거여현대1차아파트 1",
      "address": "서울특별시 송파구 오금로54길 10",
      "lat": "37.4936148",
      "lng": "127.1410684",
      "total_count": 6,
      "available_count": 6,
      "total_percent": 100.0,
      "slow_total": 6,
      "slow_avail": 6,
      "slow_percent": 100.0,
      "fast_total": 0,
      "fast_avail": 0,
      "fast_percent": 0.0,
      "latest_update": "20260714090044"
    },
    {
      "station_id": "EV018782",
      "name": "서울송파 가든파이브라이프 6",
      "address": "서울특별시 송파구 충민로 66",
      "lat": "37.4776148",
      "lng": "127.1249618",
      "total_count": 6,
      "available_count": 6,
      "total_percent": 100.0,
      "slow_total": 6,
      "slow_avail": 6,
      "slow_percent": 100.0,
      "fast_total": 0,
      "fast_avail": 0,
      "fast_percent": 0.0,
      "latest_update": "20260714000129"
    },
    {
      "station_id": "EV018783",
      "name": "서울송파 가든파이브라이프 7",
      "address": "서울특별시 송파구 충민로 66",
      "lat": "37.4776148",
      "lng": "127.1249618",
      "total_count": 6,
      "available_count": 6,
      "total_percent": 100.0,
      "slow_total": 6,
      "slow_avail": 6,
      "slow_percent": 100.0,
      "fast_total": 0,
      "fast_avail": 0,
      "fast_percent": 0.0,
      "latest_update": "20260714093303"
    },
    {
      "station_id": "EV018784",
      "name": "서울송파 가든파이브라이프 8",
      "address": "서울특별시 송파구 충민로 66",
      "lat": "37.4776148",
      "lng": "127.1249618",
      "total_count": 6,
      "available_count": 6,
      "total_percent": 100.0,
      "slow_total": 6,
      "slow_avail": 6,
      "slow_percent": 100.0,
      "fast_total": 0,
      "fast_avail": 0,
      "fast_percent": 0.0,
      "latest_update": "20260713162230"
    },
    {
      "station_id": "EV018785",
      "name": "서울송파 가든파이브라이프 9",
      "address": "서울특별시 송파구 충민로 66",
      "lat": "37.4776148",
      "lng": "127.1249618",
      "total_count": 6,
      "available_count": 6,
      "total_percent": 100.0,
      "slow_total": 6,
      "slow_avail": 6,
      "slow_percent": 100.0,
      "fast_total": 0,
      "fast_avail": 0,
      "fast_percent": 0.0,
      "latest_update": "20260713201103"
    },
    {
      "station_id": "EV018786",
      "name": "서울송파 가든파이브라이프 10",
      "address": "서울특별시 송파구 충민로 66",
      "lat": "37.4776148",
      "lng": "127.1249618",
      "total_count": 6,
      "available_count": 5,
      "total_percent": 83.3,
      "slow_total": 6,
      "slow_avail": 5,
      "slow_percent": 83.3,
      "fast_total": 0,
      "fast_avail": 0,
      "fast_percent": 0.0,
      "latest_update": "20260714044131"
    },
    {
      "station_id": "EV018787",
      "name": "서울송파 가든파이브라이프 11",
      "address": "서울특별시 송파구 충민로 66",
      "lat": "37.4776148",
      "lng": "127.1249618",
      "total_count": 6,
      "available_count": 4,
      "total_percent": 66.7,
      "slow_total": 6,
      "slow_avail": 4,
      "slow_percent": 66.7,
      "fast_total": 0,
      "fast_avail": 0,
      "fast_percent": 0.0,
      "latest_update": "20260714100924"
    },
    {
      "station_id": "EZ002307",
      "name": "급속 삼전근린공원",
      "address": "서울특별시 송파구 백제고분로 240",
      "lat": "37.5027114",
      "lng": "127.0930378",
      "total_count": 6,
      "available_count": 0,
      "total_percent": 0.0,
      "slow_total": 0,
      "slow_avail": 0,
      "slow_percent": 0.0,
      "fast_total": 6,
      "fast_avail": 0,
      "fast_percent": 0.0,
      "latest_update": "20260601113310"
    },
    {
      "station_id": "HD000023",
      "name": "송파 가락몰 E-pit",
      "address": "서울특별시 송파구 양재대로 932",
      "lat": "37.4958524",
      "lng": "127.1149803",
      "total_count": 6,
      "available_count": 5,
      "total_percent": 83.3,
      "slow_total": 0,
      "slow_avail": 0,
      "slow_percent": 0.0,
      "fast_total": 6,
      "fast_avail": 5,
      "fast_percent": 83.3,
      "latest_update": "20260714102100"
    },
    {
      "station_id": "HM110333",
      "name": "_제일오피스텔(송파)",
      "address": "서울특별시 송파구 송파대로 260",
      "lat": "37.493139",
      "lng": "127.1188648",
      "total_count": 6,
      "available_count": 5,
      "total_percent": 83.3,
      "slow_total": 6,
      "slow_avail": 5,
      "slow_percent": 83.3,
      "fast_total": 0,
      "fast_avail": 0,
      "fast_percent": 0.0,
      "latest_update": "20260714080419"
    },
    {
      "station_id": "JA110078",
      "name": "롯데월드 어드벤처(백화점구역)",
      "address": "서울특별시 송파구 올림픽로 240",
      "lat": "37.5117927",
      "lng": "127.0983356",
      "total_count": 6,
      "available_count": 6,
      "total_percent": 100.0,
      "slow_total": 6,
      "slow_avail": 6,
      "slow_percent": 100.0,
      "fast_total": 0,
      "fast_avail": 0,
      "fast_percent": 0.0,
      "latest_update": "20260713211406"
    },
    {
      "station_id": "JA110151",
      "name": "송파구 더샵스타리버",
      "address": "서울특별시 송파구 올림픽로35길 93",
      "lat": "37.517773277",
      "lng": "127.10439265",
      "total_count": 6,
      "available_count": 5,
      "total_percent": 83.3,
      "slow_total": 4,
      "slow_avail": 3,
      "slow_percent": 75.0,
      "fast_total": 2,
      "fast_avail": 2,
      "fast_percent": 100.0,
      "latest_update": "20260713211412"
    },
    {
      "station_id": "KP000687",
      "name": "가락쌍용1차 아파트",
      "address": "서울특별시 송파구 가락동 동남로 193",
      "lat": "37.4946987694",
      "lng": "127.1292251319",
      "total_count": 6,
      "available_count": 5,
      "total_percent": 83.3,
      "slow_total": 4,
      "slow_avail": 3,
      "slow_percent": 75.0,
      "fast_total": 2,
      "fast_avail": 2,
      "fast_percent": 100.0,
      "latest_update": "20260714083023"
    },
    {
      "station_id": "LU100473",
      "name": "송파신성노바빌아파트",
      "address": "서울특별시 송파구 한가람로 468",
      "lat": "37.5383136",
      "lng": "127.1168792",
      "total_count": 6,
      "available_count": 6,
      "total_percent": 100.0,
      "slow_total": 6,
      "slow_avail": 6,
      "slow_percent": 100.0,
      "fast_total": 0,
      "fast_avail": 0,
      "fast_percent": 0.0,
      "latest_update": "20260713214539"
    },
    {
      "station_id": "NT101108",
      "name": "마천 신동아아파트",
      "address": "서울특별시 송파구 성내천로21길 11",
      "lat": "37.5000259",
      "lng": "127.1443661",
      "total_count": 6,
      "available_count": 6,
      "total_percent": 100.0,
      "slow_total": 6,
      "slow_avail": 6,
      "slow_percent": 100.0,
      "fast_total": 0,
      "fast_avail": 0,
      "fast_percent": 0.0,
      "latest_update": "20260714072250"
    },
    {
      "station_id": "NT101490",
      "name": "송파 위례아이온스퀘어",
      "address": "서울특별시 송파구 위례광장로 188",
      "lat": "37.48108",
      "lng": "127.14239",
      "total_count": 6,
      "available_count": 5,
      "total_percent": 83.3,
      "slow_total": 6,
      "slow_avail": 5,
      "slow_percent": 83.3,
      "fast_total": 0,
      "fast_avail": 0,
      "fast_percent": 0.0,
      "latest_update": "20260714101050"
    },
    {
      "station_id": "NT101512",
      "name": "송파 수아주오피스텔",
      "address": "서울특별시 송파구 위례송파로5길 18",
      "lat": "37.48682",
      "lng": "127.14304",
      "total_count": 6,
      "available_count": 4,
      "total_percent": 66.7,
      "slow_total": 6,
      "slow_avail": 4,
      "slow_percent": 66.7,
      "fast_total": 0,
      "fast_avail": 0,
      "fast_percent": 0.0,
      "latest_update": "20260714094750"
    },
    {
      "station_id": "PC000558",
      "name": "마천금호아파트(송파)",
      "address": "서울특별시 송파구 마천로57길 16",
      "lat": "37.494688",
      "lng": "127.153369",
      "total_count": 6,
      "available_count": 5,
      "total_percent": 83.3,
      "slow_total": 6,
      "slow_avail": 5,
      "slow_percent": 83.3,
      "fast_total": 0,
      "fast_avail": 0,
      "fast_percent": 0.0,
      "latest_update": "20260714084019"
    },
    {
      "station_id": "PI201575",
      "name": "서울시 송파구 NH송파농협",
      "address": "서울특별시 송파구 송파대로 155",
      "lat": "37.4841",
      "lng": "127.123",
      "total_count": 6,
      "available_count": 4,
      "total_percent": 66.7,
      "slow_total": 6,
      "slow_avail": 4,
      "slow_percent": 66.7,
      "fast_total": 0,
      "fast_avail": 0,
      "fast_percent": 0.0,
      "latest_update": "20260714072134"
    },
    {
      "station_id": "PI723171",
      "name": "송파레미니스아파트102동",
      "address": "서울특별시 송파구 성내천로 6",
      "lat": "37.508292234",
      "lng": "127.13486860",
      "total_count": 6,
      "available_count": 5,
      "total_percent": 83.3,
      "slow_total": 6,
      "slow_avail": 5,
      "slow_percent": 83.3,
      "fast_total": 0,
      "fast_avail": 0,
      "fast_percent": 0.0,
      "latest_update": "20260714094311"
    },
    {
      "station_id": "PI760025",
      "name": "거여6단지아파트",
      "address": "서울특별시 송파구 양산로2길 38",
      "lat": "37.4884642",
      "lng": "127.1461865",
      "total_count": 6,
      "available_count": 3,
      "total_percent": 50.0,
      "slow_total": 6,
      "slow_avail": 3,
      "slow_percent": 50.0,
      "fast_total": 0,
      "fast_avail": 0,
      "fast_percent": 0.0,
      "latest_update": "20260714080022"
    },
    {
      "station_id": "PI760051",
      "name": "서울시설공단복정역",
      "address": "서울특별시 송파구 성남대로 1576",
      "lat": "37.4705534",
      "lng": "127.1274406",
      "total_count": 6,
      "available_count": 4,
      "total_percent": 66.7,
      "slow_total": 6,
      "slow_avail": 4,
      "slow_percent": 66.7,
      "fast_total": 0,
      "fast_avail": 0,
      "fast_percent": 0.0,
      "latest_update": "20260714083017"
    },
    {
      "station_id": "PI772135",
      "name": "금호어울림1차아파트",
      "address": "서울특별시 송파구 성내천로 245",
      "lat": "37.4983952",
      "lng": "127.1547692",
      "total_count": 6,
      "available_count": 6,
      "total_percent": 100.0,
      "slow_total": 6,
      "slow_avail": 6,
      "slow_percent": 100.0,
      "fast_total": 0,
      "fast_avail": 0,
      "fast_percent": 0.0,
      "latest_update": "20260714065222"
    },
    {
      "station_id": "PI773050",
      "name": "풍납극동아파트",
      "address": "서울특별시 송파구 올림픽로45길 11",
      "lat": "37.5271173",
      "lng": "127.1162034",
      "total_count": 6,
      "available_count": 6,
      "total_percent": 100.0,
      "slow_total": 6,
      "slow_avail": 6,
      "slow_percent": 100.0,
      "fast_total": 0,
      "fast_avail": 0,
      "fast_percent": 0.0,
      "latest_update": "20260714094250"
    },
    {
      "station_id": "PIH00316",
      "name": "서울 풍납동 신성노바빌아파트",
      "address": "서울특별시 송파구 한가람로 468",
      "lat": "37.538519843",
      "lng": "127.11678545",
      "total_count": 6,
      "available_count": 6,
      "total_percent": 100.0,
      "slow_total": 6,
      "slow_avail": 6,
      "slow_percent": 100.0,
      "fast_total": 0,
      "fast_avail": 0,
      "fast_percent": 0.0,
      "latest_update": "20260713211229"
    },
    {
      "station_id": "PL000806",
      "name": "잠실리시온",
      "address": "서울특별시 송파구 오금로 87",
      "lat": "37.5146092",
      "lng": "127.1074248",
      "total_count": 6,
      "available_count": 4,
      "total_percent": 66.7,
      "slow_total": 6,
      "slow_avail": 4,
      "slow_percent": 66.7,
      "fast_total": 0,
      "fast_avail": 0,
      "fast_percent": 0.0,
      "latest_update": "20260714091226"
    },
    {
      "station_id": "PL004624",
      "name": "가락우창아파트",
      "address": "서울특별시 송파구 동남로24길 6",
      "lat": "37.4994376",
      "lng": "127.1371114",
      "total_count": 6,
      "available_count": 3,
      "total_percent": 50.0,
      "slow_total": 6,
      "slow_avail": 3,
      "slow_percent": 50.0,
      "fast_total": 0,
      "fast_avail": 0,
      "fast_percent": 0.0,
      "latest_update": "20260714072630"
    },
    {
      "station_id": "PL032960",
      "name": "풍납현대아파트",
      "address": "서울 송파구 올림픽로 525",
      "lat": "37.5301130",
      "lng": "127.1193553",
      "total_count": 6,
      "available_count": 4,
      "total_percent": 66.7,
      "slow_total": 6,
      "slow_avail": 4,
      "slow_percent": 66.7,
      "fast_total": 0,
      "fast_avail": 0,
      "fast_percent": 0.0,
      "latest_update": "20260714085739"
    },
    {
      "station_id": "ME19X403",
      "name": "서울올림픽공원 남2문주차장",
      "address": "서울특별시 송파구 올림픽로",
      "lat": "37.514973",
      "lng": "127.123837",
      "total_count": 5,
      "available_count": 3,
      "total_percent": 60.0,
      "slow_total": 0,
      "slow_avail": 0,
      "slow_percent": 0.0,
      "fast_total": 5,
      "fast_avail": 3,
      "fast_percent": 60.0,
      "latest_update": "20260714101832"
    },
    {
      "station_id": "BE240709",
      "name": "워터 서울시교통회관",
      "address": "서울특별시 송파구 올림픽로 319",
      "lat": "37.5157661",
      "lng": "127.1056117",
      "total_count": 5,
      "available_count": 3,
      "total_percent": 60.0,
      "slow_total": 1,
      "slow_avail": 0,
      "slow_percent": 0.0,
      "fast_total": 4,
      "fast_avail": 3,
      "fast_percent": 75.0,
      "latest_update": "20260714101212"
    },
    {
      "station_id": "CGA00238",
      "name": "송파 잠실장미아파트①_25동~26동",
      "address": "서울특별시 송파구 올림픽로35길 104",
      "lat": "37.5215190",
      "lng": "127.1011520",
      "total_count": 5,
      "available_count": 3,
      "total_percent": 60.0,
      "slow_total": 5,
      "slow_avail": 3,
      "slow_percent": 60.0,
      "fast_total": 0,
      "fast_avail": 0,
      "fast_percent": 0.0,
      "latest_update": "20260714094512"
    },
    {
      "station_id": "CGA00240",
      "name": "송파 잠실장미아파트③_23동",
      "address": "서울특별시 송파구 올림픽로35길 104",
      "lat": "37.5198130",
      "lng": "127.1021280",
      "total_count": 5,
      "available_count": 2,
      "total_percent": 40.0,
      "slow_total": 5,
      "slow_avail": 2,
      "slow_percent": 40.0,
      "fast_total": 0,
      "fast_avail": 0,
      "fast_percent": 0.0,
      "latest_update": "20260714071508"
    },
    {
      "station_id": "CGA00246",
      "name": "송파 잠실장미아파트⑨_6동",
      "address": "서울특별시 송파구 올림픽로35길 104",
      "lat": "37.5190840",
      "lng": "127.0969630",
      "total_count": 5,
      "available_count": 5,
      "total_percent": 100.0,
      "slow_total": 5,
      "slow_avail": 5,
      "slow_percent": 100.0,
      "fast_total": 0,
      "fast_avail": 0,
      "fast_percent": 0.0,
      "latest_update": "20260714090011"
    },
    {
      "station_id": "EC001035",
      "name": "송파미성아파트",
      "address": "서울특별시 송파구 오금로32길 10",
      "lat": "37.5833581",
      "lng": "126.8789018",
      "total_count": 5,
      "available_count": 5,
      "total_percent": 100.0,
      "slow_total": 5,
      "slow_avail": 5,
      "slow_percent": 100.0,
      "fast_total": 0,
      "fast_avail": 0,
      "fast_percent": 0.0,
      "latest_update": "20260714101801"
    },
    {
      "station_id": "EV004850",
      "name": "서울송파 송파꿈에그린아파트2405동",
      "address": "서울특별시 송파구 위례광장로 121",
      "lat": "37.476865",
      "lng": "127.1382163",
      "total_count": 5,
      "available_count": 5,
      "total_percent": 100.0,
      "slow_total": 5,
      "slow_avail": 5,
      "slow_percent": 100.0,
      "fast_total": 0,
      "fast_avail": 0,
      "fast_percent": 0.0,
      "latest_update": "20260714090849"
    },
    {
      "station_id": "EV005893",
      "name": "서울송파 위례스타힐스1",
      "address": "서울특별시 송파구 위례광장로 215",
      "lat": "37.480250550",
      "lng": "127.14632201",
      "total_count": 5,
      "available_count": 5,
      "total_percent": 100.0,
      "slow_total": 5,
      "slow_avail": 5,
      "slow_percent": 100.0,
      "fast_total": 0,
      "fast_avail": 0,
      "fast_percent": 0.0,
      "latest_update": "20260714101127"
    },
    {
      "station_id": "EV005894",
      "name": "서울송파 위례스타힐스2",
      "address": "서울특별시 송파구 위례광장로 215",
      "lat": "37.480256438",
      "lng": "127.14702299",
      "total_count": 5,
      "available_count": 4,
      "total_percent": 80.0,
      "slow_total": 5,
      "slow_avail": 4,
      "slow_percent": 80.0,
      "fast_total": 0,
      "fast_avail": 0,
      "fast_percent": 0.0,
      "latest_update": "20260714091855"
    },
    {
      "station_id": "EV012087",
      "name": "서울송파 에이치비즈니스파크C 1",
      "address": "서울특별시 송파구 법원로11길 25",
      "lat": "37.4841331",
      "lng": "127.1166725",
      "total_count": 5,
      "available_count": 2,
      "total_percent": 40.0,
      "slow_total": 5,
      "slow_avail": 2,
      "slow_percent": 40.0,
      "fast_total": 0,
      "fast_avail": 0,
      "fast_percent": 0.0,
      "latest_update": "20260714093505"
    },
    {
      "station_id": "JA110019",
      "name": "서울 송파구 롯데 캐슬프라자",
      "address": "서울특별시 송파구 올림픽로 269",
      "lat": "37.5144528",
      "lng": "127.1010537",
      "total_count": 5,
      "available_count": 1,
      "total_percent": 20.0,
      "slow_total": 5,
      "slow_avail": 1,
      "slow_percent": 20.0,
      "fast_total": 0,
      "fast_avail": 0,
      "fast_percent": 0.0,
      "latest_update": "20260714101401"
    },
    {
      "station_id": "JA110107",
      "name": "서울 송파구 문정프라비다옥토",
      "address": "서울특별시 송파구 법원로4길 17",
      "lat": "37.4832625",
      "lng": "127.1222565",
      "total_count": 5,
      "available_count": 1,
      "total_percent": 20.0,
      "slow_total": 5,
      "slow_avail": 1,
      "slow_percent": 20.0,
      "fast_total": 0,
      "fast_avail": 0,
      "fast_percent": 0.0,
      "latest_update": "20260714101409"
    },
    {
      "station_id": "L3110114",
      "name": "롯데백화점잠실점",
      "address": "서울특별시 송파구 올림픽로 240 (잠실동)",
      "lat": "37.5123289",
      "lng": "127.0976166",
      "total_count": 5,
      "available_count": 0,
      "total_percent": 0.0,
      "slow_total": 5,
      "slow_avail": 0,
      "slow_percent": 0.0,
      "fast_total": 0,
      "fast_avail": 0,
      "fast_percent": 0.0,
      "latest_update": "20260324151940"
    },
    {
      "station_id": "LU002705",
      "name": "거여5단지아파트",
      "address": "서울특별시 송파구 양산로4길 16",
      "lat": "37.48921",
      "lng": "127.144964",
      "total_count": 5,
      "available_count": 4,
      "total_percent": 80.0,
      "slow_total": 5,
      "slow_avail": 4,
      "slow_percent": 80.0,
      "fast_total": 0,
      "fast_avail": 0,
      "fast_percent": 0.0,
      "latest_update": "20260714093035"
    },
    {
      "station_id": "LU100203",
      "name": "문정푸르지오",
      "address": "서울특별시 송파구 문정로 55",
      "lat": "37.4867642",
      "lng": "127.12759785",
      "total_count": 5,
      "available_count": 5,
      "total_percent": 100.0,
      "slow_total": 5,
      "slow_avail": 5,
      "slow_percent": 100.0,
      "fast_total": 0,
      "fast_avail": 0,
      "fast_percent": 0.0,
      "latest_update": "20260714083812"
    },
    {
      "station_id": "LU101364",
      "name": "마천우방아파트",
      "address": "서울특별시 송파구 성내천로 211",
      "lat": "37.5000222",
      "lng": "127.1520609",
      "total_count": 5,
      "available_count": 4,
      "total_percent": 80.0,
      "slow_total": 5,
      "slow_avail": 4,
      "slow_percent": 80.0,
      "fast_total": 0,
      "fast_avail": 0,
      "fast_percent": 0.0,
      "latest_update": "20260714085356"
    },
    {
      "station_id": "NT101583",
      "name": "잠실 한신코아오피스텔",
      "address": "서울특별시 송파구 올림픽로35가길 11",
      "lat": "37.51632",
      "lng": "127.10406",
      "total_count": 5,
      "available_count": 5,
      "total_percent": 100.0,
      "slow_total": 5,
      "slow_avail": 5,
      "slow_percent": 100.0,
      "fast_total": 0,
      "fast_avail": 0,
      "fast_percent": 0.0,
      "latest_update": "20260714092450"
    },