{
  "district": "동작구",
  "zscode": "11590",
  "summary": {
    "total_count": 2268,
    "available_count": 1603,
    "total_percent": 70.7,
    "slow_total": 2170,
    "slow_avail": 1546,
    "slow_percent": 71.2,
    "fast_total": 98,
    "fast_avail": 57,
    "fast_percent": 58.2,
    "station_count": 393
  },
  "stations": [
    {
      "station_id": "PIH00172",
      "name": "보라매자이더포레스트아파트",
      "address": "서울특별시 동작구 여의대방로22길 121",
      "lat": "37.498581100",
      "lng": "126.92640640",
      "total_count": 60,
      "available_count": 53,
      "total_percent": 88.3,
      "slow_total": 60,
      "slow_avail": 53,
      "slow_percent": 88.3,
      "fast_total": 0,
      "fast_avail": 0,
      "fast_percent": 0.0,
      "latest_update": "20260713233221"
    },
    {
      "station_id": "PWE06374",
      "name": "사당극동아파트",
      "address": "서울특별시 동작구 동작대로29길 119",
      "lat": "37.49088863",
      "lng": "126.97605674",
      "total_count": 50,
      "available_count": 50,
      "total_percent": 100.0,
      "slow_total": 50,
      "slow_avail": 50,
      "slow_percent": 100.0,
      "fast_total": 0,
      "fast_avail": 0,
      "fast_percent": 0.0,
      "latest_update": "20260713111112"
    },
    {
      "station_id": "SF001200",
      "name": "힐스테이트상도센트럴파크",
      "address": "서울특별시 동작구 상도로 346-1",
      "lat": "37.496789977",
      "lng": "126.95166745",
      "total_count": 50,
      "available_count": 48,
      "total_percent": 96.0,
      "slow_total": 50,
      "slow_avail": 48,
      "slow_percent": 96.0,
      "fast_total": 0,
      "fast_avail": 0,
      "fast_percent": 0.0,
      "latest_update": "20260713234525"
    },
    {
      "station_id": "SF001428",
      "name": "신동아리버파크",
      "address": "서울특별시 동작구 만양로 19",
      "lat": "37.507072554",
      "lng": "126.94571853",
      "total_count": 48,
      "available_count": 47,
      "total_percent": 97.9,
      "slow_total": 48,
      "slow_avail": 47,
      "slow_percent": 97.9,
      "fast_total": 0,
      "fast_avail": 0,
      "fast_percent": 0.0,
      "latest_update": "20260713204520"
    },
    {
      "station_id": "ER000397",
      "name": "힐스테이트상도센트럴파크",
      "address": "서울특별시 동작구 상도로 346-1",
      "lat": "37.49679",
      "lng": "126.9516675",
      "total_count": 47,
      "available_count": 31,
      "total_percent": 66.0,
      "slow_total": 47,
      "slow_avail": 31,
      "slow_percent": 66.0,
      "fast_total": 0,
      "fast_avail": 0,
      "fast_percent": 0.0,
      "latest_update": "20260713231513"
    },
    {
      "station_id": "PC001781",
      "name": "대림아파트(동작)",
      "address": "서울특별시 동작구 여의대방로44길 10",
      "lat": "37.5073099",
      "lng": "126.9260887",
      "total_count": 41,
      "available_count": 26,
      "total_percent": 63.4,
      "slow_total": 41,
      "slow_avail": 26,
      "slow_percent": 63.4,
      "fast_total": 0,
      "fast_avail": 0,
      "fast_percent": 0.0,
      "latest_update": "20260713233759"
    },
    {
      "station_id": "UN000015",
      "name": "사당동 롯데캐슬샤인",
      "address": "서울특별시 동작구 사당로27길 190",
      "lat": "37.4904097",
      "lng": "126.9728429",
      "total_count": 40,
      "available_count": 36,
      "total_percent": 90.0,
      "slow_total": 40,
      "slow_avail": 36,
      "slow_percent": 90.0,
      "fast_total": 0,
      "fast_avail": 0,
      "fast_percent": 0.0,
      "latest_update": "20260713225145"
    },
    {
      "station_id": "KL002476",
      "name": "상도더샵아파트1",
      "address": "서울특별시 동작구 장승배기로4길 9",
      "lat": "37.50145",
      "lng": "126.94381",
      "total_count": 29,
      "available_count": 22,
      "total_percent": 75.9,
      "slow_total": 29,
      "slow_avail": 22,
      "slow_percent": 75.9,
      "fast_total": 0,
      "fast_avail": 0,
      "fast_percent": 0.0,
      "latest_update": "20260713232402"
    },
    {
      "station_id": "PL003371",
      "name": "아크로리버하임",
      "address": "서울 동작구 현충로 52",
      "lat": "37.5096317",
      "lng": "126.9622040",
      "total_count": 27,
      "available_count": 13,
      "total_percent": 48.1,
      "slow_total": 27,
      "slow_avail": 13,
      "slow_percent": 48.1,
      "fast_total": 0,
      "fast_avail": 0,
      "fast_percent": 0.0,
      "latest_update": "20260713224050"
    },
    {
      "station_id": "LU100944",
      "name": "흑석한강센트레빌2차아파트",
      "address": "서울특별시 동작구 서달로 91",
      "lat": "37.5031656",
      "lng": "126.958891",
      "total_count": 25,
      "available_count": 9,
      "total_percent": 36.0,
      "slow_total": 25,
      "slow_avail": 9,
      "slow_percent": 36.0,
      "fast_total": 0,
      "fast_avail": 0,
      "fast_percent": 0.0,
      "latest_update": "20260713230125"
    },
    {
      "station_id": "PWE06342",
      "name": "흑석롯데캐슬에듀포레아파트",
      "address": "서울특별시 동작구 서달로 123",
      "lat": "37.504211864",
      "lng": "126.95967314",
      "total_count": 25,
      "available_count": 23,
      "total_percent": 92.0,
      "slow_total": 25,
      "slow_avail": 23,
      "slow_percent": 92.0,
      "fast_total": 0,
      "fast_avail": 0,
      "fast_percent": 0.0,
      "latest_update": "20260713235009"
    },
    {
      "station_id": "LCSLCGP1",
      "name": "사당롯데캐슬골든포레아파트",
      "address": "서울특별시 동작구 사당로 90",
      "lat": "37.4922654",
      "lng": "126.9629745",
      "total_count": 24,
      "available_count": 5,
      "total_percent": 20.8,
      "slow_total": 24,
      "slow_avail": 5,
      "slow_percent": 20.8,
      "fast_total": 0,
      "fast_avail": 0,
      "fast_percent": 0.0,
      "latest_update": "20260713231510"
    },
    {
      "station_id": "NT100019",
      "name": "상도 래미안3차",
      "address": "서울특별시 동작구 상도로53길 8",
      "lat": "37.4980297",
      "lng": "126.9534887",
      "total_count": 24,
      "available_count": 23,
      "total_percent": 95.8,
      "slow_total": 24,
      "slow_avail": 23,
      "slow_percent": 95.8,
      "fast_total": 0,
      "fast_avail": 0,
      "fast_percent": 0.0,
      "latest_update": "20260714000450"
    },
    {
      "station_id": "SF001430",
      "name": "본동삼성래미안",
      "address": "서울특별시 동작구 매봉로 123",
      "lat": "37.510143119",
      "lng": "126.94986658",
      "total_count": 24,
      "available_count": 24,
      "total_percent": 100.0,
      "slow_total": 24,
      "slow_avail": 24,
      "slow_percent": 100.0,
      "fast_total": 0,
      "fast_avail": 0,
      "fast_percent": 0.0,
      "latest_update": "20260711203523"
    },
    {
      "station_id": "HY000857",
      "name": "노량진 수산시장",
      "address": "서울특별시 동작구 노들로 674",
      "lat": "37.5148237",
      "lng": "126.937976",
      "total_count": 23,
      "available_count": 22,
      "total_percent": 95.7,
      "slow_total": 22,
      "slow_avail": 21,
      "slow_percent": 95.5,
      "fast_total": 1,
      "fast_avail": 1,
      "fast_percent": 100.0,
      "latest_update": "20260713214205"
    },
    {
      "station_id": "NT102421",
      "name": "동작 사당극동아파트",
      "address": "서울특별시 동작구 동작대로29길 119",
      "lat": "37.49088",
      "lng": "126.97605",
      "total_count": 23,
      "available_count": 13,
      "total_percent": 56.5,
      "slow_total": 23,
      "slow_avail": 13,
      "slow_percent": 56.5,
      "fast_total": 0,
      "fast_avail": 0,
      "fast_percent": 0.0,
      "latest_update": "20260713230650"
    },
    {
      "station_id": "PW013342",
      "name": "힐스테이트상도프레스티지입주자대표회의",
      "address": "서울특별시 동작구 상도로 346-2",
      "lat": "37.4947527",
      "lng": "126.9482708",
      "total_count": 22,
      "available_count": 11,
      "total_percent": 50.0,
      "slow_total": 22,
      "slow_avail": 11,
      "slow_percent": 50.0,
      "fast_total": 0,
      "fast_avail": 0,
      "fast_percent": 0.0,
      "latest_update": "20260713233213"
    },
    {
      "station_id": "PI712509",
      "name": "신동아리버파크",
      "address": "서울특별시 동작구 만양로 19",
      "lat": "37.507089598",
      "lng": "126.94307095",
      "total_count": 21,
      "available_count": 12,
      "total_percent": 57.1,
      "slow_total": 21,
      "slow_avail": 12,
      "slow_percent": 57.1,
      "fast_total": 0,
      "fast_avail": 0,
      "fast_percent": 0.0,
      "latest_update": "20260713221034"
    },
    {
      "station_id": "PIH01011",
      "name": "신대방우성1차아파트",
      "address": "서울특별시 동작구 여의대방로 22",
      "lat": "37.4910969",
      "lng": "126.9118137",
      "total_count": 21,
      "available_count": 14,
      "total_percent": 66.7,
      "slow_total": 21,
      "slow_avail": 14,
      "slow_percent": 66.7,
      "fast_total": 0,
      "fast_avail": 0,
      "fast_percent": 0.0,
      "latest_update": "20260713233158"
    },
    {
      "station_id": "LU003085",
      "name": "사당동작삼성래미안아파트",
      "address": "서울특별시 동작구 사당로23바길 9",
      "lat": "37.48961",
      "lng": "126.96919",
      "total_count": 20,
      "available_count": 17,
      "total_percent": 85.0,
      "slow_total": 20,
      "slow_avail": 17,
      "slow_percent": 85.0,
      "fast_total": 0,
      "fast_avail": 0,
      "fast_percent": 0.0,
      "latest_update": "20260713190728"
    },
    {
      "station_id": "SF000993",
      "name": "대방 2차 e편한세상 아파트",
      "address": "서울특별시 동작구 알마타길 53",
      "lat": "37.512030508",
      "lng": "126.93134200",
      "total_count": 20,
      "available_count": 20,
      "total_percent": 100.0,
      "slow_total": 20,
      "slow_avail": 20,
      "slow_percent": 100.0,
      "fast_total": 0,
      "fast_avail": 0,
      "fast_percent": 0.0,
      "latest_update": "20260618122345"
    },
    {
      "station_id": "PI121435",
      "name": "숭실대학교",
      "address": "서울특별시 동작구 상도로 369 (상도동, 숭실대학교)",
      "lat": "37.4963",
      "lng": "126.957",
      "total_count": 18,
      "available_count": 17,
      "total_percent": 94.4,
      "slow_total": 18,
      "slow_avail": 17,
      "slow_percent": 94.4,
      "fast_total": 0,
      "fast_avail": 0,
      "fast_percent": 0.0,
      "latest_update": "20260713212108"
    },
    {
      "station_id": "PI204190",
      "name": "서울시 동작구 동작성원상떼빌103동지하4층",
      "address": "서울특별시 동작구 신대방1가길 38",
      "lat": "37.487174972",
      "lng": "126.90729368",
      "total_count": 18,
      "available_count": 18,
      "total_percent": 100.0,
      "slow_total": 18,
      "slow_avail": 18,
      "slow_percent": 100.0,
      "fast_total": 0,
      "fast_avail": 0,
      "fast_percent": 0.0,
      "latest_update": "20260713123636"
    },
    {
      "station_id": "PWE06362",
      "name": "원불교소태산기념관",
      "address": "서울특별시 동작구 현충로 75",
      "lat": "37.5097591",
      "lng": "126.9638593",
      "total_count": 18,
      "available_count": 18,
      "total_percent": 100.0,
      "slow_total": 18,
      "slow_avail": 18,
      "slow_percent": 100.0,
      "fast_total": 0,
      "fast_avail": 0,
      "fast_percent": 0.0,
      "latest_update": "20260713212609"
    },
    {
      "station_id": "PI708002",
      "name": "이수힐스테이트",
      "address": "서울특별시 동작구 동작대로39길 22",
      "lat": "37.494636",
      "lng": "126.981966",
      "total_count": 17,
      "available_count": 8,
      "total_percent": 47.1,
      "slow_total": 17,
      "slow_avail": 8,
      "slow_percent": 47.1,
      "fast_total": 0,
      "fast_avail": 0,
      "fast_percent": 0.0,
      "latest_update": "20260713212229"
    },
    {
      "station_id": "PI001442",
      "name": "보라매e편한세상아파트",
      "address": "서울특별시 동작구 보라매로 70",
      "lat": "37.4954106",
      "lng": "126.928546",
      "total_count": 15,
      "available_count": 15,
      "total_percent": 100.0,
      "slow_total": 15,
      "slow_avail": 15,
      "slow_percent": 100.0,
      "fast_total": 0,
      "fast_avail": 0,
      "fast_percent": 0.0,
      "latest_update": "20260714000624"
    },
    {
      "station_id": "PI204189",
      "name": "서울시 동작구 동작성원상떼빌103동지하3층",
      "address": "서울특별시 동작구 신대방1가길 38",
      "lat": "37.487138734",
      "lng": "126.90704214",
      "total_count": 15,
      "available_count": 11,
      "total_percent": 73.3,
      "slow_total": 13,
      "slow_avail": 9,
      "slow_percent": 69.2,
      "fast_total": 2,
      "fast_avail": 2,
      "fast_percent": 100.0,
      "latest_update": "20260713232734"
    },
    {
      "station_id": "PI204191",
      "name": "서울시 동작구 동작성원상떼빌104동지하4층",
      "address": "서울특별시 동작구 신대방1가길 38",
      "lat": "37.487650434",
      "lng": "126.90752489",
      "total_count": 15,
      "available_count": 15,
      "total_percent": 100.0,
      "slow_total": 15,
      "slow_avail": 15,
      "slow_percent": 100.0,
      "fast_total": 0,
      "fast_avail": 0,
      "fast_percent": 0.0,
      "latest_update": "20260713160643"
    },
    {
      "station_id": "PL033102",
      "name": "건영아파트",
      "address": "서울 동작구 만양로 26",
      "lat": "37.5076265",
      "lng": "126.9495479",
      "total_count": 15,
      "available_count": 15,
      "total_percent": 100.0,
      "slow_total": 15,
      "slow_avail": 15,
      "slow_percent": 100.0,
      "fast_total": 0,
      "fast_avail": 0,
      "fast_percent": 0.0,
      "latest_update": "20260703130312"
    },
    {
      "station_id": "EV008841",
      "name": "서울동작 롯데캐슬에듀포레",
      "address": "서울특별시 동작구 서달로 123",
      "lat": "37.5042119",
      "lng": "126.9596731",
      "total_count": 14,
      "available_count": 11,
      "total_percent": 78.6,
      "slow_total": 14,
      "slow_avail": 11,
      "slow_percent": 78.6,
      "fast_total": 0,
      "fast_avail": 0,
      "fast_percent": 0.0,
      "latest_update": "20260713224647"
    },
    {
      "station_id": "NT101145",
      "name": "사당 대림아파트",
      "address": "서울특별시 동작구 사당로17길 52",
      "lat": "37.4854878",
      "lng": "126.9733572",
      "total_count": 14,
      "available_count": 9,
      "total_percent": 64.3,
      "slow_total": 14,
      "slow_avail": 9,
      "slow_percent": 64.3,
      "fast_total": 0,
      "fast_avail": 0,
      "fast_percent": 0.0,
      "latest_update": "20260713223750"
    },
    {
      "station_id": "SF001103",
      "name": "롯데캐슬비엔",
      "address": "서울특별시 동작구 양녕로 170",
      "lat": "37.497001942",
      "lng": "126.94364257",
      "total_count": 14,
      "available_count": 13,
      "total_percent": 92.9,
      "slow_total": 14,
      "slow_avail": 13,
      "slow_percent": 92.9,
      "fast_total": 0,
      "fast_avail": 0,
      "fast_percent": 0.0,
      "latest_update": "20260713222145"
    },
    {
      "station_id": "EV017795",
      "name": "서울동작 중앙대학교 5",
      "address": "서울특별시 동작구 흑석동 221 중앙대학교",
      "lat": "37.5043967",
      "lng": "126.9931151",
      "total_count": 13,
      "available_count": 10,
      "total_percent": 76.9,
      "slow_total": 11,
      "slow_avail": 9,
      "slow_percent": 81.8,
      "fast_total": 2,
      "fast_avail": 1,
      "fast_percent": 50.0,
      "latest_update": "20260713202516"
    },
    {
      "station_id": "PIH00021",
      "name": "보라매삼성쉐르빌아파트",
      "address": "서울특별시 동작구 보라매로5길 43",
      "lat": "37.4913946",
      "lng": "126.923403",
      "total_count": 13,
      "available_count": 9,
      "total_percent": 69.2,
      "slow_total": 13,
      "slow_avail": 9,
      "slow_percent": 69.2,
      "fast_total": 0,
      "fast_avail": 0,
      "fast_percent": 0.0,
      "latest_update": "20260713230237"
    },
    {
      "station_id": "PL003387",
      "name": "동작이수푸르지오더프레티움아파트",
      "address": "서울 동작구 동작대로39길 39",
      "lat": "37.4937800",
      "lng": "126.9796330",
      "total_count": 13,
      "available_count": 9,
      "total_percent": 69.2,
      "slow_total": 13,
      "slow_avail": 9,
      "slow_percent": 69.2,
      "fast_total": 0,
      "fast_avail": 0,
      "fast_percent": 0.0,
      "latest_update": "20260713234402"
    },
    {
      "station_id": "EZ210031",
      "name": "롯데타워업무시설 관리단대표회의",
      "address": "서울특별시 동작구 보라매로5길 51",
      "lat": "37.4906999",
      "lng": "126.9231054",
      "total_count": 12,
      "available_count": 0,
      "total_percent": 0.0,
      "slow_total": 12,
      "slow_avail": 0,
      "slow_percent": 0.0,
      "fast_total": 0,
      "fast_avail": 0,
      "fast_percent": 0.0,
      "latest_update": "20260601113310"
    },
    {
      "station_id": "LU002862",
      "name": "남성역두산위브트레지움",
      "address": "서울특별시 동작구 사당로13길 31",
      "lat": "37.485803",
      "lng": "126.971255",
      "total_count": 12,
      "available_count": 8,
      "total_percent": 66.7,
      "slow_total": 12,
      "slow_avail": 8,
      "slow_percent": 66.7,
      "fast_total": 0,
      "fast_avail": 0,
      "fast_percent": 0.0,
      "latest_update": "20260713231820"
    },
    {
      "station_id": "LU101587",
      "name": "상도역롯데캐슬파크엘",
      "address": "서울특별시 동작구 양녕로 220",
      "lat": "37.5006924",
      "lng": "126.9455364",
      "total_count": 12,
      "available_count": 4,
      "total_percent": 33.3,
      "slow_total": 12,
      "slow_avail": 4,
      "slow_percent": 33.3,
      "fast_total": 0,
      "fast_avail": 0,
      "fast_percent": 0.0,
      "latest_update": "20260713234128"
    },
    {
      "station_id": "NT102353",
      "name": "동작 흑석한강푸르지오아파트",
      "address": "서울특별시 동작구 흑석한강로 27",
      "lat": "37.50409",
      "lng": "126.96628",
      "total_count": 12,
      "available_count": 5,
      "total_percent": 41.7,
      "slow_total": 12,
      "slow_avail": 5,
      "slow_percent": 41.7,
      "fast_total": 0,
      "fast_avail": 0,
      "fast_percent": 0.0,
      "latest_update": "20260713232750"
    },
    {
      "station_id": "PI712334",
      "name": "흑석한강센트레빌",
      "address": "서울특별시 동작구 흑석한강로 12",
      "lat": "37.5051798",
      "lng": "126.9645125",
      "total_count": 12,
      "available_count": 7,
      "total_percent": 58.3,
      "slow_total": 12,
      "slow_avail": 7,
      "slow_percent": 58.3,
      "fast_total": 0,
      "fast_avail": 0,
      "fast_percent": 0.0,
      "latest_update": "20260713235018"
    },
    {
      "station_id": "PIH00082",
      "name": "한강현대아파트",
      "address": "서울특별시 동작구 현충로 151",
      "lat": "37.506612600",
      "lng": "126.97022570",
      "total_count": 12,
      "available_count": 9,
      "total_percent": 75.0,
      "slow_total": 12,
      "slow_avail": 9,
      "slow_percent": 75.0,
      "fast_total": 0,
      "fast_avail": 0,
      "fast_percent": 0.0,
      "latest_update": "20260713224234"
    },
    {
      "station_id": "PW013335",
      "name": "상도2차두산위브트레지움아파트입주자대표회의",
      "address": "서울특별시 동작구 상도로30길 40",
      "lat": "37.5043183",
      "lng": "126.942467",
      "total_count": 12,
      "available_count": 8,
      "total_percent": 66.7,
      "slow_total": 12,
      "slow_avail": 8,
      "slow_percent": 66.7,
      "fast_total": 0,
      "fast_avail": 0,
      "fast_percent": 0.0,
      "latest_update": "20260713224013"
    },
    {
      "station_id": "SF002735",
      "name": "상도래미안1차아파트",
      "address": "서울특별시 동작구 등용로 37",
      "lat": "37.505239763",
      "lng": "126.93313391",
      "total_count": 12,
      "available_count": 12,
      "total_percent": 100.0,
      "slow_total": 12,
      "slow_avail": 12,
      "slow_percent": 100.0,
      "fast_total": 0,
      "fast_avail": 0,
      "fast_percent": 0.0,
      "latest_update": "20260627122215"
    },
    {
      "station_id": "IN120030",
      "name": "상도역롯데캐슬파크엘",
      "address": "서울특별시 동작구 양녕로 220",
      "lat": "37.5006",
      "lng": "126.9461",
      "total_count": 11,
      "available_count": 0,
      "total_percent": 0.0,
      "slow_total": 10,
      "slow_avail": 0,
      "slow_percent": 0.0,
      "fast_total": 1,
      "fast_avail": 0,
      "fast_percent": 0.0,
      "latest_update": "20260615122836"
    },
    {
      "station_id": "NX000025",
      "name": "동작구청 신청사",
      "address": "서울특별시 동작구 장승배기로 70",
      "lat": "37.50444598",
      "lng": "126.9410904",
      "total_count": 11,
      "available_count": 0,
      "total_percent": 0.0,
      "slow_total": 6,
      "slow_avail": 0,
      "slow_percent": 0.0,
      "fast_total": 5,
      "fast_avail": 0,
      "fast_percent": 0.0,
      "latest_update": ""
    },
    {
      "station_id": "PI711956",
      "name": "아이파크상도",
      "address": "서울특별시 동작구 장승배기로 26",
      "lat": "37.5006642",
      "lng": "126.943415",
      "total_count": 11,
      "available_count": 8,
      "total_percent": 72.7,
      "slow_total": 11,
      "slow_avail": 8,
      "slow_percent": 72.7,
      "fast_total": 0,
      "fast_avail": 0,
      "fast_percent": 0.0,
      "latest_update": "20260713234523"
    },
    {
      "station_id": "PIS00032",
      "name": "서울 동작구 상도역롯데캐슬파크엘",
      "address": "서울특별시 동작구 양녕로 220",
      "lat": "37.5006000",
      "lng": "126.9461000",
      "total_count": 11,
      "available_count": 9,
      "total_percent": 81.8,
      "slow_total": 10,
      "slow_avail": 8,
      "slow_percent": 80.0,
      "fast_total": 1,
      "fast_avail": 1,
      "fast_percent": 100.0,
      "latest_update": "20260713234314"
    },
    {
      "station_id": "PL000406",
      "name": "상도래미안1차아파트",
      "address": "서울특별시 동작구 등용로 37",
      "lat": "37.5052398",
      "lng": "126.9331339",
      "total_count": 11,
      "available_count": 6,
      "total_percent": 54.5,
      "slow_total": 11,
      "slow_avail": 6,
      "slow_percent": 54.5,
      "fast_total": 0,
      "fast_avail": 0,
      "fast_percent": 0.0,
      "latest_update": "20260713195734"
    },
    {
      "station_id": "ER000443",
      "name": "보라매파크빌아파트",
      "address": "서울특별시 동작구 여의대방로10길 59",
      "lat": "37.4951147",
      "lng": "126.9150796",
      "total_count": 10,
      "available_count": 3,
      "total_percent": 30.0,
      "slow_total": 10,
      "slow_avail": 3,
      "slow_percent": 30.0,
      "fast_total": 0,
      "fast_avail": 0,
      "fast_percent": 0.0,
      "latest_update": "20260713235829"
    },
    {
      "station_id": "HY001406",
      "name": "노량진 우성아파트",
      "address": "서울특별시 동작구 만양로8길 50",
      "lat": "37.5095412",
      "lng": "126.9478074",
      "total_count": 10,
      "available_count": 9,
      "total_percent": 90.0,
      "slow_total": 10,
      "slow_avail": 9,
      "slow_percent": 90.0,
      "fast_total": 0,
      "fast_avail": 0,
      "fast_percent": 0.0,
      "latest_update": "20260713202505"
    },
    {
      "station_id": "IN120032",
      "name": "노량진우성아파트",
      "address": "서울특별시 동작구 만양로8길 50",
      "lat": "37.5096",
      "lng": "126.9478",
      "total_count": 10,
      "available_count": 0,
      "total_percent": 0.0,
      "slow_total": 10,
      "slow_avail": 0,
      "slow_percent": 0.0,
      "fast_total": 0,
      "fast_avail": 0,
      "fast_percent": 0.0,
      "latest_update": "20260615122836"
    },
    {
      "station_id": "NT300099",
      "name": "흑석 한강푸르지오",
      "address": "서울특별시 동작구 흑석한강로 27",
      "lat": "37.50409",
      "lng": "126.96628",
      "total_count": 10,
      "available_count": 3,
      "total_percent": 30.0,
      "slow_total": 10,
      "slow_avail": 3,
      "slow_percent": 30.0,
      "fast_total": 0,
      "fast_avail": 0,
      "fast_percent": 0.0,
      "latest_update": "20260713235850"
    },
    {
      "station_id": "PI200930",
      "name": "서울시 동작구 이편한세상상도노빌리티",
      "address": "서울특별시 동작구 만양로 6",
      "lat": "37.5049819",
      "lng": "126.9467885",
      "total_count": 10,
      "available_count": 6,
      "total_percent": 60.0,
      "slow_total": 10,
      "slow_avail": 6,
      "slow_percent": 60.0,
      "fast_total": 0,
      "fast_avail": 0,
      "fast_percent": 0.0,
      "latest_update": "20260713212117"
    },
    {
      "station_id": "PI711674",
      "name": "노량진우성아파트",
      "address": "서울특별시 동작구 만양로8길 50",
      "lat": "37.5103043",
      "lng": "126.9468658",
      "total_count": 10,
      "available_count": 10,
      "total_percent": 100.0,
      "slow_total": 10,
      "slow_avail": 10,
      "slow_percent": 100.0,
      "fast_total": 0,
      "fast_avail": 0,
      "fast_percent": 0.0,
      "latest_update": "20260710163523"
    },
    {
      "station_id": "PI721813",
      "name": "보라매롯데낙천대",
      "address": "서울특별시 동작구 여의대방로10길 38",
      "lat": "37.4943306",
      "lng": "126.9136603",
      "total_count": 10,
      "available_count": 8,
      "total_percent": 80.0,
      "slow_total": 10,
      "slow_avail": 8,
      "slow_percent": 80.0,
      "fast_total": 0,
      "fast_avail": 0,
      "fast_percent": 0.0,
      "latest_update": "20260713202006"
    },
    {
      "station_id": "PI722718",
      "name": "신동아리버파크B",
      "address": "서울특별시 동작구 만양로 19",
      "lat": "37.508047437",
      "lng": "126.94416449",
      "total_count": 10,
      "available_count": 1,
      "total_percent": 10.0,
      "slow_total": 10,
      "slow_avail": 1,
      "slow_percent": 10.0,
      "fast_total": 0,
      "fast_avail": 0,
      "fast_percent": 0.0,
      "latest_update": "20260713231522"
    },
    {
      "station_id": "PI760217",
      "name": "상도파크자이아파트",
      "address": "서울특별시 동작구 장승배기로11가길 11",
      "lat": "37.505566",
      "lng": "126.9389112",
      "total_count": 10,
      "available_count": 2,
      "total_percent": 20.0,
      "slow_total": 10,
      "slow_avail": 2,
      "slow_percent": 20.0,
      "fast_total": 0,
      "fast_avail": 0,
      "fast_percent": 0.0,
      "latest_update": "20260713211014"
    },
    {
      "station_id": "PIH01123",
      "name": "대방동경남아너스빌아파트",
      "address": "서울특별시 동작구 여의대방로54길 6",
      "lat": "37.511552288",
      "lng": "126.92530784",
      "total_count": 10,
      "available_count": 10,
      "total_percent": 100.0,
      "slow_total": 10,
      "slow_avail": 10,
      "slow_percent": 100.0,
      "fast_total": 0,
      "fast_avail": 0,
      "fast_percent": 0.0,
      "latest_update": "20260713084223"
    },
    {
      "station_id": "PIS00018",
      "name": "서울 동작구 노량진우성아파트",
      "address": "서울특별시 동작구 만양로8길 50",
      "lat": "37.5096000",
      "lng": "126.9478000",
      "total_count": 10,
      "available_count": 6,
      "total_percent": 60.0,
      "slow_total": 10,
      "slow_avail": 6,
      "slow_percent": 60.0,
      "fast_total": 0,
      "fast_avail": 0,
      "fast_percent": 0.0,
      "latest_update": "20260713221814"
    },
    {
      "station_id": "PL030804",
      "name": "신동아아파트",
      "address": "서울 동작구 동작대로29길 110",
      "lat": "37.4898244",
      "lng": "126.9777452",
      "total_count": 10,
      "available_count": 8,
      "total_percent": 80.0,
      "slow_total": 10,
      "slow_avail": 8,
      "slow_percent": 80.0,
      "fast_total": 0,
      "fast_avail": 0,
      "fast_percent": 0.0,
      "latest_update": "20260713225627"
    },
    {
      "station_id": "PL031399",
      "name": "서울 유한양행 서울 본사",
      "address": "서울 동작구 노량진로 74",
      "lat": "37.5127577",
      "lng": "126.9340267",
      "total_count": 10,
      "available_count": 10,
      "total_percent": 100.0,
      "slow_total": 10,
      "slow_avail": 10,
      "slow_percent": 100.0,
      "fast_total": 0,
      "fast_avail": 0,
      "fast_percent": 0.0,
      "latest_update": "20260713192030"
    },
    {
      "station_id": "PW014599",
      "name": "캐릭터그린빌아파트입주자대표",
      "address": "서울특별시 동작구 보라매로5가길 7",
      "lat": "37.4919541",
      "lng": "126.9249687",
      "total_count": 10,
      "available_count": 7,
      "total_percent": 70.0,
      "slow_total": 10,
      "slow_avail": 7,
      "slow_percent": 70.0,
      "fast_total": 0,
      "fast_avail": 0,
      "fast_percent": 0.0,
      "latest_update": "20260713230327"
    },
    {
      "station_id": "SF001209",
      "name": "경향렉스빌아파트",
      "address": "서울특별시 동작구 양녕로23길 9",
      "lat": "37.495324150",
      "lng": "126.94172945",
      "total_count": 10,
      "available_count": 10,
      "total_percent": 100.0,
      "slow_total": 10,
      "slow_avail": 10,
      "slow_percent": 100.0,
      "fast_total": 0,
      "fast_avail": 0,
      "fast_percent": 0.0,
      "latest_update": "20260707170040"
    },
    {
      "station_id": "SF001232",
      "name": "이수교 KCC 스위첸",
      "address": "서울특별시 동작구 동작대로45길 22",
      "lat": "37.497523697",
      "lng": "126.98131628",
      "total_count": 10,
      "available_count": 10,
      "total_percent": 100.0,
      "slow_total": 10,
      "slow_avail": 10,
      "slow_percent": 100.0,
      "fast_total": 0,
      "fast_avail": 0,
      "fast_percent": 0.0,
      "latest_update": "20260625170939"
    },
    {
      "station_id": "ST601490",
      "name": "e편한세상상도노빌리티(입주민 전용)",
      "address": "서울특별시 동작구 만양로 6",
      "lat": "37.504981",
      "lng": "126.946788",
      "total_count": 10,
      "available_count": 7,
      "total_percent": 70.0,
      "slow_total": 10,
      "slow_avail": 7,
      "slow_percent": 70.0,
      "fast_total": 0,
      "fast_avail": 0,
      "fast_percent": 0.0,
      "latest_update": "20260713224015"
    },
    {
      "station_id": "HY001755",
      "name": "동작 대방성원",
      "address": "서울특별시 동작구 여의대방로44길 9",
      "lat": "37.5093826",
      "lng": "126.9255822",
      "total_count": 9,
      "available_count": 6,
      "total_percent": 66.7,
      "slow_total": 9,
      "slow_avail": 6,
      "slow_percent": 66.7,
      "fast_total": 0,
      "fast_avail": 0,
      "fast_percent": 0.0,
      "latest_update": "20260713203505"
    },
    {
      "station_id": "LU002427",
      "name": "노량진드림스퀘어",
      "address": "서울특별시 동작구 노들로2길 7",
      "lat": "37.514194",
      "lng": "126.938586",
      "total_count": 9,
      "available_count": 8,
      "total_percent": 88.9,
      "slow_total": 9,
      "slow_avail": 8,
      "slow_percent": 88.9,
      "fast_total": 0,
      "fast_avail": 0,
      "fast_percent": 0.0,
      "latest_update": "20260713222206"
    },
    {
      "station_id": "NT102034",
      "name": "동작 대방주공2단지아파트",
      "address": "서울특별시 동작구 여의대방로44길 47",
      "lat": "37.508359",
      "lng": "126.930580",
      "total_count": 9,
      "available_count": 5,
      "total_percent": 55.6,
      "slow_total": 9,
      "slow_avail": 5,
      "slow_percent": 55.6,
      "fast_total": 0,
      "fast_avail": 0,
      "fast_percent": 0.0,
      "latest_update": "20260713234650"
    },
    {
      "station_id": "PI200337",
      "name": "서울시 동작구 래미안상도2차아파트",
      "address": "서울특별시 동작구 상도로55길 47",
      "lat": "37.4983411",
      "lng": "126.9588453",
      "total_count": 9,
      "available_count": 7,
      "total_percent": 77.8,
      "slow_total": 9,
      "slow_avail": 7,
      "slow_percent": 77.8,
      "fast_total": 0,
      "fast_avail": 0,
      "fast_percent": 0.0,
      "latest_update": "20260713175250"
    },
    {
      "station_id": "PIH01085",
      "name": "보라매아카데미타워상가",
      "address": "서울특별시 동작구 보라매로5가길 16",
      "lat": "37.4912751",
      "lng": "126.9240947",
      "total_count": 9,
      "available_count": 8,
      "total_percent": 88.9,
      "slow_total": 9,
      "slow_avail": 8,
      "slow_percent": 88.9,
      "fast_total": 0,
      "fast_avail": 0,
      "fast_percent": 0.0,
      "latest_update": "20260713214827"
    },
    {
      "station_id": "PL000599",
      "name": "동작상떼빌오피스텔상가",
      "address": "서울특별시 동작구 신대방1가길 38",
      "lat": "37.4879010",
      "lng": "126.9069396",
      "total_count": 9,
      "available_count": 4,
      "total_percent": 44.4,
      "slow_total": 9,
      "slow_avail": 4,
      "slow_percent": 44.4,
      "fast_total": 0,
      "fast_avail": 0,
      "fast_percent": 0.0,
      "latest_update": "20260713232120"
    },
    {
      "station_id": "PW011033",
      "name": "사당자이아파트",
      "address": "서울특별시 동작구 사당로2가길 102",
      "lat": "37.489400443185",
      "lng": "126.9617042203",
      "total_count": 9,
      "available_count": 1,
      "total_percent": 11.1,
      "slow_total": 9,
      "slow_avail": 1,
      "slow_percent": 11.1,
      "fast_total": 0,
      "fast_avail": 0,
      "fast_percent": 0.0,
      "latest_update": "20260714001013"
    },
    {
      "station_id": "PW014376",
      "name": "삼성보라매옴니타워관리단대표회의",
      "address": "서울특별시 동작구 보라매로5길 23",
      "lat": "37.4925785",
      "lng": "126.9236102",
      "total_count": 9,
      "available_count": 9,
      "total_percent": 100.0,
      "slow_total": 9,
      "slow_avail": 9,
      "slow_percent": 100.0,
      "fast_total": 0,
      "fast_avail": 0,
      "fast_percent": 0.0,
      "latest_update": "20260713225806"
    },
    {
      "station_id": "EC004817",
      "name": "상도 SH-VILLE",
      "address": "서울특별시 동작구 상도로53길 70",
      "lat": "37.5028793",
      "lng": "126.9543055",
      "total_count": 8,
      "available_count": 5,
      "total_percent": 62.5,
      "slow_total": 8,
      "slow_avail": 5,
      "slow_percent": 62.5,
      "fast_total": 0,
      "fast_avail": 0,
      "fast_percent": 0.0,
      "latest_update": "20260713214002"
    },
    {
      "station_id": "ER000484",
      "name": "경남교수아파트",
      "address": "서울 동작구 여의대방로10길 14",
      "lat": "37.4963278",
      "lng": "126.9139635",
      "total_count": 8,
      "available_count": 6,
      "total_percent": 75.0,
      "slow_total": 8,
      "slow_avail": 6,
      "slow_percent": 75.0,
      "fast_total": 0,
      "fast_avail": 0,
      "fast_percent": 0.0,
      "latest_update": "20260713221402"
    },
    {
      "station_id": "EV010676",
      "name": "서울동작 전문건설공제조합 서울",
      "address": "서울특별시 동작구 보라매로5길 15",
      "lat": "37.4921759",
      "lng": "126.9242713",
      "total_count": 8,
      "available_count": 8,
      "total_percent": 100.0,
      "slow_total": 8,
      "slow_avail": 8,
      "slow_percent": 100.0,
      "fast_total": 0,
      "fast_avail": 0,
      "fast_percent": 0.0,
      "latest_update": "20260713212559"
    },
    {
      "station_id": "EV018531",
      "name": "서울동작 노량진쌍용예가 3",
      "address": "서울특별시 동작구 장승배기로16길 134",
      "lat": "37.5103212",
      "lng": "126.9437941",
      "total_count": 8,
      "available_count": 5,
      "total_percent": 62.5,
      "slow_total": 8,
      "slow_avail": 5,
      "slow_percent": 62.5,
      "fast_total": 0,
      "fast_avail": 0,
      "fast_percent": 0.0,
      "latest_update": "20260713230455"
    },
    {
      "station_id": "PL003390",
      "name": "사당우성3단지아파트",
      "address": "서울 동작구 동작대로29길 115",
      "lat": "37.4904172",
      "lng": "126.9758253",
      "total_count": 8,
      "available_count": 3,
      "total_percent": 37.5,
      "slow_total": 8,
      "slow_avail": 3,
      "slow_percent": 37.5,
      "fast_total": 0,
      "fast_avail": 0,
      "fast_percent": 0.0,
      "latest_update": "20260713225518"
    },
    {
      "station_id": "EC110073",
      "name": "대림쇼핑타운",
      "address": "서울특별시 동작구 여의대방로 250",
      "lat": "37.5087435",
      "lng": "126.9245178",
      "total_count": 7,
      "available_count": 0,
      "total_percent": 0.0,
      "slow_total": 7,
      "slow_avail": 0,
      "slow_percent": 0.0,
      "fast_total": 0,
      "fast_avail": 0,
      "fast_percent": 0.0,
      "latest_update": "20260602113402"
    },
    {
      "station_id": "ER000361",
      "name": "신동아리버파크아파트",
      "address": "서울 동작구 만양로 19",
      "lat": "37.5070717",
      "lng": "126.9457182",
      "total_count": 7,
      "available_count": 7,
      "total_percent": 100.0,
      "slow_total": 7,
      "slow_avail": 7,
      "slow_percent": 100.0,
      "fast_total": 0,
      "fast_avail": 0,
      "fast_percent": 0.0,
      "latest_update": "20260712030147"
    },
    {
      "station_id": "HY001808",
      "name": "동작 사당경남아너스빌",
      "address": "서울특별시 동작구 사당로9가길 82",
      "lat": "37.488263",
      "lng": "126.967771",
      "total_count": 7,
      "available_count": 7,
      "total_percent": 100.0,
      "slow_total": 7,
      "slow_avail": 7,
      "slow_percent": 100.0,
      "fast_total": 0,
      "fast_avail": 0,
      "fast_percent": 0.0,
      "latest_update": "20260713084506"
    },
    {
      "station_id": "PI204009",
      "name": "서울시 동작구 이랜드해가든",
      "address": "서울특별시 동작구 서달로 150",
      "lat": "37.506626578",
      "lng": "126.96218378",
      "total_count": 7,
      "available_count": 7,
      "total_percent": 100.0,
      "slow_total": 7,
      "slow_avail": 7,
      "slow_percent": 100.0,
      "fast_total": 0,
      "fast_avail": 0,
      "fast_percent": 0.0,
      "latest_update": "20260713222622"
    },
    {
      "station_id": "PI712387",
      "name": "래미안트윈파크아파트B",
      "address": "서울특별시 동작구 노량진로23가길 23",
      "lat": "37.514314585",
      "lng": "126.95071461",
      "total_count": 7,
      "available_count": 4,
      "total_percent": 57.1,
      "slow_total": 7,
      "slow_avail": 4,
      "slow_percent": 57.1,
      "fast_total": 0,
      "fast_avail": 0,
      "fast_percent": 0.0,
      "latest_update": "20260713205515"
    },
    {
      "station_id": "PI715528",
      "name": "동작동금강KCC아파트",
      "address": "서울특별시 동작구 동작대로39가길 55",
      "lat": "37.4935141",
      "lng": "126.9788425",
      "total_count": 7,
      "available_count": 6,
      "total_percent": 85.7,
      "slow_total": 7,
      "slow_avail": 6,
      "slow_percent": 85.7,
      "fast_total": 0,
      "fast_avail": 0,
      "fast_percent": 0.0,
      "latest_update": "20260713120542"
    },
    {
      "station_id": "PI763499",
      "name": "유원강변아파트",
      "address": "서울특별시 동작구 노량진로23가길 20",
      "lat": "37.514864366",
      "lng": "126.95112145",
      "total_count": 7,
      "available_count": 7,
      "total_percent": 100.0,
      "slow_total": 7,
      "slow_avail": 7,
      "slow_percent": 100.0,
      "fast_total": 0,
      "fast_avail": 0,
      "fast_percent": 0.0,
      "latest_update": "20260713103540"
    },
    {
      "station_id": "PIH01117",
      "name": "서울 본동 유원강변아파트",
      "address": "서울특별시 동작구 노량진로23가길 20",
      "lat": "37.515033176",
      "lng": "126.95081311",
      "total_count": 7,
      "available_count": 7,
      "total_percent": 100.0,
      "slow_total": 7,
      "slow_avail": 7,
      "slow_percent": 100.0,
      "fast_total": 0,
      "fast_avail": 0,
      "fast_percent": 0.0,
      "latest_update": "20260630060353"
    },
    {
      "station_id": "PL003319",
      "name": "상도신동아리버파크아파트",
      "address": "서울특별시 동작구 만양로3길 78",
      "lat": "37.5063288",
      "lng": "126.941146",
      "total_count": 7,
      "available_count": 4,
      "total_percent": 57.1,
      "slow_total": 7,
      "slow_avail": 4,
      "slow_percent": 57.1,
      "fast_total": 0,
      "fast_avail": 0,
      "fast_percent": 0.0,
      "latest_update": "20260713212701"
    },
    {
      "station_id": "PL003359",
      "name": "유원강변아파트",
      "address": "서울특별시 동작구 노량진로23가길 20",
      "lat": "37.5150889",
      "lng": "126.9510287",
      "total_count": 7,
      "available_count": 5,
      "total_percent": 71.4,
      "slow_total": 7,
      "slow_avail": 5,
      "slow_percent": 71.4,
      "fast_total": 0,
      "fast_avail": 0,
      "fast_percent": 0.0,
      "latest_update": "20260713233431"
    },
    {
      "station_id": "PL003367",
      "name": "명수대현대아파트",
      "address": "서울 동작구 현충로 119",
      "lat": "37.5082714",
      "lng": "126.9672582",
      "total_count": 7,
      "available_count": 4,
      "total_percent": 57.1,
      "slow_total": 7,
      "slow_avail": 4,
      "slow_percent": 57.1,
      "fast_total": 0,
      "fast_avail": 0,
      "fast_percent": 0.0,
      "latest_update": "20260713221127"
    },
    {
      "station_id": "PL033728",
      "name": "중앙하이츠빌아파트",
      "address": "서울 동작구 상도로 320",
      "lat": "37.4998072",
      "lng": "126.9499021",
      "total_count": 7,
      "available_count": 4,
      "total_percent": 57.1,
      "slow_total": 7,
      "slow_avail": 4,
      "slow_percent": 57.1,
      "fast_total": 0,
      "fast_avail": 0,
      "fast_percent": 0.0,
      "latest_update": "20260713223314"
    },
    {
      "station_id": "PW010749",
      "name": "상도동중앙하이츠빌아파트",
      "address": "서울특별시 동작구 상도로 320",
      "lat": "37.499847720789",
      "lng": "126.9499330661",
      "total_count": 7,
      "available_count": 7,
      "total_percent": 100.0,
      "slow_total": 7,
      "slow_avail": 7,
      "slow_percent": 100.0,
      "fast_total": 0,
      "fast_avail": 0,
      "fast_percent": 0.0,
      "latest_update": "20260712220015"
    },
    {
      "station_id": "CV002022",
      "name": "신대방현대아파트 106동 지하2층",
      "address": "서울특별시 동작구 여의대방로 28",
      "lat": "37.493728",
      "lng": "126.91312",
      "total_count": 6,
      "available_count": 5,
      "total_percent": 83.3,
      "slow_total": 6,
      "slow_avail": 5,
      "slow_percent": 83.3,
      "fast_total": 0,
      "fast_avail": 0,
      "fast_percent": 0.0,
      "latest_update": "20260713232528"
    },
    {
      "station_id": "EASELSLC",
      "name": "상도동 롯데캐슬",
      "address": "서울특별시 동작구 양녕로 220",
      "lat": "37.500711110",
      "lng": "126.94555621",
      "total_count": 6,
      "available_count": 4,
      "total_percent": 66.7,
      "slow_total": 6,
      "slow_avail": 4,
      "slow_percent": 66.7,
      "fast_total": 0,
      "fast_avail": 0,
      "fast_percent": 0.0,
      "latest_update": "20260713220000"
    },
    {
      "station_id": "EV012437",
      "name": "서울동작 사당5구역신동아아파트 2",
      "address": "서울특별시 동작구 동작대로29길 118",
      "lat": "37.491041480",
      "lng": "126.97714822",
      "total_count": 6,
      "available_count": 3,
      "total_percent": 50.0,
      "slow_total": 6,
      "slow_avail": 3,
      "slow_percent": 50.0,
      "fast_total": 0,
      "fast_avail": 0,
      "fast_percent": 0.0,
      "latest_update": "20260713222635"
    },
    {
      "station_id": "EV013086",
      "name": "서울동작 래미안로이파크 2",
      "address": "서울특별시 동작구 사당로23길 112 (사당동, 래미안 로이파크)",
      "lat": "37.4877957",
      "lng": "126.9734721",
      "total_count": 6,
      "available_count": 2,
      "total_percent": 33.3,
      "slow_total": 6,
      "slow_avail": 2,
      "slow_percent": 33.3,
      "fast_total": 0,
      "fast_avail": 0,
      "fast_percent": 0.0,
      "latest_update": "20260713234924"
    },
    {
      "station_id": "EV013415",
      "name": "서울동작 흑석동양아파트 2",
      "address": "서울특별시 동작구 서달로1길 17",
      "lat": "37.5008678",
      "lng": "126.9584985",
      "total_count": 6,
      "available_count": 5,
      "total_percent": 83.3,
      "slow_total": 6,
      "slow_avail": 5,
      "slow_percent": 83.3,
      "fast_total": 0,
      "fast_avail": 0,
      "fast_percent": 0.0,
      "latest_update": "20260713222635"
    },
    {
      "station_id": "EV014436",
      "name": "서울동작 사당우성2단지아파트3",
      "address": "서울특별시 동작구 동작대로29길 91",
      "lat": "37.4874006",
      "lng": "126.977024",
      "total_count": 6,
      "available_count": 2,
      "total_percent": 33.3,
      "slow_total": 6,
      "slow_avail": 2,
      "slow_percent": 33.3,
      "fast_total": 0,
      "fast_avail": 0,
      "fast_percent": 0.0,
      "latest_update": "20260713231102"
    },
    {
      "station_id": "EV020853",
      "name": "서울동작 상도푸르지오클라베뉴 1",
      "address": "서울 동작구 성대로 164",
      "lat": "37.4973212",
      "lng": "126.9399855",
      "total_count": 6,
      "available_count": 3,
      "total_percent": 50.0,
      "slow_total": 6,
      "slow_avail": 3,
      "slow_percent": 50.0,
      "fast_total": 0,
      "fast_avail": 0,
      "fast_percent": 0.0,
      "latest_update": "20260713190559"
    },
    {
      "station_id": "EV020854",
      "name": "서울동작 상도푸르지오클라베뉴 2",
      "address": "서울 동작구 성대로 164",
      "lat": "37.4977265",
      "lng": "126.9397646",
      "total_count": 6,
      "available_count": 4,
      "total_percent": 66.7,
      "slow_total": 6,
      "slow_avail": 4,
      "slow_percent": 66.7,
      "fast_total": 0,
      "fast_avail": 0,
      "fast_percent": 0.0,
      "latest_update": "20260713230659"
    },
    {
      "station_id": "EV020855",
      "name": "서울동작 상도푸르지오클라베뉴 3",
      "address": "서울 동작구 성대로 164",
      "lat": "37.4981992",
      "lng": "126.9391479",
      "total_count": 6,
      "available_count": 6,
      "total_percent": 100.0,
      "slow_total": 6,
      "slow_avail": 6,
      "slow_percent": 100.0,
      "fast_total": 0,
      "fast_avail": 0,
      "fast_percent": 0.0,
      "latest_update": "20260713232912"
    },
    {
      "station_id": "EV020860",
      "name": "서울동작 상도푸르지오클라베뉴 8",
      "address": "서울 동작구 성대로 164",
      "lat": "37.4971629",
      "lng": "126.9388830",
      "total_count": 6,
      "available_count": 6,
      "total_percent": 100.0,
      "slow_total": 6,
      "slow_avail": 6,
      "slow_percent": 100.0,
      "fast_total": 0,
      "fast_avail": 0,
      "fast_percent": 0.0,
      "latest_update": "20260713115040"
    },
    {
      "station_id": "HM001579",
      "name": "보라매자이 더포레스트 상가",
      "address": "서울특별시 동작구 여의대방로22길 121",
      "lat": "37.4983519",
      "lng": "126.925286",
      "total_count": 6,
      "available_count": 4,
      "total_percent": 66.7,
      "slow_total": 6,
      "slow_avail": 4,
      "slow_percent": 66.7,
      "fast_total": 0,
      "fast_avail": 0,
      "fast_percent": 0.0,
      "latest_update": "20260713230618"
    },
    {
      "station_id": "IN120108",
      "name": "보라매코오롱하늘채아파트",
      "address": "서울특별시 동작구 여의대방로24다길 40",
      "lat": "37.4988",
      "lng": "126.9231",
      "total_count": 6,
      "available_count": 0,
      "total_percent": 0.0,
      "slow_total": 6,
      "slow_avail": 0,
      "slow_percent": 0.0,
      "fast_total": 0,
      "fast_avail": 0,
      "fast_percent": 0.0,
      "latest_update": "20260615122841"
    },
    {
      "station_id": "LU100742",
      "name": "동작래미안트윈파크",
      "address": "서울특별시 동작구 노량진로23가길 23",
      "lat": "37.51330347",
      "lng": "126.95178247",
      "total_count": 6,
      "available_count": 0,
      "total_percent": 0.0,
      "slow_total": 6,
      "slow_avail": 0,
      "slow_percent": 0.0,
      "fast_total": 0,
      "fast_avail": 0,
      "fast_percent": 0.0,
      "latest_update": "20260713205331"
    },
    {
      "station_id": "PI204297",
      "name": "서울시 동작구 한성아파트",
      "address": "서울특별시 동작구 여의대방로10길 13",
      "lat": "37.4957427",
      "lng": "126.9152118",
      "total_count": 6,
      "available_count": 2,
      "total_percent": 33.3,
      "slow_total": 6,
      "slow_avail": 2,
      "slow_percent": 33.3,
      "fast_total": 0,
      "fast_avail": 0,
      "fast_percent": 0.0,
      "latest_update": "20260713214754"
    },
    {
      "station_id": "PI717651",
      "name": "태성대아파트B",
      "address": "서울특별시 동작구 여의대방로16길 1",
      "lat": "37.495780084",
      "lng": "126.91704778",
      "total_count": 6,
      "available_count": 4,
      "total_percent": 66.7,
      "slow_total": 6,
      "slow_avail": 4,
      "slow_percent": 66.7,
      "fast_total": 0,
      "fast_avail": 0,
      "fast_percent": 0.0,
      "latest_update": "20260713212551"
    },
    {
      "station_id": "PI722579",
      "name": "사당롯데캐슬",
      "address": "서울특별시 동작구 사당로27길 181",
      "lat": "37.4901925",
      "lng": "126.971478",
      "total_count": 6,
      "available_count": 4,
      "total_percent": 66.7,
      "slow_total": 6,
      "slow_avail": 4,
      "slow_percent": 66.7,
      "fast_total": 0,
      "fast_avail": 0,
      "fast_percent": 0.0,
      "latest_update": "20260713230102"
    },
    {
      "station_id": "PI793888",
      "name": "서울 동작구 상도효성해링턴플레이스",
      "address": "서울특별시 동작구 상도로 207",
      "lat": "37.5055713",
      "lng": "126.9418563",
      "total_count": 6,
      "available_count": 3,
      "total_percent": 50.0,
      "slow_total": 6,
      "slow_avail": 3,
      "slow_percent": 50.0,
      "fast_total": 0,
      "fast_avail": 0,
      "fast_percent": 0.0,
      "latest_update": "20260713204800"
    },
    {
      "station_id": "PI796587",
      "name": "서울 동작구 경동윈츠리버아파트",
      "address": "서울특별시 동작구 노량진로32길 156",
      "lat": "37.5094181",
      "lng": "126.9545075",
      "total_count": 6,
      "available_count": 5,
      "total_percent": 83.3,
      "slow_total": 6,
      "slow_avail": 5,
      "slow_percent": 83.3,
      "fast_total": 0,
      "fast_avail": 0,
      "fast_percent": 0.0,
      "latest_update": "20260713202821"
    },
    {
      "station_id": "PI796613",
      "name": "서울 동작구 이수자이아파트",
      "address": "서울특별시 동작구 사당로 300",
      "lat": "37.4844359",
      "lng": "126.9803085",
      "total_count": 6,
      "available_count": 4,
      "total_percent": 66.7,
      "slow_total": 6,
      "slow_avail": 4,
      "slow_percent": 66.7,
      "fast_total": 0,
      "fast_avail": 0,
      "fast_percent": 0.0,
      "latest_update": "20260713201347"
    },
    {
      "station_id": "PI800086",
      "name": "이수역리가아파트B",
      "address": "서울특별시 동작구 사당로27길 130",
      "lat": "37.489501505",
      "lng": "126.97380645",
      "total_count": 6,
      "available_count": 2,
      "total_percent": 33.3,
      "slow_total": 6,
      "slow_avail": 2,
      "slow_percent": 33.3,
      "fast_total": 0,
      "fast_avail": 0,
      "fast_percent": 0.0,
      "latest_update": "20260713214241"
    },
    {
      "station_id": "PIS00056",
      "name": "서울 동작구 보라매코오롱하늘채아파트",
      "address": "서울특별시 동작구 여의대방로24다길 40",
      "lat": "37.4988000",
      "lng": "126.9231000",
      "total_count": 6,
      "available_count": 5,
      "total_percent": 83.3,
      "slow_total": 6,
      "slow_avail": 5,
      "slow_percent": 83.3,
      "fast_total": 0,
      "fast_avail": 0,
      "fast_percent": 0.0,
      "latest_update": "20260713235316"
    },
    {
      "station_id": "PL031100",
      "name": "한신휴플러스아파트",
      "address": "서울 동작구 매봉로 99",
      "lat": "37.5092075",
      "lng": "126.9491303",
      "total_count": 6,
      "available_count": 4,
      "total_percent": 66.7,
      "slow_total": 6,
      "slow_avail": 4,
      "slow_percent": 66.7,
      "fast_total": 0,
      "fast_avail": 0,
      "fast_percent": 0.0,
      "latest_update": "20260713205906"
    },
    {
      "station_id": "PL031733",
      "name": "서울 동작경향렉스빌 아파트",
      "address": "서울 동작구 양녕로23길 9",
      "lat": "37.4953242",
      "lng": "126.9417295",
      "total_count": 6,
      "available_count": 6,
      "total_percent": 100.0,
      "slow_total": 6,
      "slow_avail": 6,
      "slow_percent": 100.0,
      "fast_total": 0,
      "fast_avail": 0,
      "fast_percent": 0.0,
      "latest_update": "20260713070704"
    },
    {
      "station_id": "PL032817",
      "name": "사당자이아파트",
      "address": "서울 동작구 사당로2가길 102",
      "lat": "37.4883730",
      "lng": "126.9634174",
      "total_count": 6,
      "available_count": 2,
      "total_percent": 33.3,
      "slow_total": 6,
      "slow_avail": 2,
      "slow_percent": 33.3,
      "fast_total": 0,
      "fast_avail": 0,
      "fast_percent": 0.0,
      "latest_update": "20260713193015"
    },
    {
      "station_id": "PW100955",
      "name": "상도두산위브입주자대표회의",
      "address": "서울특별시 동작구 상도로30길 39",
      "lat": "37.504795624",
      "lng": "126.94229730",
      "total_count": 6,
      "available_count": 2,
      "total_percent": 33.3,
      "slow_total": 6,
      "slow_avail": 2,
      "slow_percent": 33.3,
      "fast_total": 0,
      "fast_avail": 0,
      "fast_percent": 0.0,
      "latest_update": "20260714000113"
    },
    {
      "station_id": "SF001352",
      "name": "보라매 나산 스위트",
      "address": "서울특별시 동작구 보라매로5가길 24",
      "lat": "37.490699532",
      "lng": "126.92394411",
      "total_count": 6,
      "available_count": 6,
      "total_percent": 100.0,
      "slow_total": 6,
      "slow_avail": 6,
      "slow_percent": 100.0,
      "fast_total": 0,
      "fast_avail": 0,
      "fast_percent": 0.0,
      "latest_update": "20260519112433"
    },
    {
      "station_id": "CGA00147",
      "name": "동작 보라매우성아파트①",
      "address": "서울특별시 동작구 보라매로5길 5",
      "lat": "37.4924608",
      "lng": "126.9251365",
      "total_count": 5,
      "available_count": 5,
      "total_percent": 100.0,
      "slow_total": 5,
      "slow_avail": 5,
      "slow_percent": 100.0,
      "fast_total": 0,
      "fast_avail": 0,
      "fast_percent": 0.0,
      "latest_update": "20260713070006"
    },
    {
      "station_id": "CU200015",
      "name": "보라매롯데낙천대아파트",
      "address": "서울특별시 동작구 여의대방로10길 38",
      "lat": "37.4940583",
      "lng": "126.914141",
      "total_count": 5,
      "available_count": 3,
      "total_percent": 60.0,
      "slow_total": 5,
      "slow_avail": 3,
      "slow_percent": 60.0,
      "fast_total": 0,
      "fast_avail": 0,
      "fast_percent": 0.0,
      "latest_update": "20260713223628"
    },
    {
      "station_id": "EV002998",
      "name": "서울동작 대방1차e편한세상B3",
      "address": "서울특별시 동작구 알마타길 37",
      "lat": "37.5122178",
      "lng": "126.9291887",
      "total_count": 5,
      "available_count": 3,
      "total_percent": 60.0,
      "slow_total": 5,
      "slow_avail": 3,
      "slow_percent": 60.0,
      "fast_total": 0,
      "fast_avail": 0,
      "fast_percent": 0.0,
      "latest_update": "20260713230051"
    },
    {
      "station_id": "EV003857",
      "name": "서울동작 힐스테이트상도센트럴파크1",
      "address": "서울특별시 동작구 상도로 346-1",
      "lat": "37.49679",
      "lng": "126.9516675",
      "total_count": 5,
      "available_count": 2,
      "total_percent": 40.0,
      "slow_total": 5,
      "slow_avail": 2,
      "slow_percent": 40.0,
      "fast_total": 0,
      "fast_avail": 0,
      "fast_percent": 0.0,
      "latest_update": "20260713201307"
    },
    {
      "station_id": "EV011399",
      "name": "서울동작 쌍용스윗닷홈 1",
      "address": "서울특별시 동작구 상도로 107",
      "lat": "37.501589911",
      "lng": "126.93208259",
      "total_count": 5,
      "available_count": 4,
      "total_percent": 80.0,
      "slow_total": 5,
      "slow_avail": 4,
      "slow_percent": 80.0,
      "fast_total": 0,
      "fast_avail": 0,
      "fast_percent": 0.0,
      "latest_update": "20260713111118"
    },
    {
      "station_id": "EV011400",
      "name": "서울동작 쌍용스윗닷홈 2",
      "address": "서울특별시 동작구 상도로 107",
      "lat": "37.501974778",
      "lng": "126.93153939",
      "total_count": 5,
      "available_count": 5,
      "total_percent": 100.0,
      "slow_total": 5,
      "slow_avail": 5,
      "slow_percent": 100.0,
      "fast_total": 0,
      "fast_avail": 0,
      "fast_percent": 0.0,
      "latest_update": "20260713043923"
    },
    {
      "station_id": "EV014031",
      "name": "서울동작 사당우성2단지아파트 2",
      "address": "서울특별시 동작구 동작대로29길 91",
      "lat": "37.4882383",
      "lng": "126.9759948",
      "total_count": 5,
      "available_count": 4,
      "total_percent": 80.0,
      "slow_total": 5,
      "slow_avail": 4,
      "slow_percent": 80.0,
      "fast_total": 0,
      "fast_avail": 0,
      "fast_percent": 0.0,
      "latest_update": "20260713183600"
    },
    {
      "station_id": "EV015785",
      "name": "서울동작 신대방경남아파트 1",
      "address": "서울특별시 동작구 신대방길 85 (신대방동, 경남아파트)",
      "lat": "37.4900534",
      "lng": "126.9083379",
      "total_count": 5,
      "available_count": 3,
      "total_percent": 60.0,
      "slow_total": 5,
      "slow_avail": 3,
      "slow_percent": 60.0,
      "fast_total": 0,
      "fast_avail": 0,
      "fast_percent": 0.0,
      "latest_update": "20260713230442"
    },
    {
      "station_id": "EV015786",
      "name": "서울동작 신대방경남아파트 2",
      "address": "서울특별시 동작구 신대방길 85 (신대방동, 경남아파트)",
      "lat": "37.4900534",
      "lng": "126.9083379",
      "total_count": 5,
      "available_count": 4,
      "total_percent": 80.0,
      "slow_total": 5,
      "slow_avail": 4,
      "slow_percent": 80.0,
      "fast_total": 0,
      "fast_avail": 0,
      "fast_percent": 0.0,
      "latest_update": "20260713213402"
    },
    {
      "station_id": "EV020857",
      "name": "서울동작 상도푸르지오클라베뉴 5",
      "address": "서울 동작구 성대로 164",
      "lat": "37.4980867",
      "lng": "126.9393403",
      "total_count": 5,
      "available_count": 4,
      "total_percent": 80.0,
      "slow_total": 5,
      "slow_avail": 4,
      "slow_percent": 80.0,
      "fast_total": 0,
      "fast_avail": 0,
      "fast_percent": 0.0,
      "latest_update": "20260713184003"
    },
    {
      "station_id": "EV020858",
      "name": "서울동작 상도푸르지오클라베뉴 6",
      "address": "서울 동작구 성대로 164",
      "lat": "37.4981623",
      "lng": "126.9394804",
      "total_count": 5,
      "available_count": 5,
      "total_percent": 100.0,
      "slow_total": 5,
      "slow_avail": 5,
      "slow_percent": 100.0,
      "fast_total": 0,
      "fast_avail": 0,
      "fast_percent": 0.0,
      "latest_update": "20260713061348"
    },
    {
      "station_id": "EV020859",
      "name": "서울동작 상도푸르지오클라베뉴 7",
      "address": "서울 동작구 성대로 164",
      "lat": "37.4980818",
      "lng": "126.9386561",
      "total_count": 5,
      "available_count": 2,
      "total_percent": 40.0,
      "slow_total": 5,
      "slow_avail": 2,
      "slow_percent": 40.0,
      "fast_total": 0,
      "fast_avail": 0,
      "fast_percent": 0.0,
      "latest_update": "20260713225654"
    },
    {
      "station_id": "EV020861",
      "name": "서울동작 상도푸르지오클라베뉴 9",
      "address": "서울 동작구 성대로 164",
      "lat": "37.4971540",
      "lng": "126.9390357",
      "total_count": 5,
      "available_count": 3,
      "total_percent": 60.0,
      "slow_total": 5,
      "slow_avail": 3,
      "slow_percent": 60.0,
      "fast_total": 0,
      "fast_avail": 0,
      "fast_percent": 0.0,
      "latest_update": "20260713210140"
    },
    {
      "station_id": "HY000897",
      "name": "현대자동차 남부서비스센터",
      "address": "서울특별시 동작구 노량진로 53",
      "lat": "37.514174",
      "lng": "126.93165",
      "total_count": 5,
      "available_count": 4,
      "total_percent": 80.0,
      "slow_total": 5,
      "slow_avail": 4,
      "slow_percent": 80.0,
      "fast_total": 0,
      "fast_avail": 0,
      "fast_percent": 0.0,
      "latest_update": "20260713222105"
    },
    {
      "station_id": "KE000095",
      "name": "서울동작경동윈츠리버",
      "address": "서울특별시 동작구 노량진로32길 156",
      "lat": "37.5100528",
      "lng": "126.9544921",
      "total_count": 5,
      "available_count": 5,
      "total_percent": 100.0,
      "slow_total": 5,
      "slow_avail": 5,
      "slow_percent": 100.0,
      "fast_total": 0,
      "fast_avail": 0,
      "fast_percent": 0.0,
      "latest_update": "20260713020510"
    },
    {
      "station_id": "KL001978",
      "name": "보라매e편한세상아파트",
      "address": "서울특별시 동작구 보라매로 70",
      "lat": "37.4955537",
      "lng": "126.928305",
      "total_count": 5,
      "available_count": 4,
      "total_percent": 80.0,
      "slow_total": 5,
      "slow_avail": 4,
      "slow_percent": 80.0,
      "fast_total": 0,
      "fast_avail": 0,
      "fast_percent": 0.0,
      "latest_update": "20260713235001"
    },
    {
      "station_id": "KL002002",
      "name": "상도더샵아파트",
      "address": "서울특별시 동작구 장승배기로4길 9",
      "lat": "37.502222",
      "lng": "126.9433204",
      "total_count": 5,
      "available_count": 1,
      "total_percent": 20.0,
      "slow_total": 5,
      "slow_avail": 1,
      "slow_percent": 20.0,
      "fast_total": 0,
      "fast_avail": 0,
      "fast_percent": 0.0,
      "latest_update": "20260713224202"
    },
    {
      "station_id": "KL002128",
      "name": "우리유앤미아파트",
      "address": "서울특별시 동작구 서달로 83",
      "lat": "37.5001922",
      "lng": "126.9597721",
      "total_count": 5,
      "available_count": 5,
      "total_percent": 100.0,
      "slow_total": 5,
      "slow_avail": 5,
      "slow_percent": 100.0,
      "fast_total": 0,
      "fast_avail": 0,
      "fast_percent": 0.0,
      "latest_update": "20260713223701"
    },
    {
      "station_id": "PC001082",
      "name": "삼호그린아파트(동작)",
      "address": "서울특별시 동작구 사당로2가길 188",
      "lat": "37.4864435",
      "lng": "126.9655243",
      "total_count": 5,
      "available_count": 4,
      "total_percent": 80.0,
      "slow_total": 5,
      "slow_avail": 4,
      "slow_percent": 80.0,
      "fast_total": 0,
      "fast_avail": 0,
      "fast_percent": 0.0,
      "latest_update": "20260713165747"
    },
    {
      "station_id": "PI709323",
      "name": "보라매나산스위트B",
      "address": "서울특별시 동작구 보라매로5가길 24",
      "lat": "37.490666979",
      "lng": "126.92390298",
      "total_count": 5,
      "available_count": 4,
      "total_percent": 80.0,
      "slow_total": 5,
      "slow_avail": 4,
      "slow_percent": 80.0,
      "fast_total": 0,
      "fast_avail": 0,
      "fast_percent": 0.0,
      "latest_update": "20260713215013"
    },
    {
      "station_id": "PI717642",
      "name": "신동아파밀리에하늘마루아파트B",
      "address": "서울특별시 동작구 알마타길 6",
      "lat": "37.510323463",
      "lng": "126.92553720",
      "total_count": 5,
      "available_count": 3,
      "total_percent": 60.0,
      "slow_total": 5,
      "slow_avail": 3,
      "slow_percent": 60.0,
      "fast_total": 0,
      "fast_avail": 0,
      "fast_percent": 0.0,
      "latest_update": "20260713232642"
    },
    {
      "station_id": "PI770908",
      "name": "브라운스톤상도B",
      "address": "서울특별시 동작구 상도로31길 19",
      "lat": "37.506204750",
      "lng": "126.94388594",
      "total_count": 5,
      "available_count": 1,
      "total_percent": 20.0,
      "slow_total": 5,
      "slow_avail": 1,
      "slow_percent": 20.0,
      "fast_total": 0,
      "fast_avail": 0,
      "fast_percent": 0.0,
      "latest_update": "20260713231216"
    },
    {
      "station_id": "PI774028",
      "name": "대방2차e편한세상아파트",
      "address": "서울특별시 동작구 알마타길 53",
      "lat": "37.5120403",
      "lng": "126.9313464",
      "total_count": 5,
      "available_count": 5,
      "total_percent": 100.0,
      "slow_total": 5,
      "slow_avail": 5,
      "slow_percent": 100.0,
      "fast_total": 0,
      "fast_avail": 0,
      "fast_percent": 0.0,
      "latest_update": "20260711063744"
    },
    {
      "station_id": "PI780225",
      "name": "이수역리가아파트",
      "address": "서울특별시 동작구 사당로27길 130",
      "lat": "37.489328001",
      "lng": "126.97353514",
      "total_count": 5,
      "available_count": 2,
      "total_percent": 40.0,
      "slow_total": 5,
      "slow_avail": 2,
      "slow_percent": 40.0,
      "fast_total": 0,
      "fast_avail": 0,
      "fast_percent": 0.0,
      "latest_update": "20260713194009"
    },
    {
      "station_id": "PIH00129",
      "name": "서울 상도동 대우유로카운티아파트",
      "address": "서울특별시 동작구 양녕로 287",
      "lat": "37.505382755",
      "lng": "126.94924456",
      "total_count": 5,
      "available_count": 4,
      "total_percent": 80.0,
      "slow_total": 5,
      "slow_avail": 4,
      "slow_percent": 80.0,
      "fast_total": 0,
      "fast_avail": 0,
      "fast_percent": 0.0,
      "latest_update": "20260713224725"
    },
    {
      "station_id": "PIH01047",
      "name": "우정아파트",
      "address": "서울특별시 동작구 여의대방로62길 23",
      "lat": "37.5142803",
      "lng": "126.9294056",
      "total_count": 5,
      "available_count": 3,
      "total_percent": 60.0,
      "slow_total": 5,
      "slow_avail": 3,
      "slow_percent": 60.0,
      "fast_total": 0,
      "fast_avail": 0,
      "fast_percent": 0.0,
      "latest_update": "20260713201731"
    },
    {
      "station_id": "PL003314",
      "name": "메가스터디타워",
      "address": "서울특별시 동작구 노량진로 140",
      "lat": "37.5127569",
      "lng": "126.9417006",
      "total_count": 5,
      "available_count": 3,
      "total_percent": 60.0,
      "slow_total": 5,
      "slow_avail": 3,
      "slow_percent": 60.0,
      "fast_total": 0,
      "fast_avail": 0,
      "fast_percent": 0.0,
      "latest_update": "20260710142352"
    },
    {
      "station_id": "PL032449",
      "name": "현대아파트(서울 동작구)",
      "address": "서울 동작구 사당로17길 111",
      "lat": "37.4877461",
      "lng": "126.9706660",
      "total_count": 5,
      "available_count": 4,
      "total_percent": 80.0,
      "slow_total": 5,
      "slow_avail": 4,
      "slow_percent": 80.0,
      "fast_total": 0,
      "fast_avail": 0,
      "fast_percent": 0.0,
      "latest_update": "20260713151332"
    },
    {
      "station_id": "PL033302",
      "name": "삼호아파트",
      "address": "서울 동작구 상도로 407",
      "lat": "37.4939174",
      "lng": "126.9577733",
      "total_count": 5,
      "available_count": 0,
      "total_percent": 0.0,
      "slow_total": 5,
      "slow_avail": 0,
      "slow_percent": 0.0,
      "fast_total": 0,
      "fast_avail": 0,
      "fast_percent": 0.0,
      "latest_update": "20260713230717"
    },
    {
      "station_id": "PW010649",
      "name": "힐스테이트상도센트럴파크아파트",
      "address": "서울특별시 동작구 상도로 346-1",
      "lat": "37.4967886",
      "lng": "126.9516675",
      "total_count": 5,
      "available_count": 3,
      "total_percent": 60.0,
      "slow_total": 5,
      "slow_avail": 3,
      "slow_percent": 60.0,
      "fast_total": 0,
      "fast_avail": 0,
      "fast_percent": 0.0,
      "latest_update": "20260713201906"
    },
    {
      "station_id": "PW100552",
      "name": "원불교소태산기념관",
      "address": "서울특별시 동작구 현충로 75",
      "lat": "37.509759085",
      "lng": "126.96385931",
      "total_count": 5,
      "available_count": 5,
      "total_percent": 100.0,
      "slow_total": 5,
      "slow_avail": 5,
      "slow_percent": 100.0,
      "fast_total": 0,
      "fast_avail": 0,
      "fast_percent": 0.0,
      "latest_update": "20260713193411"
    },
    {
      "station_id": "RE000060",
      "name": "상도SH빌아파트",
      "address": "서울특별시 동작구 상도로53길 70",
      "lat": "37.503",
      "lng": "126.955",
      "total_count": 5,
      "available_count": 5,
      "total_percent": 100.0,
      "slow_total": 5,
      "slow_avail": 5,
      "slow_percent": 100.0,
      "fast_total": 0,
      "fast_avail": 0,
      "fast_percent": 0.0,
      "latest_update": "20260713230402"
    },
    {
      "station_id": "BT000169",
      "name": "동작주차공원주차장",
      "address": "서울특별시 동작구 현충로 213",
      "lat": "37.5036433",
      "lng": "126.9786893",
      "total_count": 4,
      "available_count": 2,
      "total_percent": 50.0,
      "slow_total": 0,
      "slow_avail": 0,
      "slow_percent": 0.0,
      "fast_total": 4,
      "fast_avail": 2,
      "fast_percent": 50.0,
      "latest_update": "20260712182337"
    },
    {
      "station_id": "BT000170",
      "name": "도화주차장",
      "address": "서울특별시 동작구 성대로17길 지하52",
      "lat": "37.49981478",
      "lng": "126.9351916",
      "total_count": 4,
      "available_count": 1,
      "total_percent": 25.0,
      "slow_total": 0,
      "slow_avail": 0,
      "slow_percent": 0.0,
      "fast_total": 4,
      "fast_avail": 1,
      "fast_percent": 25.0,
      "latest_update": "20260713234452"
    },
    {
      "station_id": "BT000171",
      "name": "서광주차장",
      "address": "서울특별시 동작구 신대방11길 32",
      "lat": "37.48879253",
      "lng": "126.9078409",
      "total_count": 4,
      "available_count": 2,
      "total_percent": 50.0,
      "slow_total": 0,
      "slow_avail": 0,
      "slow_percent": 0.0,
      "fast_total": 4,
      "fast_avail": 2,
      "fast_percent": 50.0,
      "latest_update": "20260712183520"
    },
    {
      "station_id": "EC110104",
      "name": "보라매공영주차장 (급)",
      "address": "서울특별시 동작구 보라매로5길 44",
      "lat": "37.4916394",
      "lng": "126.9228301",
      "total_count": 4,
      "available_count": 0,
      "total_percent": 0.0,
      "slow_total": 0,
      "slow_avail": 0,
      "slow_percent": 0.0,
      "fast_total": 4,
      "fast_avail": 0,
      "fast_percent": 0.0,
      "latest_update": "20260526152602"
    },
    {
      "station_id": "EC110124",
      "name": "숲속마을신동아파밀리에",
      "address": "서울특별시 동작구 여의대방로10길 100",
      "lat": "37.4920144",
      "lng": "126.9145398",
      "total_count": 4,
      "available_count": 4,
      "total_percent": 100.0,
      "slow_total": 4,
      "slow_avail": 4,
      "slow_percent": 100.0,
      "fast_total": 0,
      "fast_avail": 0,
      "fast_percent": 0.0,
      "latest_update": "20260713195602"
    },
    {
      "station_id": "EP210224",
      "name": "에스케이브로드밴드주식회사(여의대방로)",
      "address": "서울특별시 동작구 여의대방로 74",
      "lat": "37.49641",
      "lng": "126.9144902",
      "total_count": 4,
      "available_count": 0,
      "total_percent": 0.0,
      "slow_total": 4,
      "slow_avail": 0,
      "slow_percent": 0.0,
      "fast_total": 0,
      "fast_avail": 0,
      "fast_percent": 0.0,
      "latest_update": "20260703030810"
    },
    {
      "station_id": "EV013085",
      "name": "서울동작 래미안로이파크 1",
      "address": "서울특별시 동작구 사당로23길 112",
      "lat": "37.487795732",
      "lng": "126.97347213",
      "total_count": 4,
      "available_count": 3,
      "total_percent": 75.0,
      "slow_total": 4,
      "slow_avail": 3,
      "slow_percent": 75.0,
      "fast_total": 0,
      "fast_avail": 0,
      "fast_percent": 0.0,
      "latest_update": "20260713182149"
    },
    {
      "station_id": "EV013910",
      "name": "서울동작 래미안로이파크 3",
      "address": "서울특별시 동작구 사당로23길 112",
      "lat": "37.4877957",
      "lng": "126.9734721",
      "total_count": 4,
      "available_count": 1,
      "total_percent": 25.0,
      "slow_total": 4,
      "slow_avail": 1,
      "slow_percent": 25.0,
      "fast_total": 0,
      "fast_avail": 0,
      "fast_percent": 0.0,
      "latest_update": "20260713223838"
    },
    {
      "station_id": "EV014030",
      "name": "서울동작 사당우성2단지아파트 1",
      "address": "서울특별시 동작구 동작대로29길 91",
      "lat": "37.4880807",
      "lng": "126.9762380",
      "total_count": 4,
      "available_count": 2,
      "total_percent": 50.0,
      "slow_total": 4,
      "slow_avail": 2,
      "slow_percent": 50.0,
      "fast_total": 0,
      "fast_avail": 0,
      "fast_percent": 0.0,
      "latest_update": "20260713200208"
    },
    {
      "station_id": "EV016402",
      "name": "서울동작 대방1차e편한세상 2",
      "address": "서울특별시 동작구 알마타길 37 (대방동, 대방1차e-편한세상)",
      "lat": "37.5126599",
      "lng": "126.9295526",
      "total_count": 4,
      "available_count": 4,
      "total_percent": 100.0,
      "slow_total": 4,
      "slow_avail": 4,
      "slow_percent": 100.0,
      "fast_total": 0,
      "fast_avail": 0,
      "fast_percent": 0.0,
      "latest_update": "20260713160015"
    },
    {
      "station_id": "EV017796",
      "name": "서울동작 중앙대학교 6",
      "address": "서울특별시 동작구 흑석동 221 중앙대학교",
      "lat": "37.5043967",
      "lng": "126.9931151",
      "total_count": 4,
      "available_count": 4,
      "total_percent": 100.0,
      "slow_total": 3,
      "slow_avail": 3,
      "slow_percent": 100.0,
      "fast_total": 1,
      "fast_avail": 1,
      "fast_percent": 100.0,
      "latest_update": "20260714000049"
    },
    {
      "station_id": "EV018448",
      "name": "서울동작 사당휴먼시아 4",
      "address": "서울특별시 동작구 사당로16길 96",
      "lat": "37.4794961",
      "lng": "126.9701405",
      "total_count": 4,
      "available_count": 3,
      "total_percent": 75.0,
      "slow_total": 4,
      "slow_avail": 3,
      "slow_percent": 75.0,
      "fast_total": 0,
      "fast_avail": 0,
      "fast_percent": 0.0,
      "latest_update": "20260713205739"
    },
    {
      "station_id": "EV018449",
      "name": "서울동작 사당휴먼시아 5",
      "address": "서울특별시 동작구 사당로16길 96",
      "lat": "37.4794961",
      "lng": "126.9701405",
      "total_count": 4,
      "available_count": 4,
      "total_percent": 100.0,
      "slow_total": 4,
      "slow_avail": 4,
      "slow_percent": 100.0,
      "fast_total": 0,
      "fast_avail": 0,
      "fast_percent": 0.0,
      "latest_update": "20260713123607"
    },
    {
      "station_id": "EV018995",
      "name": "서울동작 본동신동아아파트 1",
      "address": "서울특별시 동작구 매봉로 134",
      "lat": "37.5101470",
      "lng": "126.9514909",
      "total_count": 4,
      "available_count": 3,
      "total_percent": 75.0,
      "slow_total": 4,
      "slow_avail": 3,
      "slow_percent": 75.0,
      "fast_total": 0,
      "fast_avail": 0,
      "fast_percent": 0.0,
      "latest_update": "20260713223842"
    },
    {
      "station_id": "HE000225",
      "name": "남부수도사업소",
      "address": "서울특별시 동작구 여의대방로10길 97 (신대방동, 남부수도사업소)",
      "lat": "37.4293",
      "lng": "126.9154",
      "total_count": 4,
      "available_count": 0,
      "total_percent": 0.0,
      "slow_total": 4,
      "slow_avail": 0,
      "slow_percent": 0.0,
      "fast_total": 0,
      "fast_avail": 0,
      "fast_percent": 0.0,
      "latest_update": "20260713104810"
    },
    {
      "station_id": "HE192485",
      "name": "상도삼호아파트",
      "address": "서울특별시 동작구 상도로 407",
      "lat": "37.493362",
      "lng": "126.957483",
      "total_count": 4,
      "available_count": 2,
      "total_percent": 50.0,
      "slow_total": 4,
      "slow_avail": 2,
      "slow_percent": 50.0,
      "fast_total": 0,
      "fast_avail": 0,
      "fast_percent": 0.0,
      "latest_update": "20260714000600"
    },
    {
      "station_id": "HE240388",
      "name": "남부수도사업소",
      "address": "서울특별시 동작구 여의대방로10길 97",
      "lat": "37.492269833",
      "lng": "126.91587565",
      "total_count": 4,
      "available_count": 3,
      "total_percent": 75.0,
      "slow_total": 4,
      "slow_avail": 3,
      "slow_percent": 75.0,
      "fast_total": 0,
      "fast_avail": 0,
      "fast_percent": 0.0,
      "latest_update": "20260713212500"
    },
    {
      "station_id": "HM000160",
      "name": "노량진삼익아파트",
      "address": "서울특별시 동작구 만양로 84",
      "lat": "37.511107940",
      "lng": "126.94460354",
      "total_count": 4,
      "available_count": 2,
      "total_percent": 50.0,
      "slow_total": 4,
      "slow_avail": 2,
      "slow_percent": 50.0,
      "fast_total": 0,
      "fast_avail": 0,
      "fast_percent": 0.0,
      "latest_update": "20260713232001"
    },
    {
      "station_id": "JA110116",
      "name": "동작주차공원공영주차장",
      "address": "서울특별시 동작구 현충로 213",
      "lat": "37.50390472",
      "lng": "126.9767928",
      "total_count": 4,
      "available_count": 4,
      "total_percent": 100.0,
      "slow_total": 4,
      "slow_avail": 4,
      "slow_percent": 100.0,
      "fast_total": 0,
      "fast_avail": 0,
      "fast_percent": 0.0,
      "latest_update": "20260713214008"
    },
    {
      "station_id": "KP001273",
      "name": "동작상떼빌 아파트",
      "address": "서울특별시 동작구 신대방동 신대방1가길 38",
      "lat": "37.487899553",
      "lng": "126.906937744",
      "total_count": 4,
      "available_count": 4,
      "total_percent": 100.0,
      "slow_total": 3,
      "slow_avail": 3,
      "slow_percent": 100.0,
      "fast_total": 1,
      "fast_avail": 1,
      "fast_percent": 100.0,
      "latest_update": "20260713042019"
    },
    {
      "station_id": "KP001277",
      "name": "흑석한강센트레빌",
      "address": "서울특별시 동작구 흑석동 흑석한강로 2",
      "lat": "37.5051797465",
      "lng": "126.9645145496",
      "total_count": 4,
      "available_count": 2,
      "total_percent": 50.0,
      "slow_total": 3,
      "slow_avail": 1,
      "slow_percent": 33.3,
      "fast_total": 1,
      "fast_avail": 1,
      "fast_percent": 100.0,
      "latest_update": "20260713225007"
    },
    {
      "station_id": "LU101574",
      "name": "사당유니드아파트",
      "address": "서울특별시 동작구 동작대로29길 195",
      "lat": "37.4932876",
      "lng": "126.9749856",
      "total_count": 4,
      "available_count": 2,
      "total_percent": 50.0,
      "slow_total": 4,
      "slow_avail": 2,
      "slow_percent": 50.0,
      "fast_total": 0,
      "fast_avail": 0,
      "fast_percent": 0.0,
      "latest_update": "20260713213852"
    },
    {
      "station_id": "NT102536",
      "name": "동작 대방주공1단지아파트",
      "address": "서울특별시 동작구 여의대방로44길 47",
      "lat": "37.510754",
      "lng": "126.930153",
      "total_count": 4,
      "available_count": 2,
      "total_percent": 50.0,
      "slow_total": 4,
      "slow_avail": 2,
      "slow_percent": 50.0,
      "fast_total": 0,
      "fast_avail": 0,
      "fast_percent": 0.0,
      "latest_update": "20260713215250"
    },
    {
      "station_id": "PC000111",
      "name": "상도 더샵2차아파트(동작)",
      "address": "서울특별시 동작구 장승배기로10길 100",
      "lat": "37.502868",
      "lng": "126.943452",
      "total_count": 4,
      "available_count": 3,
      "total_percent": 75.0,
      "slow_total": 3,
      "slow_avail": 2,
      "slow_percent": 66.7,
      "fast_total": 1,
      "fast_avail": 1,
      "fast_percent": 100.0,
      "latest_update": "20260713210653"
    },
    {
      "station_id": "PC001282",
      "name": "동원베네스트아파트(동작)",
      "address": "서울특별시 동작구 상도로34길 42",
      "lat": "37.5029051",
      "lng": "126.9444482",
      "total_count": 4,
      "available_count": 2,
      "total_percent": 50.0,
      "slow_total": 4,
      "slow_avail": 2,
      "slow_percent": 50.0,
      "fast_total": 0,
      "fast_avail": 0,
      "fast_percent": 0.0,
      "latest_update": "20260713225238"
    },
    {
      "station_id": "PI019154",
      "name": "신대방2차우성아파트",
      "address": "서울특별시 동작구 여의대방로 8",
      "lat": "37.492639553",
      "lng": "126.91017325",
      "total_count": 4,
      "available_count": 4,
      "total_percent": 100.0,
      "slow_total": 4,
      "slow_avail": 4,
      "slow_percent": 100.0,
      "fast_total": 0,
      "fast_avail": 0,
      "fast_percent": 0.0,
      "latest_update": "20260712150600"
    },
    {
      "station_id": "PI200767",
      "name": "서울시 동작구 신대방2차우성",
      "address": "서울특별시 동작구 여의대방로 8",
      "lat": "37.492527026",
      "lng": "126.91030343",
      "total_count": 4,
      "available_count": 4,
      "total_percent": 100.0,
      "slow_total": 4,
      "slow_avail": 4,
      "slow_percent": 100.0,
      "fast_total": 0,
      "fast_avail": 0,
      "fast_percent": 0.0,
      "latest_update": "20260713191709"
    },
    {
      "station_id": "PI204036",
      "name": "서울시 동작구 남도학숙",
      "address": "서울특별시 동작구 여의대방로44길 46",
      "lat": "37.508631094",
      "lng": "126.92828501",
      "total_count": 4,
      "available_count": 3,
      "total_percent": 75.0,
      "slow_total": 4,
      "slow_avail": 3,
      "slow_percent": 75.0,
      "fast_total": 0,
      "fast_avail": 0,
      "fast_percent": 0.0,
      "latest_update": "20260712020620"
    },
    {
      "station_id": "PI204187",
      "name": "서울시 동작구 사당동진흥아파트",
      "address": "서울특별시 동작구 사당로16아길 43",
      "lat": "37.480562",
      "lng": "126.9693294",
      "total_count": 4,
      "available_count": 4,
      "total_percent": 100.0,
      "slow_total": 4,
      "slow_avail": 4,
      "slow_percent": 100.0,
      "fast_total": 0,
      "fast_avail": 0,
      "fast_percent": 0.0,
      "latest_update": "20260713210358"
    },
    {
      "station_id": "PI204247",
      "name": "서울시 동작구 총신대사당캠퍼스",
      "address": "서울특별시 동작구 사당로 143",
      "lat": "37.4879290",
      "lng": "126.9667631",
      "total_count": 4,
      "available_count": 4,
      "total_percent": 100.0,
      "slow_total": 4,
      "slow_avail": 4,
      "slow_percent": 100.0,
      "fast_total": 0,
      "fast_avail": 0,
      "fast_percent": 0.0,
      "latest_update": "20260713122647"
    },
    {
      "station_id": "PI708595",
      "name": "보라매현대아파트",
      "address": "서울특별시 동작구 보라매로5길 35",
      "lat": "37.492117426",
      "lng": "126.92363295",
      "total_count": 4,
      "available_count": 4,
      "total_percent": 100.0,
      "slow_total": 4,
      "slow_avail": 4,
      "slow_percent": 100.0,
      "fast_total": 0,
      "fast_avail": 0,
      "fast_percent": 0.0,
      "latest_update": "20260704210012"
    },
    {
      "station_id": "PI747437",
      "name": "BMW차징스테이션 삼익그린뷰아파트",
      "address": "서울특별시 동작구 남부순환로255길 21",
      "lat": "37.4772209",
      "lng": "126.9697492",
      "total_count": 4,
      "available_count": 2,
      "total_percent": 50.0,
      "slow_total": 4,
      "slow_avail": 2,
      "slow_percent": 50.0,
      "fast_total": 0,
      "fast_avail": 0,
      "fast_percent": 0.0,
      "latest_update": "20260713224759"
    },
    {
      "station_id": "PI808556",
      "name": "서울 동작구 래미안상도2차아파트",
      "address": "서울특별시 동작구 상도로55길 47",
      "lat": "37.4983401",
      "lng": "126.9588505",
      "total_count": 4,
      "available_count": 3,
      "total_percent": 75.0,
      "slow_total": 4,
      "slow_avail": 3,
      "slow_percent": 75.0,
      "fast_total": 0,
      "fast_avail": 0,
      "fast_percent": 0.0,
      "latest_update": "20260713192325"
    },
    {
      "station_id": "PL000464",
      "name": "명수대현대아파트",
      "address": "서울특별시 동작구 현충로 119",
      "lat": "37.5082713",
      "lng": "126.9672582",
      "total_count": 4,
      "available_count": 0,
      "total_percent": 0.0,
      "slow_total": 4,
      "slow_avail": 0,
      "slow_percent": 0.0,
      "fast_total": 0,
      "fast_avail": 0,
      "fast_percent": 0.0,
      "latest_update": "20260713203507"
    },
    {
      "station_id": "ME21B305",
      "name": "남부수도사업소",
      "address": "서울특별시 동작구 여의대방로10길 97",
      "lat": "37.4921248",
      "lng": "126.914969",
      "total_count": 3,
      "available_count": 3,
      "total_percent": 100.0,
      "slow_total": 0,
      "slow_avail": 0,
      "slow_percent": 0.0,
      "fast_total": 3,
      "fast_avail": 3,
      "fast_percent": 100.0,
      "latest_update": "20260713235252"
    },
    {
      "station_id": "CGA00116",
      "name": "동작 대방2차현대아파트",
      "address": "서울특별시 동작구 알마타길 58",
      "lat": "37.510813573",
      "lng": "126.93142953",
      "total_count": 3,
      "available_count": 2,
      "total_percent": 66.7,
      "slow_total": 3,
      "slow_avail": 2,
      "slow_percent": 66.7,
      "fast_total": 0,
      "fast_avail": 0,
      "fast_percent": 0.0,
      "latest_update": "20260713220018"
    },
    {
      "station_id": "CGA00142",
      "name": "동작 장은해그린아파트_지상",
      "address": "서울특별시 동작구 사당로2길 40",
      "lat": "37.4919177",
      "lng": "126.9634132",
      "total_count": 3,
      "available_count": 2,
      "total_percent": 66.7,
      "slow_total": 3,
      "slow_avail": 2,
      "slow_percent": 66.7,
      "fast_total": 0,
      "fast_avail": 0,
      "fast_percent": 0.0,
      "latest_update": "20260713233004"
    },
    {
      "station_id": "CGA00269",
      "name": "동작 래미안로이파크",
      "address": "서울특별시 동작구 사당로23길 112",
      "lat": "37.4885891",
      "lng": "126.9733375",
      "total_count": 3,
      "available_count": 0,
      "total_percent": 0.0,
      "slow_total": 3,
      "slow_avail": 0,
      "slow_percent": 0.0,
      "fast_total": 0,
      "fast_avail": 0,
      "fast_percent": 0.0,
      "latest_update": "20260713210014"
    },
    {
      "station_id": "CSSGI026",
      "name": "보라매한국아델리움엔클래스",
      "address": "서울특별시 동작구 국사봉2길 29",
      "lat": "37.4973",
      "lng": "126.9286",
      "total_count": 3,
      "available_count": 1,
      "total_percent": 33.3,
      "slow_total": 2,
      "slow_avail": 0,
      "slow_percent": 0.0,
      "fast_total": 1,
      "fast_avail": 1,
      "fast_percent": 100.0,
      "latest_update": "20260714000113"
    },
    {
      "station_id": "CV001240",
      "name": "여성가족재단 스페이스 살림",
      "address": "서울특별시 동작구 노량진로 10",
      "lat": "37.512207",
      "lng": "126.9265462",
      "total_count": 3,
      "available_count": 3,
      "total_percent": 100.0,
      "slow_total": 1,
      "slow_avail": 1,
      "slow_percent": 100.0,
      "fast_total": 2,
      "fast_avail": 2,
      "fast_percent": 100.0,
      "latest_update": "20260713225020"
    },
    {
      "station_id": "EC004920",
      "name": "동작삼익프라자아파트 B1주차장",
      "address": "서울특별시 동작구 만양로 84",
      "lat": "37.5110008",
      "lng": "126.9448494",
      "total_count": 3,
      "available_count": 3,
      "total_percent": 100.0,
      "slow_total": 3,
      "slow_avail": 3,
      "slow_percent": 100.0,
      "fast_total": 0,
      "fast_avail": 0,
      "fast_percent": 0.0,
      "latest_update": "20260713210003"
    },
    {
      "station_id": "EC110001",
      "name": "건영약수맨션 B동",
      "address": "서울특별시 동작구 양녕로26길 11",
      "lat": "37.4983752",
      "lng": "126.9441887",
      "total_count": 3,
      "available_count": 3,
      "total_percent": 100.0,
      "slow_total": 3,
      "slow_avail": 3,
      "slow_percent": 100.0,
      "fast_total": 0,
      "fast_avail": 0,
      "fast_percent": 0.0,
      "latest_update": "20260713095202"
    },
    {
      "station_id": "EV002050",
      "name": "서울사당휴먼시아 지하1층",
      "address": "서울특별시 동작구 사당로16길 96",
      "lat": "37.479006",
      "lng": "126.969576",
      "total_count": 3,
      "available_count": 1,
      "total_percent": 33.3,
      "slow_total": 3,
      "slow_avail": 1,
      "slow_percent": 33.3,
      "fast_total": 0,
      "fast_avail": 0,
      "fast_percent": 0.0,
      "latest_update": "20260713232507"
    },
    {
      "station_id": "EV004566",
      "name": "서울동작 롯데캐슬비엔아파트",
      "address": "서울특별시 동작구 양녕로 170",
      "lat": "37.4970019",
      "lng": "126.9436426",
      "total_count": 3,
      "available_count": 3,
      "total_percent": 100.0,
      "slow_total": 3,
      "slow_avail": 3,
      "slow_percent": 100.0,
      "fast_total": 0,
      "fast_avail": 0,
      "fast_percent": 0.0,
      "latest_update": "20260713222832"
    },
    {
      "station_id": "EV004588",
      "name": "서울동작 경향렉스빌아파트 지하3층",
      "address": "서울특별시 동작구 양녕로23길 9",
      "lat": "37.495308641",
      "lng": "126.94244098",
      "total_count": 3,
      "available_count": 3,
      "total_percent": 100.0,
      "slow_total": 3,
      "slow_avail": 3,
      "slow_percent": 100.0,
      "fast_total": 0,
      "fast_avail": 0,
      "fast_percent": 0.0,
      "latest_update": "20260713220418"
    },
    {
      "station_id": "EV007378",
      "name": "서울동작 대방현대아파트1",
      "address": "서울특별시 동작구 등용로 127",
      "lat": "37.512891880",
      "lng": "126.93013253",
      "total_count": 3,
      "available_count": 3,
      "total_percent": 100.0,
      "slow_total": 3,
      "slow_avail": 3,
      "slow_percent": 100.0,
      "fast_total": 0,
      "fast_avail": 0,
      "fast_percent": 0.0,
      "latest_update": "20260713103657"
    },
    {
      "station_id": "EV007379",
      "name": "서울동작 대방현대아파트2",
      "address": "서울특별시 동작구 등용로 127",
      "lat": "37.512872026",
      "lng": "126.93084513",
      "total_count": 3,
      "available_count": 2,
      "total_percent": 66.7,
      "slow_total": 3,
      "slow_avail": 2,
      "slow_percent": 66.7,
      "fast_total": 0,
      "fast_avail": 0,
      "fast_percent": 0.0,
      "latest_update": "20260713182353"
    },
    {
      "station_id": "EV007381",
      "name": "서울동작 대방현대아파트4",
      "address": "서울특별시 동작구 등용로 127",
      "lat": "37.512694321",
      "lng": "126.93126097",
      "total_count": 3,
      "available_count": 2,
      "total_percent": 66.7,
      "slow_total": 3,
      "slow_avail": 2,
      "slow_percent": 66.7,
      "fast_total": 0,
      "fast_avail": 0,
      "fast_percent": 0.0,
      "latest_update": "20260713201712"
    },
    {
      "station_id": "EV007431",
      "name": "서울동작 사당휴먼시아1",
      "address": "서울특별시 동작구 사당로16길 96",
      "lat": "37.479015011",
      "lng": "126.96959870",
      "total_count": 3,
      "available_count": 3,
      "total_percent": 100.0,
      "slow_total": 3,
      "slow_avail": 3,
      "slow_percent": 100.0,
      "fast_total": 0,
      "fast_avail": 0,
      "fast_percent": 0.0,
      "latest_update": "20260710160748"
    },
    {
      "station_id": "EV007432",
      "name": "서울동작 사당휴먼시아2",
      "address": "서울특별시 동작구 사당로16길 96",
      "lat": "37.478807761",
      "lng": "126.96953095",
      "total_count": 3,
      "available_count": 2,
      "total_percent": 66.7,
      "slow_total": 3,
      "slow_avail": 2,
      "slow_percent": 66.7,
      "fast_total": 0,
      "fast_avail": 0,
      "fast_percent": 0.0,
      "latest_update": "20260713194247"
    },
    {
      "station_id": "EV008291",
      "name": "서울동작 흑석동양아파트",
      "address": "서울특별시 동작구 서달로1길 17",
      "lat": "37.5007352",
      "lng": "126.9586697",
      "total_count": 3,
      "available_count": 0,
      "total_percent": 0.0,
      "slow_total": 3,
      "slow_avail": 0,
      "slow_percent": 0.0,
      "fast_total": 0,
      "fast_avail": 0,
      "fast_percent": 0.0,
      "latest_update": "20260713213600"
    },
    {
      "station_id": "EV010128",
      "name": "서울동작 사당대림아파트1",
      "address": "서울특별시 동작구 사당로17길 52",
      "lat": "37.487102",
      "lng": "126.971348",
      "total_count": 3,
      "available_count": 1,
      "total_percent": 33.3,
      "slow_total": 3,
      "slow_avail": 1,
      "slow_percent": 33.3,
      "fast_total": 0,
      "fast_avail": 0,
      "fast_percent": 0.0,
      "latest_update": "20260713192233"
    },
    {
      "station_id": "EV012827",
      "name": "서울동작 중앙대학교병원 2",
      "address": "서울특별시 동작구 흑석로 102 (흑석동)",
      "lat": "37.506038",
      "lng": "126.9604218",
      "total_count": 3,
      "available_count": 3,
      "total_percent": 100.0,
      "slow_total": 3,
      "slow_avail": 3,
      "slow_percent": 100.0,
      "fast_total": 0,
      "fast_avail": 0,
      "fast_percent": 0.0,
      "latest_update": "20260713182551"
    },
    {
      "station_id": "EV012829",
      "name": "서울동작 중앙대학교병원 4",
      "address": "서울특별시 동작구 흑석로 102 (흑석동)",
      "lat": "37.506038",
      "lng": "126.9604218",
      "total_count": 3,
      "available_count": 3,
      "total_percent": 100.0,
      "slow_total": 3,
      "slow_avail": 3,
      "slow_percent": 100.0,
      "fast_total": 0,
      "fast_avail": 0,
      "fast_percent": 0.0,
      "latest_update": "20260713140906"
    },
    {
      "station_id": "EV016401",
      "name": "서울동작 대방1차e편한세상 1",
      "address": "서울특별시 동작구 알마타길 37 (대방동, 대방1차e-편한세상)",
      "lat": "37.5126599",
      "lng": "126.9295526",
      "total_count": 3,
      "available_count": 2,
      "total_percent": 66.7,
      "slow_total": 3,
      "slow_avail": 2,
      "slow_percent": 66.7,
      "fast_total": 0,
      "fast_avail": 0,
      "fast_percent": 0.0,
      "latest_update": "20260713192233"
    },
    {
      "station_id": "EV017793",
      "name": "서울동작 중앙대학교 3",
      "address": "서울특별시 동작구 흑석동 221 중앙대학교",
      "lat": "37.5043967",
      "lng": "127.0818556",
      "total_count": 3,
      "available_count": 1,
      "total_percent": 33.3,
      "slow_total": 2,
      "slow_avail": 1,
      "slow_percent": 50.0,
      "fast_total": 1,
      "fast_avail": 0,
      "fast_percent": 0.0,
      "latest_update": "20260713200059"
    },
    {
      "station_id": "EV017794",
      "name": "서울동작 중앙대학교 4",
      "address": "서울특별시 동작구 흑석동 221 중앙대학교",
      "lat": "37.5043967",
      "lng": "127.0818556",
      "total_count": 3,
      "available_count": 3,
      "total_percent": 100.0,
      "slow_total": 3,
      "slow_avail": 3,
      "slow_percent": 100.0,
      "fast_total": 0,
      "fast_avail": 0,
      "fast_percent": 0.0,
      "latest_update": "20260713151346"
    },
    {
      "station_id": "EV018419",
      "name": "서울동작 상도휴엔하임 1",
      "address": "서울특별시 동작구 상도로15길 131",
      "lat": "37.5049676",
      "lng": "126.9379704",
      "total_count": 3,
      "available_count": 2,
      "total_percent": 66.7,
      "slow_total": 3,
      "slow_avail": 2,
      "slow_percent": 66.7,
      "fast_total": 0,
      "fast_avail": 0,
      "fast_percent": 0.0,
      "latest_update": "20260713073800"
    },
    {
      "station_id": "EV018447",
      "name": "서울동작 사당휴먼시아 3",
      "address": "서울특별시 동작구 사당로16길 96",
      "lat": "37.4794961",
      "lng": "126.9701405",
      "total_count": 3,
      "available_count": 2,
      "total_percent": 66.7,
      "slow_total": 3,
      "slow_avail": 2,
      "slow_percent": 66.7,
      "fast_total": 0,
      "fast_avail": 0,
      "fast_percent": 0.0,
      "latest_update": "20260713232306"
    },
    {
      "station_id": "EV018996",
      "name": "서울동작 본동신동아아파트 2",
      "address": "서울특별시 동작구 매봉로 134",
      "lat": "37.5101470",
      "lng": "126.9514909",
      "total_count": 3,
      "available_count": 1,
      "total_percent": 33.3,
      "slow_total": 3,
      "slow_avail": 1,
      "slow_percent": 33.3,
      "fast_total": 0,
      "fast_avail": 0,
      "fast_percent": 0.0,
      "latest_update": "20260713230252"
    },
    {
      "station_id": "EV018997",
      "name": "서울동작 본동신동아아파트 3",
      "address": "서울특별시 동작구 매봉로 134",
      "lat": "37.5101470",
      "lng": "126.9514909",
      "total_count": 3,
      "available_count": 2,
      "total_percent": 66.7,
      "slow_total": 3,
      "slow_avail": 2,
      "slow_percent": 66.7,
      "fast_total": 0,
      "fast_avail": 0,
      "fast_percent": 0.0,
      "latest_update": "20260713221625"
    },
    {
      "station_id": "EV019732",
      "name": "서울동작 대방1차e편한세상 5",
      "address": "서울특별시 동작구 알마타길 37 (대방동, 대방1차e-편한세상)",
      "lat": "37.5126599",
      "lng": "126.9295526",
      "total_count": 3,
      "available_count": 2,
      "total_percent": 66.7,
      "slow_total": 3,
      "slow_avail": 2,
      "slow_percent": 66.7,
      "fast_total": 0,
      "fast_avail": 0,
      "fast_percent": 0.0,
      "latest_update": "20260713214406"
    },
    {
      "station_id": "EV020856",
      "name": "서울동작 상도푸르지오클라베뉴 4",
      "address": "서울 동작구 성대로 164",
      "lat": "37.4981407",
      "lng": "126.9392667",
      "total_count": 3,
      "available_count": 3,
      "total_percent": 100.0,
      "slow_total": 3,
      "slow_avail": 3,
      "slow_percent": 100.0,
      "fast_total": 0,
      "fast_avail": 0,
      "fast_percent": 0.0,
      "latest_update": "20260713101244"
    },
    {
      "station_id": "HE212776",
      "name": "브라운스톤상도아파트",
      "address": "서울특별시 동작구 상도로31길 19",
      "lat": "37.505886",
      "lng": "126.944142",
      "total_count": 3,
      "available_count": 3,
      "total_percent": 100.0,
      "slow_total": 3,
      "slow_avail": 3,
      "slow_percent": 100.0,
      "fast_total": 0,
      "fast_avail": 0,
      "fast_percent": 0.0,
      "latest_update": "20260713211100"
    },
    {
      "station_id": "HM110240",
      "name": "_어바니엘한강",
      "address": "서울특별시 동작구 노량진로 190",
      "lat": "37.5129574",
      "lng": "126.9468624",
      "total_count": 3,
      "available_count": 3,
      "total_percent": 100.0,
      "slow_total": 3,
      "slow_avail": 3,
      "slow_percent": 100.0,
      "fast_total": 0,
      "fast_avail": 0,
      "fast_percent": 0.0,
      "latest_update": "20260713232219"
    },
    {
      "station_id": "KL002163",
      "name": "대방동경남아너스빌아파트",
      "address": "서울특별시 동작구 여의대방로54길 6",
      "lat": "37.5116136",
      "lng": "126.9256082",
      "total_count": 3,
      "available_count": 2,
      "total_percent": 66.7,
      "slow_total": 3,
      "slow_avail": 2,
      "slow_percent": 66.7,
      "fast_total": 0,
      "fast_avail": 0,
      "fast_percent": 0.0,
      "latest_update": "20260713193402"
    },
    {
      "station_id": "KL002428",
      "name": "상도대림아파트",
      "address": "서울특별시 동작구 상도로60길 20",
      "lat": "37.49319",
      "lng": "126.95326",
      "total_count": 3,
      "available_count": 1,
      "total_percent": 33.3,
      "slow_total": 3,
      "slow_avail": 1,
      "slow_percent": 33.3,
      "fast_total": 0,
      "fast_avail": 0,
      "fast_percent": 0.0,
      "latest_update": "20260713200102"
    },
    {
      "station_id": "KP001271",
      "name": "대방성원 아파트",
      "address": "서울특별시 동작구 대방동 여의대방로44길 9",
      "lat": "37.509731742",
      "lng": "126.9259166877",
      "total_count": 3,
      "available_count": 2,
      "total_percent": 66.7,
      "slow_total": 2,
      "slow_avail": 1,
      "slow_percent": 50.0,
      "fast_total": 1,
      "fast_avail": 1,
      "fast_percent": 100.0,
      "latest_update": "20260713221009"
    },
    {
      "station_id": "KP007601",
      "name": "관악동작지사",
      "address": "서울 동작구 사당동 1008-22",
      "lat": "37.4820923",
      "lng": "126.9814443",
      "total_count": 3,
      "available_count": 2,
      "total_percent": 66.7,
      "slow_total": 3,
      "slow_avail": 2,
      "slow_percent": 66.7,
      "fast_total": 0,
      "fast_avail": 0,
      "fast_percent": 0.0,
      "latest_update": "20260713102029"
    },
    {
      "station_id": "PC000188",
      "name": "남해오네뜨아파트(동작)",
      "address": "서울특별시 동작구 사당로2가길 173",
      "lat": "37.487003",
      "lng": "126.965671",
      "total_count": 3,
      "available_count": 1,
      "total_percent": 33.3,
      "slow_total": 2,
      "slow_avail": 0,
      "slow_percent": 0.0,
      "fast_total": 1,
      "fast_avail": 1,
      "fast_percent": 100.0,
      "latest_update": "20260713225231"
    },
    {
      "station_id": "PI200333",
      "name": "서울시 동작구 현진아파트",
      "address": "서울특별시 동작구 신대방1나길 45",
      "lat": "37.4858814",
      "lng": "126.9070488",
      "total_count": 3,
      "available_count": 3,
      "total_percent": 100.0,
      "slow_total": 3,
      "slow_avail": 3,
      "slow_percent": 100.0,
      "fast_total": 0,
      "fast_avail": 0,
      "fast_percent": 0.0,
      "latest_update": "20260710031603"
    },
    {
      "station_id": "PI202057",
      "name": "동작상떼빌오피스텔상가",
      "address": "서울특별시 동작구 신대방1가길 38",
      "lat": "37.487888782",
      "lng": "126.90699033",
      "total_count": 3,
      "available_count": 2,
      "total_percent": 66.7,
      "slow_total": 3,
      "slow_avail": 2,
      "slow_percent": 66.7,
      "fast_total": 0,
      "fast_avail": 0,
      "fast_percent": 0.0,
      "latest_update": "20260713230614"
    },
    {
      "station_id": "PI204210",
      "name": "서울시 동작구 상도대우유로카운티",
      "address": "서울특별시 동작구 양녕로 287",
      "lat": "37.505402426",
      "lng": "126.94931421",
      "total_count": 3,
      "available_count": 3,
      "total_percent": 100.0,
      "slow_total": 3,
      "slow_avail": 3,
      "slow_percent": 100.0,
      "fast_total": 0,
      "fast_avail": 0,
      "fast_percent": 0.0,
      "latest_update": "20260713215639"
    },
    {
      "station_id": "PI204294",
      "name": "서울시 동작구 삼익아파트",
      "address": "서울특별시 동작구 양녕로 26나길 8",
      "lat": "37.4973649",
      "lng": "126.9445587",
      "total_count": 3,
      "available_count": 1,
      "total_percent": 33.3,
      "slow_total": 3,
      "slow_avail": 1,
      "slow_percent": 33.3,
      "fast_total": 0,
      "fast_avail": 0,
      "fast_percent": 0.0,
      "latest_update": "20260713214754"
    },
    {
      "station_id": "PI306219",
      "name": "보라매나산스위트",
      "address": "서울특별시 동작구 보라매로5가길 24",
      "lat": "37.490696311",
      "lng": "126.92397928",
      "total_count": 3,
      "available_count": 2,
      "total_percent": 66.7,
      "slow_total": 3,
      "slow_avail": 2,
      "slow_percent": 66.7,
      "fast_total": 0,
      "fast_avail": 0,
      "fast_percent": 0.0,
      "latest_update": "20260713222851"
    },
    {
      "station_id": "PI700637",
      "name": "신동아파밀리에하늘마루아파트",
      "address": "서울특별시 동작구 알마타길 6",
      "lat": "37.509969243",
      "lng": "126.92462988",
      "total_count": 3,
      "available_count": 3,
      "total_percent": 100.0,
      "slow_total": 3,
      "slow_avail": 3,
      "slow_percent": 100.0,
      "fast_total": 0,
      "fast_avail": 0,
      "fast_percent": 0.0,
      "latest_update": "20260713230502"
    },
    {
      "station_id": "PI716153",
      "name": "한강쌍용아파트",
      "address": "서울특별시 동작구 노량진로24길 2",
      "lat": "37.5123883",
      "lng": "126.9530502",
      "total_count": 3,
      "available_count": 3,
      "total_percent": 100.0,
      "slow_total": 3,
      "slow_avail": 3,
      "slow_percent": 100.0,
      "fast_total": 0,
      "fast_avail": 0,
      "fast_percent": 0.0,
      "latest_update": "20260713145541"
    },