{
  "district": "동작구",
  "zscode": "11590",
  "summary": {
    "total_count": 1500,
    "available_count": 1254,
    "total_percent": 83.6,
    "slow_total": 1420,
    "slow_avail": 1210,
    "slow_percent": 85.2,
    "fast_total": 80,
    "fast_avail": 44,
    "fast_percent": 55.0,
    "station_count": 298
  },
  "stations": [
    {
      "station_id": "ER000397",
      "name": "힐스테이트상도센트럴파크",
      "address": "서울특별시 동작구 상도로 346-1",
      "lat": "37.49679",
      "lng": "126.9516675",
      "total_count": 47,
      "available_count": 42,
      "total_percent": 89.4,
      "slow_total": 47,
      "slow_avail": 42,
      "slow_percent": 89.4,
      "fast_total": 0,
      "fast_avail": 0,
      "fast_percent": 0.0,
      "latest_update": "20260714112114"
    },
    {
      "station_id": "PIH00172",
      "name": "보라매자이더포레스트아파트",
      "address": "서울특별시 동작구 여의대방로22길 121",
      "lat": "37.498581100",
      "lng": "126.92640640",
      "total_count": 47,
      "available_count": 47,
      "total_percent": 100.0,
      "slow_total": 47,
      "slow_avail": 47,
      "slow_percent": 100.0,
      "fast_total": 0,
      "fast_avail": 0,
      "fast_percent": 0.0,
      "latest_update": "20260714040734"
    },
    {
      "station_id": "PC001781",
      "name": "대림아파트(동작)",
      "address": "서울특별시 동작구 여의대방로44길 10",
      "lat": "37.5073099",
      "lng": "126.9260887",
      "total_count": 41,
      "available_count": 36,
      "total_percent": 87.8,
      "slow_total": 41,
      "slow_avail": 36,
      "slow_percent": 87.8,
      "fast_total": 0,
      "fast_avail": 0,
      "fast_percent": 0.0,
      "latest_update": "20260714113029"
    },
    {
      "station_id": "KL002476",
      "name": "상도더샵아파트1",
      "address": "서울특별시 동작구 장승배기로4길 9",
      "lat": "37.50145",
      "lng": "126.94381",
      "total_count": 29,
      "available_count": 27,
      "total_percent": 93.1,
      "slow_total": 29,
      "slow_avail": 27,
      "slow_percent": 93.1,
      "fast_total": 0,
      "fast_avail": 0,
      "fast_percent": 0.0,
      "latest_update": "20260714094402"
    },
    {
      "station_id": "LU100944",
      "name": "흑석한강센트레빌2차아파트",
      "address": "서울특별시 동작구 서달로 91",
      "lat": "37.5031656",
      "lng": "126.958891",
      "total_count": 25,
      "available_count": 23,
      "total_percent": 92.0,
      "slow_total": 25,
      "slow_avail": 23,
      "slow_percent": 92.0,
      "fast_total": 0,
      "fast_avail": 0,
      "fast_percent": 0.0,
      "latest_update": "20260714111602"
    },
    {
      "station_id": "LCSLCGP1",
      "name": "사당롯데캐슬골든포레아파트",
      "address": "서울특별시 동작구 사당로 90",
      "lat": "37.4922654",
      "lng": "126.9629745",
      "total_count": 24,
      "available_count": 16,
      "total_percent": 66.7,
      "slow_total": 24,
      "slow_avail": 16,
      "slow_percent": 66.7,
      "fast_total": 0,
      "fast_avail": 0,
      "fast_percent": 0.0,
      "latest_update": "20260714120010"
    },
    {
      "station_id": "NT100019",
      "name": "상도 래미안3차",
      "address": "서울특별시 동작구 상도로53길 8",
      "lat": "37.4980297",
      "lng": "126.9534887",
      "total_count": 24,
      "available_count": 24,
      "total_percent": 100.0,
      "slow_total": 24,
      "slow_avail": 24,
      "slow_percent": 100.0,
      "fast_total": 0,
      "fast_avail": 0,
      "fast_percent": 0.0,
      "latest_update": "20260714114250"
    },
    {
      "station_id": "HY000857",
      "name": "노량진 수산시장",
      "address": "서울특별시 동작구 노들로 674",
      "lat": "37.5148237",
      "lng": "126.937976",
      "total_count": 23,
      "available_count": 21,
      "total_percent": 91.3,
      "slow_total": 22,
      "slow_avail": 21,
      "slow_percent": 95.5,
      "fast_total": 1,
      "fast_avail": 0,
      "fast_percent": 0.0,
      "latest_update": "20260714115904"
    },
    {
      "station_id": "NT102421",
      "name": "동작 사당극동아파트",
      "address": "서울특별시 동작구 동작대로29길 119",
      "lat": "37.49088",
      "lng": "126.97605",
      "total_count": 23,
      "available_count": 17,
      "total_percent": 73.9,
      "slow_total": 23,
      "slow_avail": 17,
      "slow_percent": 73.9,
      "fast_total": 0,
      "fast_avail": 0,
      "fast_percent": 0.0,
      "latest_update": "20260714120205"
    },
    {
      "station_id": "PI712509",
      "name": "신동아리버파크",
      "address": "서울특별시 동작구 만양로 19",
      "lat": "37.507089598",
      "lng": "126.94307095",
      "total_count": 21,
      "available_count": 18,
      "total_percent": 85.7,
      "slow_total": 21,
      "slow_avail": 18,
      "slow_percent": 85.7,
      "fast_total": 0,
      "fast_avail": 0,
      "fast_percent": 0.0,
      "latest_update": "20260714100040"
    },
    {
      "station_id": "LU003085",
      "name": "사당동작삼성래미안아파트",
      "address": "서울특별시 동작구 사당로23바길 9",
      "lat": "37.48961",
      "lng": "126.96919",
      "total_count": 20,
      "available_count": 19,
      "total_percent": 95.0,
      "slow_total": 20,
      "slow_avail": 19,
      "slow_percent": 95.0,
      "fast_total": 0,
      "fast_avail": 0,
      "fast_percent": 0.0,
      "latest_update": "20260714111242"
    },
    {
      "station_id": "PI121435",
      "name": "숭실대학교",
      "address": "서울특별시 동작구 상도로 369 (상도동, 숭실대학교)",
      "lat": "37.4963",
      "lng": "126.957",
      "total_count": 18,
      "available_count": 15,
      "total_percent": 83.3,
      "slow_total": 18,
      "slow_avail": 15,
      "slow_percent": 83.3,
      "fast_total": 0,
      "fast_avail": 0,
      "fast_percent": 0.0,
      "latest_update": "20260714112117"
    },
    {
      "station_id": "PI204190",
      "name": "서울시 동작구 동작성원상떼빌103동지하4층",
      "address": "서울특별시 동작구 신대방1가길 38",
      "lat": "37.487174972",
      "lng": "126.90729368",
      "total_count": 18,
      "available_count": 18,
      "total_percent": 100.0,
      "slow_total": 18,
      "slow_avail": 18,
      "slow_percent": 100.0,
      "fast_total": 0,
      "fast_avail": 0,
      "fast_percent": 0.0,
      "latest_update": "20260713123636"
    },
    {
      "station_id": "PI708002",
      "name": "이수힐스테이트",
      "address": "서울특별시 동작구 동작대로39길 22",
      "lat": "37.494636",
      "lng": "126.981966",
      "total_count": 17,
      "available_count": 16,
      "total_percent": 94.1,
      "slow_total": 17,
      "slow_avail": 16,
      "slow_percent": 94.1,
      "fast_total": 0,
      "fast_avail": 0,
      "fast_percent": 0.0,
      "latest_update": "20260714121012"
    },
    {
      "station_id": "PI001442",
      "name": "보라매e편한세상아파트",
      "address": "서울특별시 동작구 보라매로 70",
      "lat": "37.4954106",
      "lng": "126.928546",
      "total_count": 15,
      "available_count": 15,
      "total_percent": 100.0,
      "slow_total": 15,
      "slow_avail": 15,
      "slow_percent": 100.0,
      "fast_total": 0,
      "fast_avail": 0,
      "fast_percent": 0.0,
      "latest_update": "20260714120649"
    },
    {
      "station_id": "PI204189",
      "name": "서울시 동작구 동작성원상떼빌103동지하3층",
      "address": "서울특별시 동작구 신대방1가길 38",
      "lat": "37.487138734",
      "lng": "126.90704214",
      "total_count": 15,
      "available_count": 15,
      "total_percent": 100.0,
      "slow_total": 13,
      "slow_avail": 13,
      "slow_percent": 100.0,
      "fast_total": 2,
      "fast_avail": 2,
      "fast_percent": 100.0,
      "latest_update": "20260714103642"
    },
    {
      "station_id": "PI204191",
      "name": "서울시 동작구 동작성원상떼빌104동지하4층",
      "address": "서울특별시 동작구 신대방1가길 38",
      "lat": "37.487650434",
      "lng": "126.90752489",
      "total_count": 15,
      "available_count": 15,
      "total_percent": 100.0,
      "slow_total": 15,
      "slow_avail": 15,
      "slow_percent": 100.0,
      "fast_total": 0,
      "fast_avail": 0,
      "fast_percent": 0.0,
      "latest_update": "20260713160643"
    },
    {
      "station_id": "EV008841",
      "name": "서울동작 롯데캐슬에듀포레",
      "address": "서울특별시 동작구 서달로 123",
      "lat": "37.5042119",
      "lng": "126.9596731",
      "total_count": 14,
      "available_count": 14,
      "total_percent": 100.0,
      "slow_total": 14,
      "slow_avail": 14,
      "slow_percent": 100.0,
      "fast_total": 0,
      "fast_avail": 0,
      "fast_percent": 0.0,
      "latest_update": "20260714111036"
    },
    {
      "station_id": "NT101145",
      "name": "사당 대림아파트",
      "address": "서울특별시 동작구 사당로17길 52",
      "lat": "37.4854878",
      "lng": "126.9733572",
      "total_count": 14,
      "available_count": 14,
      "total_percent": 100.0,
      "slow_total": 14,
      "slow_avail": 14,
      "slow_percent": 100.0,
      "fast_total": 0,
      "fast_avail": 0,
      "fast_percent": 0.0,
      "latest_update": "20260714091550"
    },
    {
      "station_id": "EV017795",
      "name": "서울동작 중앙대학교 5",
      "address": "서울특별시 동작구 흑석동 221 중앙대학교",
      "lat": "37.5043967",
      "lng": "126.9931151",
      "total_count": 13,
      "available_count": 10,
      "total_percent": 76.9,
      "slow_total": 11,
      "slow_avail": 9,
      "slow_percent": 81.8,
      "fast_total": 2,
      "fast_avail": 1,
      "fast_percent": 50.0,
      "latest_update": "20260713202516"
    },
    {
      "station_id": "PIH00021",
      "name": "보라매삼성쉐르빌아파트",
      "address": "서울특별시 동작구 보라매로5길 43",
      "lat": "37.4913946",
      "lng": "126.923403",
      "total_count": 13,
      "available_count": 12,
      "total_percent": 92.3,
      "slow_total": 13,
      "slow_avail": 12,
      "slow_percent": 92.3,
      "fast_total": 0,
      "fast_avail": 0,
      "fast_percent": 0.0,
      "latest_update": "20260714094732"
    },
    {
      "station_id": "EZ210031",
      "name": "롯데타워업무시설 관리단대표회의",
      "address": "서울특별시 동작구 보라매로5길 51",
      "lat": "37.4906999",
      "lng": "126.9231054",
      "total_count": 12,
      "available_count": 0,
      "total_percent": 0.0,
      "slow_total": 12,
      "slow_avail": 0,
      "slow_percent": 0.0,
      "fast_total": 0,
      "fast_avail": 0,
      "fast_percent": 0.0,
      "latest_update": "20260601113310"
    },
    {
      "station_id": "LU002862",
      "name": "남성역두산위브트레지움",
      "address": "서울특별시 동작구 사당로13길 31",
      "lat": "37.485803",
      "lng": "126.971255",
      "total_count": 12,
      "available_count": 10,
      "total_percent": 83.3,
      "slow_total": 12,
      "slow_avail": 10,
      "slow_percent": 83.3,
      "fast_total": 0,
      "fast_avail": 0,
      "fast_percent": 0.0,
      "latest_update": "20260714120205"
    },
    {
      "station_id": "LU101587",
      "name": "상도역롯데캐슬파크엘",
      "address": "서울특별시 동작구 양녕로 220",
      "lat": "37.5006924",
      "lng": "126.9455364",
      "total_count": 12,
      "available_count": 9,
      "total_percent": 75.0,
      "slow_total": 12,
      "slow_avail": 9,
      "slow_percent": 75.0,
      "fast_total": 0,
      "fast_avail": 0,
      "fast_percent": 0.0,
      "latest_update": "20260714110513"
    },
    {
      "station_id": "NT102353",
      "name": "동작 흑석한강푸르지오아파트",
      "address": "서울특별시 동작구 흑석한강로 27",
      "lat": "37.50409",
      "lng": "126.96628",
      "total_count": 12,
      "available_count": 9,
      "total_percent": 75.0,
      "slow_total": 12,
      "slow_avail": 9,
      "slow_percent": 75.0,
      "fast_total": 0,
      "fast_avail": 0,
      "fast_percent": 0.0,
      "latest_update": "20260714111850"
    },
    {
      "station_id": "PI712334",
      "name": "흑석한강센트레빌",
      "address": "서울특별시 동작구 흑석한강로 12",
      "lat": "37.5051798",
      "lng": "126.9645125",
      "total_count": 12,
      "available_count": 12,
      "total_percent": 100.0,
      "slow_total": 12,
      "slow_avail": 12,
      "slow_percent": 100.0,
      "fast_total": 0,
      "fast_avail": 0,
      "fast_percent": 0.0,
      "latest_update": "20260714105018"
    },
    {
      "station_id": "PIH00082",
      "name": "한강현대아파트",
      "address": "서울특별시 동작구 현충로 151",
      "lat": "37.506612600",
      "lng": "126.97022570",
      "total_count": 12,
      "available_count": 9,
      "total_percent": 75.0,
      "slow_total": 12,
      "slow_avail": 9,
      "slow_percent": 75.0,
      "fast_total": 0,
      "fast_avail": 0,
      "fast_percent": 0.0,
      "latest_update": "20260714120843"
    },
    {
      "station_id": "IN120030",
      "name": "상도역롯데캐슬파크엘",
      "address": "서울특별시 동작구 양녕로 220",
      "lat": "37.5006",
      "lng": "126.9461",
      "total_count": 11,
      "available_count": 0,
      "total_percent": 0.0,
      "slow_total": 10,
      "slow_avail": 0,
      "slow_percent": 0.0,
      "fast_total": 1,
      "fast_avail": 0,
      "fast_percent": 0.0,
      "latest_update": "20260615122836"
    },
    {
      "station_id": "NX000025",
      "name": "동작구청 신청사",
      "address": "서울특별시 동작구 장승배기로 70",
      "lat": "37.50444598",
      "lng": "126.9410904",
      "total_count": 11,
      "available_count": 0,
      "total_percent": 0.0,
      "slow_total": 6,
      "slow_avail": 0,
      "slow_percent": 0.0,
      "fast_total": 5,
      "fast_avail": 0,
      "fast_percent": 0.0,
      "latest_update": ""
    },
    {
      "station_id": "PI711956",
      "name": "아이파크상도",
      "address": "서울특별시 동작구 장승배기로 26",
      "lat": "37.5006642",
      "lng": "126.943415",
      "total_count": 11,
      "available_count": 10,
      "total_percent": 90.9,
      "slow_total": 11,
      "slow_avail": 10,
      "slow_percent": 90.9,
      "fast_total": 0,
      "fast_avail": 0,
      "fast_percent": 0.0,
      "latest_update": "20260714075022"
    },
    {
      "station_id": "ER000443",
      "name": "보라매파크빌아파트",
      "address": "서울특별시 동작구 여의대방로10길 59",
      "lat": "37.4951147",
      "lng": "126.9150796",
      "total_count": 10,
      "available_count": 10,
      "total_percent": 100.0,
      "slow_total": 10,
      "slow_avail": 10,
      "slow_percent": 100.0,
      "fast_total": 0,
      "fast_avail": 0,
      "fast_percent": 0.0,
      "latest_update": "20260714113836"
    },
    {
      "station_id": "HY001406",
      "name": "노량진 우성아파트",
      "address": "서울특별시 동작구 만양로8길 50",
      "lat": "37.5095412",
      "lng": "126.9478074",
      "total_count": 10,
      "available_count": 9,
      "total_percent": 90.0,
      "slow_total": 10,
      "slow_avail": 9,
      "slow_percent": 90.0,
      "fast_total": 0,
      "fast_avail": 0,
      "fast_percent": 0.0,
      "latest_update": "20260714073606"
    },
    {
      "station_id": "IN120032",
      "name": "노량진우성아파트",
      "address": "서울특별시 동작구 만양로8길 50",
      "lat": "37.5096",
      "lng": "126.9478",
      "total_count": 10,
      "available_count": 0,
      "total_percent": 0.0,
      "slow_total": 10,
      "slow_avail": 0,
      "slow_percent": 0.0,
      "fast_total": 0,
      "fast_avail": 0,
      "fast_percent": 0.0,
      "latest_update": "20260615122836"
    },
    {
      "station_id": "NT300099",
      "name": "흑석 한강푸르지오",
      "address": "서울특별시 동작구 흑석한강로 27",
      "lat": "37.50409",
      "lng": "126.96628",
      "total_count": 10,
      "available_count": 9,
      "total_percent": 90.0,
      "slow_total": 10,
      "slow_avail": 9,
      "slow_percent": 90.0,
      "fast_total": 0,
      "fast_avail": 0,
      "fast_percent": 0.0,
      "latest_update": "20260714095750"
    },
    {
      "station_id": "PI200930",
      "name": "서울시 동작구 이편한세상상도노빌리티",
      "address": "서울특별시 동작구 만양로 6",
      "lat": "37.5049819",
      "lng": "126.9467885",
      "total_count": 10,
      "available_count": 10,
      "total_percent": 100.0,
      "slow_total": 10,
      "slow_avail": 10,
      "slow_percent": 100.0,
      "fast_total": 0,
      "fast_avail": 0,
      "fast_percent": 0.0,
      "latest_update": "20260714073119"
    },
    {
      "station_id": "PI711674",
      "name": "노량진우성아파트",
      "address": "서울특별시 동작구 만양로8길 50",
      "lat": "37.5103043",
      "lng": "126.9468658",
      "total_count": 10,
      "available_count": 10,
      "total_percent": 100.0,
      "slow_total": 10,
      "slow_avail": 10,
      "slow_percent": 100.0,
      "fast_total": 0,
      "fast_avail": 0,
      "fast_percent": 0.0,
      "latest_update": "20260710163523"
    },
    {
      "station_id": "PI721813",
      "name": "보라매롯데낙천대",
      "address": "서울특별시 동작구 여의대방로10길 38",
      "lat": "37.4943306",
      "lng": "126.9136603",
      "total_count": 10,
      "available_count": 9,
      "total_percent": 90.0,
      "slow_total": 10,
      "slow_avail": 9,
      "slow_percent": 90.0,
      "fast_total": 0,
      "fast_avail": 0,
      "fast_percent": 0.0,
      "latest_update": "20260714054007"
    },
    {
      "station_id": "PI722718",
      "name": "신동아리버파크B",
      "address": "서울특별시 동작구 만양로 19",
      "lat": "37.508047437",
      "lng": "126.94416449",
      "total_count": 10,
      "available_count": 9,
      "total_percent": 90.0,
      "slow_total": 10,
      "slow_avail": 9,
      "slow_percent": 90.0,
      "fast_total": 0,
      "fast_avail": 0,
      "fast_percent": 0.0,
      "latest_update": "20260714105818"
    },
    {
      "station_id": "PI760217",
      "name": "상도파크자이아파트",
      "address": "서울특별시 동작구 장승배기로11가길 11",
      "lat": "37.505566",
      "lng": "126.9389112",
      "total_count": 10,
      "available_count": 8,
      "total_percent": 80.0,
      "slow_total": 10,
      "slow_avail": 8,
      "slow_percent": 80.0,
      "fast_total": 0,
      "fast_avail": 0,
      "fast_percent": 0.0,
      "latest_update": "20260714105515"
    },
    {
      "station_id": "HY001755",
      "name": "동작 대방성원",
      "address": "서울특별시 동작구 여의대방로44길 9",
      "lat": "37.5093826",
      "lng": "126.9255822",
      "total_count": 9,
      "available_count": 9,
      "total_percent": 100.0,
      "slow_total": 9,
      "slow_avail": 9,
      "slow_percent": 100.0,
      "fast_total": 0,
      "fast_avail": 0,
      "fast_percent": 0.0,
      "latest_update": "20260714080304"
    },
    {
      "station_id": "LU002427",
      "name": "노량진드림스퀘어",
      "address": "서울특별시 동작구 노들로2길 7",
      "lat": "37.514194",
      "lng": "126.938586",
      "total_count": 9,
      "available_count": 8,
      "total_percent": 88.9,
      "slow_total": 9,
      "slow_avail": 8,
      "slow_percent": 88.9,
      "fast_total": 0,
      "fast_avail": 0,
      "fast_percent": 0.0,
      "latest_update": "20260714014043"
    },
    {
      "station_id": "NT102034",
      "name": "동작 대방주공2단지아파트",
      "address": "서울특별시 동작구 여의대방로44길 47",
      "lat": "37.508359",
      "lng": "126.930580",
      "total_count": 9,
      "available_count": 8,
      "total_percent": 88.9,
      "slow_total": 9,
      "slow_avail": 8,
      "slow_percent": 88.9,
      "fast_total": 0,
      "fast_avail": 0,
      "fast_percent": 0.0,
      "latest_update": "20260714080050"
    },
    {
      "station_id": "PI200337",
      "name": "서울시 동작구 래미안상도2차아파트",
      "address": "서울특별시 동작구 상도로55길 47",
      "lat": "37.4983411",
      "lng": "126.9588453",
      "total_count": 9,
      "available_count": 9,
      "total_percent": 100.0,
      "slow_total": 9,
      "slow_avail": 9,
      "slow_percent": 100.0,
      "fast_total": 0,
      "fast_avail": 0,
      "fast_percent": 0.0,
      "latest_update": "20260714071739"
    },
    {
      "station_id": "EC004817",
      "name": "상도 SH-VILLE",
      "address": "서울특별시 동작구 상도로53길 70",
      "lat": "37.5028793",
      "lng": "126.9543055",
      "total_count": 8,
      "available_count": 6,
      "total_percent": 75.0,
      "slow_total": 8,
      "slow_avail": 6,
      "slow_percent": 75.0,
      "fast_total": 0,
      "fast_avail": 0,
      "fast_percent": 0.0,
      "latest_update": "20260714091802"
    },
    {
      "station_id": "ER000484",
      "name": "경남교수아파트",
      "address": "서울 동작구 여의대방로10길 14",
      "lat": "37.4963278",
      "lng": "126.9139635",
      "total_count": 8,
      "available_count": 8,
      "total_percent": 100.0,
      "slow_total": 8,
      "slow_avail": 8,
      "slow_percent": 100.0,
      "fast_total": 0,
      "fast_avail": 0,
      "fast_percent": 0.0,
      "latest_update": "20260714075820"
    },
    {
      "station_id": "EV010676",
      "name": "서울동작 전문건설공제조합 서울",
      "address": "서울특별시 동작구 보라매로5길 15",
      "lat": "37.4921759",
      "lng": "126.9242713",
      "total_count": 8,
      "available_count": 2,
      "total_percent": 25.0,
      "slow_total": 8,
      "slow_avail": 2,
      "slow_percent": 25.0,
      "fast_total": 0,
      "fast_avail": 0,
      "fast_percent": 0.0,
      "latest_update": "20260714120913"
    },
    {
      "station_id": "EV018531",
      "name": "서울동작 노량진쌍용예가 3",
      "address": "서울특별시 동작구 장승배기로16길 134",
      "lat": "37.5103212",
      "lng": "126.9437941",
      "total_count": 8,
      "available_count": 7,
      "total_percent": 87.5,
      "slow_total": 8,
      "slow_avail": 7,
      "slow_percent": 87.5,
      "fast_total": 0,
      "fast_avail": 0,
      "fast_percent": 0.0,
      "latest_update": "20260714085842"
    },
    {
      "station_id": "EC110073",
      "name": "대림쇼핑타운",
      "address": "서울특별시 동작구 여의대방로 250",
      "lat": "37.5087435",
      "lng": "126.9245178",
      "total_count": 7,
      "available_count": 0,
      "total_percent": 0.0,
      "slow_total": 7,
      "slow_avail": 0,
      "slow_percent": 0.0,
      "fast_total": 0,
      "fast_avail": 0,
      "fast_percent": 0.0,
      "latest_update": "20260602113402"
    },
    {
      "station_id": "ER000361",
      "name": "신동아리버파크아파트",
      "address": "서울 동작구 만양로 19",
      "lat": "37.5070717",
      "lng": "126.9457182",
      "total_count": 7,
      "available_count": 7,
      "total_percent": 100.0,
      "slow_total": 7,
      "slow_avail": 7,
      "slow_percent": 100.0,
      "fast_total": 0,
      "fast_avail": 0,
      "fast_percent": 0.0,
      "latest_update": "20260712030147"
    },
    {
      "station_id": "HY001808",
      "name": "동작 사당경남아너스빌",
      "address": "서울특별시 동작구 사당로9가길 82",
      "lat": "37.488263",
      "lng": "126.967771",
      "total_count": 7,
      "available_count": 7,
      "total_percent": 100.0,
      "slow_total": 7,
      "slow_avail": 7,
      "slow_percent": 100.0,
      "fast_total": 0,
      "fast_avail": 0,
      "fast_percent": 0.0,
      "latest_update": "20260713084506"
    },
    {
      "station_id": "PI204009",
      "name": "서울시 동작구 이랜드해가든",
      "address": "서울특별시 동작구 서달로 150",
      "lat": "37.506626578",
      "lng": "126.96218378",
      "total_count": 7,
      "available_count": 7,
      "total_percent": 100.0,
      "slow_total": 7,
      "slow_avail": 7,
      "slow_percent": 100.0,
      "fast_total": 0,
      "fast_avail": 0,
      "fast_percent": 0.0,
      "latest_update": "20260714020132"
    },
    {
      "station_id": "PI712387",
      "name": "래미안트윈파크아파트B",
      "address": "서울특별시 동작구 노량진로23가길 23",
      "lat": "37.514314585",
      "lng": "126.95071461",
      "total_count": 7,
      "available_count": 7,
      "total_percent": 100.0,
      "slow_total": 7,
      "slow_avail": 7,
      "slow_percent": 100.0,
      "fast_total": 0,
      "fast_avail": 0,
      "fast_percent": 0.0,
      "latest_update": "20260714111020"
    },
    {
      "station_id": "PI715528",
      "name": "동작동금강KCC아파트",
      "address": "서울특별시 동작구 동작대로39가길 55",
      "lat": "37.4935141",
      "lng": "126.9788425",
      "total_count": 7,
      "available_count": 6,
      "total_percent": 85.7,
      "slow_total": 7,
      "slow_avail": 6,
      "slow_percent": 85.7,
      "fast_total": 0,
      "fast_avail": 0,
      "fast_percent": 0.0,
      "latest_update": "20260714120043"
    },
    {
      "station_id": "PI763499",
      "name": "유원강변아파트",
      "address": "서울특별시 동작구 노량진로23가길 20",
      "lat": "37.514864366",
      "lng": "126.95112145",
      "total_count": 7,
      "available_count": 7,
      "total_percent": 100.0,
      "slow_total": 7,
      "slow_avail": 7,
      "slow_percent": 100.0,
      "fast_total": 0,
      "fast_avail": 0,
      "fast_percent": 0.0,
      "latest_update": "20260713103540"
    },
    {
      "station_id": "CV002022",
      "name": "신대방현대아파트 106동 지하2층",
      "address": "서울특별시 동작구 여의대방로 28",
      "lat": "37.493728",
      "lng": "126.91312",
      "total_count": 6,
      "available_count": 6,
      "total_percent": 100.0,
      "slow_total": 6,
      "slow_avail": 6,
      "slow_percent": 100.0,
      "fast_total": 0,
      "fast_avail": 0,
      "fast_percent": 0.0,
      "latest_update": "20260714015030"
    },
    {
      "station_id": "EASELSLC",
      "name": "상도동 롯데캐슬",
      "address": "서울특별시 동작구 양녕로 220",
      "lat": "37.500711110",
      "lng": "126.94555621",
      "total_count": 6,
      "available_count": 5,
      "total_percent": 83.3,
      "slow_total": 6,
      "slow_avail": 5,
      "slow_percent": 83.3,
      "fast_total": 0,
      "fast_avail": 0,
      "fast_percent": 0.0,
      "latest_update": "20260714113000"
    },
    {
      "station_id": "EV012437",
      "name": "서울동작 사당5구역신동아아파트 2",
      "address": "서울특별시 동작구 동작대로29길 118",
      "lat": "37.491041480",
      "lng": "126.97714822",
      "total_count": 6,
      "available_count": 6,
      "total_percent": 100.0,
      "slow_total": 6,
      "slow_avail": 6,
      "slow_percent": 100.0,
      "fast_total": 0,
      "fast_avail": 0,
      "fast_percent": 0.0,
      "latest_update": "20260714111237"
    },
    {
      "station_id": "EV013086",
      "name": "서울동작 래미안로이파크 2",
      "address": "서울특별시 동작구 사당로23길 112 (사당동, 래미안 로이파크)",
      "lat": "37.4877957",
      "lng": "126.9734721",
      "total_count": 6,
      "available_count": 5,
      "total_percent": 83.3,
      "slow_total": 6,
      "slow_avail": 5,
      "slow_percent": 83.3,
      "fast_total": 0,
      "fast_avail": 0,
      "fast_percent": 0.0,
      "latest_update": "20260714113045"
    },
    {
      "station_id": "EV013415",
      "name": "서울동작 흑석동양아파트 2",
      "address": "서울특별시 동작구 서달로1길 17",
      "lat": "37.5008678",
      "lng": "126.9584985",
      "total_count": 6,
      "available_count": 6,
      "total_percent": 100.0,
      "slow_total": 6,
      "slow_avail": 6,
      "slow_percent": 100.0,
      "fast_total": 0,
      "fast_avail": 0,
      "fast_percent": 0.0,
      "latest_update": "20260714085037"
    },
    {
      "station_id": "EV014436",
      "name": "서울동작 사당우성2단지아파트3",
      "address": "서울특별시 동작구 동작대로29길 91",
      "lat": "37.4874006",
      "lng": "126.977024",
      "total_count": 6,
      "available_count": 5,
      "total_percent": 83.3,
      "slow_total": 6,
      "slow_avail": 5,
      "slow_percent": 83.3,
      "fast_total": 0,
      "fast_avail": 0,
      "fast_percent": 0.0,
      "latest_update": "20260714112846"
    },
    {
      "station_id": "EV020853",
      "name": "서울동작 상도푸르지오클라베뉴 1",
      "address": "서울 동작구 성대로 164",
      "lat": "37.4973212",
      "lng": "126.9399855",
      "total_count": 6,
      "available_count": 5,
      "total_percent": 83.3,
      "slow_total": 6,
      "slow_avail": 5,
      "slow_percent": 83.3,
      "fast_total": 0,
      "fast_avail": 0,
      "fast_percent": 0.0,
      "latest_update": "20260714065727"
    },
    {
      "station_id": "EV020854",
      "name": "서울동작 상도푸르지오클라베뉴 2",
      "address": "서울 동작구 성대로 164",
      "lat": "37.4977265",
      "lng": "126.9397646",
      "total_count": 6,
      "available_count": 5,
      "total_percent": 83.3,
      "slow_total": 6,
      "slow_avail": 5,
      "slow_percent": 83.3,
      "fast_total": 0,
      "fast_avail": 0,
      "fast_percent": 0.0,
      "latest_update": "20260714080409"
    },
    {
      "station_id": "EV020855",
      "name": "서울동작 상도푸르지오클라베뉴 3",
      "address": "서울 동작구 성대로 164",
      "lat": "37.4981992",
      "lng": "126.9391479",
      "total_count": 6,
      "available_count": 6,
      "total_percent": 100.0,
      "slow_total": 6,
      "slow_avail": 6,
      "slow_percent": 100.0,
      "fast_total": 0,
      "fast_avail": 0,
      "fast_percent": 0.0,
      "latest_update": "20260713232912"
    },
    {
      "station_id": "EV020860",
      "name": "서울동작 상도푸르지오클라베뉴 8",
      "address": "서울 동작구 성대로 164",
      "lat": "37.4971629",
      "lng": "126.9388830",
      "total_count": 6,
      "available_count": 6,
      "total_percent": 100.0,
      "slow_total": 6,
      "slow_avail": 6,
      "slow_percent": 100.0,
      "fast_total": 0,
      "fast_avail": 0,
      "fast_percent": 0.0,
      "latest_update": "20260713115040"
    },
    {
      "station_id": "HM001579",
      "name": "보라매자이 더포레스트 상가",
      "address": "서울특별시 동작구 여의대방로22길 121",
      "lat": "37.4983519",
      "lng": "126.925286",
      "total_count": 6,
      "available_count": 5,
      "total_percent": 83.3,
      "slow_total": 6,
      "slow_avail": 5,
      "slow_percent": 83.3,
      "fast_total": 0,
      "fast_avail": 0,
      "fast_percent": 0.0,
      "latest_update": "20260714113615"
    },
    {
      "station_id": "IN120108",
      "name": "보라매코오롱하늘채아파트",
      "address": "서울특별시 동작구 여의대방로24다길 40",
      "lat": "37.4988",
      "lng": "126.9231",
      "total_count": 6,
      "available_count": 0,
      "total_percent": 0.0,
      "slow_total": 6,
      "slow_avail": 0,
      "slow_percent": 0.0,
      "fast_total": 0,
      "fast_avail": 0,
      "fast_percent": 0.0,
      "latest_update": "20260615122841"
    },
    {
      "station_id": "LU100742",
      "name": "동작래미안트윈파크",
      "address": "서울특별시 동작구 노량진로23가길 23",
      "lat": "37.51330347",
      "lng": "126.95178247",
      "total_count": 6,
      "available_count": 1,
      "total_percent": 16.7,
      "slow_total": 6,
      "slow_avail": 1,
      "slow_percent": 16.7,
      "fast_total": 0,
      "fast_avail": 0,
      "fast_percent": 0.0,
      "latest_update": "20260714091232"
    },
    {
      "station_id": "PI204297",
      "name": "서울시 동작구 한성아파트",
      "address": "서울특별시 동작구 여의대방로10길 13",
      "lat": "37.4957427",
      "lng": "126.9152118",
      "total_count": 6,
      "available_count": 6,
      "total_percent": 100.0,
      "slow_total": 6,
      "slow_avail": 6,
      "slow_percent": 100.0,
      "fast_total": 0,
      "fast_avail": 0,
      "fast_percent": 0.0,
      "latest_update": "20260714113150"
    },
    {
      "station_id": "PI717651",
      "name": "태성대아파트B",
      "address": "서울특별시 동작구 여의대방로16길 1",
      "lat": "37.495780084",
      "lng": "126.91704778",
      "total_count": 6,
      "available_count": 6,
      "total_percent": 100.0,
      "slow_total": 6,
      "slow_avail": 6,
      "slow_percent": 100.0,
      "fast_total": 0,
      "fast_avail": 0,
      "fast_percent": 0.0,
      "latest_update": "20260714072543"
    },
    {
      "station_id": "PI722579",
      "name": "사당롯데캐슬",
      "address": "서울특별시 동작구 사당로27길 181",
      "lat": "37.4901925",
      "lng": "126.971478",
      "total_count": 6,
      "available_count": 6,
      "total_percent": 100.0,
      "slow_total": 6,
      "slow_avail": 6,
      "slow_percent": 100.0,
      "fast_total": 0,
      "fast_avail": 0,
      "fast_percent": 0.0,
      "latest_update": "20260714101558"
    },
    {
      "station_id": "PI793888",
      "name": "서울 동작구 상도효성해링턴플레이스",
      "address": "서울특별시 동작구 상도로 207",
      "lat": "37.5055713",
      "lng": "126.9418563",
      "total_count": 6,
      "available_count": 6,
      "total_percent": 100.0,
      "slow_total": 6,
      "slow_avail": 6,
      "slow_percent": 100.0,
      "fast_total": 0,
      "fast_avail": 0,
      "fast_percent": 0.0,
      "latest_update": "20260714094315"
    },
    {
      "station_id": "PI796587",
      "name": "서울 동작구 경동윈츠리버아파트",
      "address": "서울특별시 동작구 노량진로32길 156",
      "lat": "37.5094181",
      "lng": "126.9545075",
      "total_count": 6,
      "available_count": 5,
      "total_percent": 83.3,
      "slow_total": 6,
      "slow_avail": 5,
      "slow_percent": 83.3,
      "fast_total": 0,
      "fast_avail": 0,
      "fast_percent": 0.0,
      "latest_update": "20260714081803"
    },
    {
      "station_id": "PI796613",
      "name": "서울 동작구 이수자이아파트",
      "address": "서울특별시 동작구 사당로 300",
      "lat": "37.4844359",
      "lng": "126.9803085",
      "total_count": 6,
      "available_count": 6,
      "total_percent": 100.0,
      "slow_total": 6,
      "slow_avail": 6,
      "slow_percent": 100.0,
      "fast_total": 0,
      "fast_avail": 0,
      "fast_percent": 0.0,
      "latest_update": "20260714080311"
    },
    {
      "station_id": "PI800086",
      "name": "이수역리가아파트B",
      "address": "서울특별시 동작구 사당로27길 130",
      "lat": "37.489501505",
      "lng": "126.97380645",
      "total_count": 6,
      "available_count": 6,
      "total_percent": 100.0,
      "slow_total": 6,
      "slow_avail": 6,
      "slow_percent": 100.0,
      "fast_total": 0,
      "fast_avail": 0,
      "fast_percent": 0.0,
      "latest_update": "20260714081729"
    },
    {
      "station_id": "CGA00147",
      "name": "동작 보라매우성아파트①",
      "address": "서울특별시 동작구 보라매로5길 5",
      "lat": "37.4924608",
      "lng": "126.9251365",
      "total_count": 5,
      "available_count": 5,
      "total_percent": 100.0,
      "slow_total": 5,
      "slow_avail": 5,
      "slow_percent": 100.0,
      "fast_total": 0,
      "fast_avail": 0,
      "fast_percent": 0.0,
      "latest_update": "20260713070006"
    },
    {
      "station_id": "CU200015",
      "name": "보라매롯데낙천대아파트",
      "address": "서울특별시 동작구 여의대방로10길 38",
      "lat": "37.4940583",
      "lng": "126.914141",
      "total_count": 5,
      "available_count": 5,
      "total_percent": 100.0,
      "slow_total": 5,
      "slow_avail": 5,
      "slow_percent": 100.0,
      "fast_total": 0,
      "fast_avail": 0,
      "fast_percent": 0.0,
      "latest_update": "20260714090959"
    },
    {
      "station_id": "EV002998",
      "name": "서울동작 대방1차e편한세상B3",
      "address": "서울특별시 동작구 알마타길 37",
      "lat": "37.5122178",
      "lng": "126.9291887",
      "total_count": 5,
      "available_count": 5,
      "total_percent": 100.0,
      "slow_total": 5,
      "slow_avail": 5,
      "slow_percent": 100.0,
      "fast_total": 0,
      "fast_avail": 0,
      "fast_percent": 0.0,
      "latest_update": "20260714043410"
    },
    {
      "station_id": "EV003857",
      "name": "서울동작 힐스테이트상도센트럴파크1",
      "address": "서울특별시 동작구 상도로 346-1",
      "lat": "37.49679",
      "lng": "126.9516675",
      "total_count": 5,
      "available_count": 3,
      "total_percent": 60.0,
      "slow_total": 5,
      "slow_avail": 3,
      "slow_percent": 60.0,
      "fast_total": 0,
      "fast_avail": 0,
      "fast_percent": 0.0,
      "latest_update": "20260714084834"
    },
    {
      "station_id": "EV011399",
      "name": "서울동작 쌍용스윗닷홈 1",
      "address": "서울특별시 동작구 상도로 107",
      "lat": "37.501589911",
      "lng": "126.93208259",
      "total_count": 5,
      "available_count": 5,
      "total_percent": 100.0,
      "slow_total": 5,
      "slow_avail": 5,
      "slow_percent": 100.0,
      "fast_total": 0,
      "fast_avail": 0,
      "fast_percent": 0.0,
      "latest_update": "20260714055050"
    },
    {
      "station_id": "EV011400",
      "name": "서울동작 쌍용스윗닷홈 2",
      "address": "서울특별시 동작구 상도로 107",
      "lat": "37.501974778",
      "lng": "126.93153939",
      "total_count": 5,
      "available_count": 5,
      "total_percent": 100.0,
      "slow_total": 5,
      "slow_avail": 5,
      "slow_percent": 100.0,
      "fast_total": 0,
      "fast_avail": 0,
      "fast_percent": 0.0,
      "latest_update": "20260713043923"
    },
    {
      "station_id": "EV014031",
      "name": "서울동작 사당우성2단지아파트 2",
      "address": "서울특별시 동작구 동작대로29길 91",
      "lat": "37.4882383",
      "lng": "126.9759948",
      "total_count": 5,
      "available_count": 5,
      "total_percent": 100.0,
      "slow_total": 5,
      "slow_avail": 5,
      "slow_percent": 100.0,
      "fast_total": 0,
      "fast_avail": 0,
      "fast_percent": 0.0,
      "latest_update": "20260714092658"
    },
    {
      "station_id": "EV015785",
      "name": "서울동작 신대방경남아파트 1",
      "address": "서울특별시 동작구 신대방길 85 (신대방동, 경남아파트)",
      "lat": "37.4900534",
      "lng": "126.9083379",
      "total_count": 5,
      "available_count": 4,
      "total_percent": 80.0,
      "slow_total": 5,
      "slow_avail": 4,
      "slow_percent": 80.0,
      "fast_total": 0,
      "fast_avail": 0,
      "fast_percent": 0.0,
      "latest_update": "20260714093704"
    },
    {
      "station_id": "EV015786",
      "name": "서울동작 신대방경남아파트 2",
      "address": "서울특별시 동작구 신대방길 85 (신대방동, 경남아파트)",
      "lat": "37.4900534",
      "lng": "126.9083379",
      "total_count": 5,
      "available_count": 5,
      "total_percent": 100.0,
      "slow_total": 5,
      "slow_avail": 5,
      "slow_percent": 100.0,
      "fast_total": 0,
      "fast_avail": 0,
      "fast_percent": 0.0,
      "latest_update": "20260714053643"
    },
    {
      "station_id": "EV020857",
      "name": "서울동작 상도푸르지오클라베뉴 5",
      "address": "서울 동작구 성대로 164",
      "lat": "37.4980867",
      "lng": "126.9393403",
      "total_count": 5,
      "available_count": 4,
      "total_percent": 80.0,
      "slow_total": 5,
      "slow_avail": 4,
      "slow_percent": 80.0,
      "fast_total": 0,
      "fast_avail": 0,
      "fast_percent": 0.0,
      "latest_update": "20260714111035"
    },
    {
      "station_id": "EV020858",
      "name": "서울동작 상도푸르지오클라베뉴 6",
      "address": "서울 동작구 성대로 164",
      "lat": "37.4981623",
      "lng": "126.9394804",
      "total_count": 5,
      "available_count": 5,
      "total_percent": 100.0,
      "slow_total": 5,
      "slow_avail": 5,
      "slow_percent": 100.0,
      "fast_total": 0,
      "fast_avail": 0,
      "fast_percent": 0.0,
      "latest_update": "20260713061348"
    },
    {
      "station_id": "EV020859",
      "name": "서울동작 상도푸르지오클라베뉴 7",
      "address": "서울 동작구 성대로 164",
      "lat": "37.4980818",
      "lng": "126.9386561",
      "total_count": 5,
      "available_count": 5,
      "total_percent": 100.0,
      "slow_total": 5,
      "slow_avail": 5,
      "slow_percent": 100.0,
      "fast_total": 0,
      "fast_avail": 0,
      "fast_percent": 0.0,
      "latest_update": "20260714081205"
    },
    {
      "station_id": "EV020861",
      "name": "서울동작 상도푸르지오클라베뉴 9",
      "address": "서울 동작구 성대로 164",
      "lat": "37.4971540",
      "lng": "126.9390357",
      "total_count": 5,
      "available_count": 5,
      "total_percent": 100.0,
      "slow_total": 5,
      "slow_avail": 5,
      "slow_percent": 100.0,
      "fast_total": 0,
      "fast_avail": 0,
      "fast_percent": 0.0,
      "latest_update": "20260714073752"
    },
    {
      "station_id": "HY000897",
      "name": "현대자동차 남부서비스센터",
      "address": "서울특별시 동작구 노량진로 53",
      "lat": "37.514174",
      "lng": "126.93165",
      "total_count": 5,
      "available_count": 2,
      "total_percent": 40.0,
      "slow_total": 5,
      "slow_avail": 2,
      "slow_percent": 40.0,
      "fast_total": 0,
      "fast_avail": 0,
      "fast_percent": 0.0,
      "latest_update": "20260714081305"
    },
    {
      "station_id": "KE000095",
      "name": "서울동작경동윈츠리버",
      "address": "서울특별시 동작구 노량진로32길 156",
      "lat": "37.5100528",
      "lng": "126.9544921",
      "total_count": 5,
      "available_count": 5,
      "total_percent": 100.0,
      "slow_total": 5,
      "slow_avail": 5,
      "slow_percent": 100.0,
      "fast_total": 0,
      "fast_avail": 0,
      "fast_percent": 0.0,
      "latest_update": "20260713020510"
    },
    {
      "station_id": "KL001978",
      "name": "보라매e편한세상아파트",
      "address": "서울특별시 동작구 보라매로 70",
      "lat": "37.4955537",
      "lng": "126.928305",
      "total_count": 5,
      "available_count": 5,
      "total_percent": 100.0,
      "slow_total": 5,
      "slow_avail": 5,
      "slow_percent": 100.0,
      "fast_total": 0,
      "fast_avail": 0,
      "fast_percent": 0.0,
      "latest_update": "20260714081101"
    },
    {
      "station_id": "KL002002",
      "name": "상도더샵아파트",
      "address": "서울특별시 동작구 장승배기로4길 9",
      "lat": "37.502222",
      "lng": "126.9433204",
      "total_count": 5,
      "available_count": 5,
      "total_percent": 100.0,
      "slow_total": 5,
      "slow_avail": 5,
      "slow_percent": 100.0,
      "fast_total": 0,
      "fast_avail": 0,
      "fast_percent": 0.0,
      "latest_update": "20260714093502"
    },
    {
      "station_id": "KL002128",
      "name": "우리유앤미아파트",
      "address": "서울특별시 동작구 서달로 83",
      "lat": "37.5001922",
      "lng": "126.9597721",
      "total_count": 5,
      "available_count": 5,
      "total_percent": 100.0,
      "slow_total": 5,
      "slow_avail": 5,
      "slow_percent": 100.0,
      "fast_total": 0,
      "fast_avail": 0,
      "fast_percent": 0.0,
      "latest_update": "20260713223701"
    },
    {
      "station_id": "PC001082",
      "name": "삼호그린아파트(동작)",
      "address": "서울특별시 동작구 사당로2가길 188",
      "lat": "37.4864435",
      "lng": "126.9655243",
      "total_count": 5,
      "available_count": 5,
      "total_percent": 100.0,
      "slow_total": 5,
      "slow_avail": 5,
      "slow_percent": 100.0,
      "fast_total": 0,
      "fast_avail": 0,
      "fast_percent": 0.0,
      "latest_update": "20260714095050"
    },
    {
      "station_id": "PI709323",
      "name": "보라매나산스위트B",
      "address": "서울특별시 동작구 보라매로5가길 24",
      "lat": "37.490666979",
      "lng": "126.92390298",
      "total_count": 5,
      "available_count": 4,
      "total_percent": 80.0,
      "slow_total": 5,
      "slow_avail": 4,
      "slow_percent": 80.0,
      "fast_total": 0,
      "fast_avail": 0,
      "fast_percent": 0.0,
      "latest_update": "20260713215013"
    },
    {
      "station_id": "PI717642",
      "name": "신동아파밀리에하늘마루아파트B",
      "address": "서울특별시 동작구 알마타길 6",
      "lat": "37.510323463",
      "lng": "126.92553720",
      "total_count": 5,
      "available_count": 5,
      "total_percent": 100.0,
      "slow_total": 5,
      "slow_avail": 5,
      "slow_percent": 100.0,
      "fast_total": 0,
      "fast_avail": 0,
      "fast_percent": 0.0,
      "latest_update": "20260714105548"
    },
    {
      "station_id": "PI770908",
      "name": "브라운스톤상도B",
      "address": "서울특별시 동작구 상도로31길 19",
      "lat": "37.506204750",
      "lng": "126.94388594",
      "total_count": 5,
      "available_count": 3,
      "total_percent": 60.0,
      "slow_total": 5,
      "slow_avail": 3,
      "slow_percent": 60.0,
      "fast_total": 0,
      "fast_avail": 0,
      "fast_percent": 0.0,
      "latest_update": "20260714112606"
    },
    {
      "station_id": "PI774028",
      "name": "대방2차e편한세상아파트",
      "address": "서울특별시 동작구 알마타길 53",
      "lat": "37.5120403",
      "lng": "126.9313464",
      "total_count": 5,
      "available_count": 5,
      "total_percent": 100.0,
      "slow_total": 5,
      "slow_avail": 5,
      "slow_percent": 100.0,
      "fast_total": 0,
      "fast_avail": 0,
      "fast_percent": 0.0,
      "latest_update": "20260711063744"
    },
    {
      "station_id": "PI780225",
      "name": "이수역리가아파트",
      "address": "서울특별시 동작구 사당로27길 130",
      "lat": "37.489328001",
      "lng": "126.97353514",
      "total_count": 5,
      "available_count": 5,
      "total_percent": 100.0,
      "slow_total": 5,
      "slow_avail": 5,
      "slow_percent": 100.0,
      "fast_total": 0,
      "fast_avail": 0,
      "fast_percent": 0.0,
      "latest_update": "20260714094006"
    },
    {
      "station_id": "PIH00129",
      "name": "서울 상도동 대우유로카운티아파트",
      "address": "서울특별시 동작구 양녕로 287",
      "lat": "37.505382755",
      "lng": "126.94924456",
      "total_count": 5,
      "available_count": 5,
      "total_percent": 100.0,
      "slow_total": 5,
      "slow_avail": 5,
      "slow_percent": 100.0,
      "fast_total": 0,
      "fast_avail": 0,
      "fast_percent": 0.0,
      "latest_update": "20260714010238"
    },
    {
      "station_id": "BT000169",
      "name": "동작주차공원주차장",
      "address": "서울특별시 동작구 현충로 213",
      "lat": "37.5036433",
      "lng": "126.9786893",
      "total_count": 4,
      "available_count": 2,
      "total_percent": 50.0,
      "slow_total": 0,
      "slow_avail": 0,
      "slow_percent": 0.0,
      "fast_total": 4,
      "fast_avail": 2,
      "fast_percent": 50.0,
      "latest_update": "20260712182337"
    },
    {
      "station_id": "BT000170",
      "name": "도화주차장",
      "address": "서울특별시 동작구 성대로17길 지하52",
      "lat": "37.49981478",
      "lng": "126.9351916",
      "total_count": 4,
      "available_count": 1,
      "total_percent": 25.0,
      "slow_total": 0,
      "slow_avail": 0,
      "slow_percent": 0.0,
      "fast_total": 4,
      "fast_avail": 1,
      "fast_percent": 25.0,
      "latest_update": "20260714113421"
    },
    {
      "station_id": "BT000171",
      "name": "서광주차장",
      "address": "서울특별시 동작구 신대방11길 32",
      "lat": "37.48879253",
      "lng": "126.9078409",
      "total_count": 4,
      "available_count": 2,
      "total_percent": 50.0,
      "slow_total": 0,
      "slow_avail": 0,
      "slow_percent": 0.0,
      "fast_total": 4,
      "fast_avail": 2,
      "fast_percent": 50.0,
      "latest_update": "20260712183520"
    },
    {
      "station_id": "EC110104",
      "name": "보라매공영주차장 (급)",
      "address": "서울특별시 동작구 보라매로5길 44",
      "lat": "37.4916394",
      "lng": "126.9228301",
      "total_count": 4,
      "available_count": 0,
      "total_percent": 0.0,
      "slow_total": 0,
      "slow_avail": 0,
      "slow_percent": 0.0,
      "fast_total": 4,
      "fast_avail": 0,
      "fast_percent": 0.0,
      "latest_update": "20260526152602"
    },
    {
      "station_id": "EC110124",
      "name": "숲속마을신동아파밀리에",
      "address": "서울특별시 동작구 여의대방로10길 100",
      "lat": "37.4920144",
      "lng": "126.9145398",
      "total_count": 4,
      "available_count": 4,
      "total_percent": 100.0,
      "slow_total": 4,
      "slow_avail": 4,
      "slow_percent": 100.0,
      "fast_total": 0,
      "fast_avail": 0,
      "fast_percent": 0.0,
      "latest_update": "20260713195602"
    },
    {
      "station_id": "EP210224",
      "name": "에스케이브로드밴드주식회사(여의대방로)",
      "address": "서울특별시 동작구 여의대방로 74",
      "lat": "37.49641",
      "lng": "126.9144902",
      "total_count": 4,
      "available_count": 0,
      "total_percent": 0.0,
      "slow_total": 4,
      "slow_avail": 0,
      "slow_percent": 0.0,
      "fast_total": 0,
      "fast_avail": 0,
      "fast_percent": 0.0,
      "latest_update": "20260703030810"
    },
    {
      "station_id": "EV013085",
      "name": "서울동작 래미안로이파크 1",
      "address": "서울특별시 동작구 사당로23길 112",
      "lat": "37.487795732",
      "lng": "126.97347213",
      "total_count": 4,
      "available_count": 4,
      "total_percent": 100.0,
      "slow_total": 4,
      "slow_avail": 4,
      "slow_percent": 100.0,
      "fast_total": 0,
      "fast_avail": 0,
      "fast_percent": 0.0,
      "latest_update": "20260714080206"
    },
    {
      "station_id": "EV013910",
      "name": "서울동작 래미안로이파크 3",
      "address": "서울특별시 동작구 사당로23길 112",
      "lat": "37.4877957",
      "lng": "126.9734721",
      "total_count": 4,
      "available_count": 3,
      "total_percent": 75.0,
      "slow_total": 4,
      "slow_avail": 3,
      "slow_percent": 75.0,
      "fast_total": 0,
      "fast_avail": 0,
      "fast_percent": 0.0,
      "latest_update": "20260714112646"
    },
    {
      "station_id": "EV014030",
      "name": "서울동작 사당우성2단지아파트 1",
      "address": "서울특별시 동작구 동작대로29길 91",
      "lat": "37.4880807",
      "lng": "126.9762380",
      "total_count": 4,
      "available_count": 4,
      "total_percent": 100.0,
      "slow_total": 4,
      "slow_avail": 4,
      "slow_percent": 100.0,
      "fast_total": 0,
      "fast_avail": 0,
      "fast_percent": 0.0,
      "latest_update": "20260714102935"
    },
    {
      "station_id": "EV016402",
      "name": "서울동작 대방1차e편한세상 2",
      "address": "서울특별시 동작구 알마타길 37 (대방동, 대방1차e-편한세상)",
      "lat": "37.5126599",
      "lng": "126.9295526",
      "total_count": 4,
      "available_count": 4,
      "total_percent": 100.0,
      "slow_total": 4,
      "slow_avail": 4,
      "slow_percent": 100.0,
      "fast_total": 0,
      "fast_avail": 0,
      "fast_percent": 0.0,
      "latest_update": "20260714102935"
    },
    {
      "station_id": "EV017796",
      "name": "서울동작 중앙대학교 6",
      "address": "서울특별시 동작구 흑석동 221 중앙대학교",
      "lat": "37.5043967",
      "lng": "126.9931151",
      "total_count": 4,
      "available_count": 3,
      "total_percent": 75.0,
      "slow_total": 3,
      "slow_avail": 2,
      "slow_percent": 66.7,
      "fast_total": 1,
      "fast_avail": 1,
      "fast_percent": 100.0,
      "latest_update": "20260714095717"
    },
    {
      "station_id": "EV018448",
      "name": "서울동작 사당휴먼시아 4",
      "address": "서울특별시 동작구 사당로16길 96",
      "lat": "37.4794961",
      "lng": "126.9701405",
      "total_count": 4,
      "available_count": 4,
      "total_percent": 100.0,
      "slow_total": 4,
      "slow_avail": 4,
      "slow_percent": 100.0,
      "fast_total": 0,
      "fast_avail": 0,
      "fast_percent": 0.0,
      "latest_update": "20260714080504"
    },
    {
      "station_id": "EV018449",
      "name": "서울동작 사당휴먼시아 5",
      "address": "서울특별시 동작구 사당로16길 96",
      "lat": "37.4794961",
      "lng": "126.9701405",
      "total_count": 4,
      "available_count": 3,
      "total_percent": 75.0,
      "slow_total": 4,
      "slow_avail": 3,
      "slow_percent": 75.0,
      "fast_total": 0,
      "fast_avail": 0,
      "fast_percent": 0.0,
      "latest_update": "20260714120510"
    },
    {
      "station_id": "EV018995",
      "name": "서울동작 본동신동아아파트 1",
      "address": "서울특별시 동작구 매봉로 134",
      "lat": "37.5101470",
      "lng": "126.9514909",
      "total_count": 4,
      "available_count": 4,
      "total_percent": 100.0,
      "slow_total": 4,
      "slow_avail": 4,
      "slow_percent": 100.0,
      "fast_total": 0,
      "fast_avail": 0,
      "fast_percent": 0.0,
      "latest_update": "20260714085842"
    },
    {
      "station_id": "HE000225",
      "name": "남부수도사업소",
      "address": "서울특별시 동작구 여의대방로10길 97 (신대방동, 남부수도사업소)",
      "lat": "37.4293",
      "lng": "126.9154",
      "total_count": 4,
      "available_count": 0,
      "total_percent": 0.0,
      "slow_total": 4,
      "slow_avail": 0,
      "slow_percent": 0.0,
      "fast_total": 0,
      "fast_avail": 0,
      "fast_percent": 0.0,
      "latest_update": "20260714104810"
    },
    {
      "station_id": "HE192485",
      "name": "상도삼호아파트",
      "address": "서울특별시 동작구 상도로 407",
      "lat": "37.493362",
      "lng": "126.957483",
      "total_count": 4,
      "available_count": 4,
      "total_percent": 100.0,
      "slow_total": 4,
      "slow_avail": 4,
      "slow_percent": 100.0,
      "fast_total": 0,
      "fast_avail": 0,
      "fast_percent": 0.0,
      "latest_update": "20260714031920"
    },
    {
      "station_id": "HE240388",
      "name": "남부수도사업소",
      "address": "서울특별시 동작구 여의대방로10길 97",
      "lat": "37.492269833",
      "lng": "126.91587565",
      "total_count": 4,
      "available_count": 4,
      "total_percent": 100.0,
      "slow_total": 4,
      "slow_avail": 4,
      "slow_percent": 100.0,
      "fast_total": 0,
      "fast_avail": 0,
      "fast_percent": 0.0,
      "latest_update": "20260714102800"
    },
    {
      "station_id": "HM000160",
      "name": "노량진삼익아파트",
      "address": "서울특별시 동작구 만양로 84",
      "lat": "37.511107940",
      "lng": "126.94460354",
      "total_count": 4,
      "available_count": 3,
      "total_percent": 75.0,
      "slow_total": 4,
      "slow_avail": 3,
      "slow_percent": 75.0,
      "fast_total": 0,
      "fast_avail": 0,
      "fast_percent": 0.0,
      "latest_update": "20260714085001"
    },
    {
      "station_id": "JA110116",
      "name": "동작주차공원공영주차장",
      "address": "서울특별시 동작구 현충로 213",
      "lat": "37.50390472",
      "lng": "126.9767928",
      "total_count": 4,
      "available_count": 4,
      "total_percent": 100.0,
      "slow_total": 4,
      "slow_avail": 4,
      "slow_percent": 100.0,
      "fast_total": 0,
      "fast_avail": 0,
      "fast_percent": 0.0,
      "latest_update": "20260714092809"
    },
    {
      "station_id": "KP001273",
      "name": "동작상떼빌 아파트",
      "address": "서울특별시 동작구 신대방동 신대방1가길 38",
      "lat": "37.487899553",
      "lng": "126.906937744",
      "total_count": 4,
      "available_count": 4,
      "total_percent": 100.0,
      "slow_total": 3,
      "slow_avail": 3,
      "slow_percent": 100.0,
      "fast_total": 1,
      "fast_avail": 1,
      "fast_percent": 100.0,
      "latest_update": "20260713042019"
    },
    {
      "station_id": "KP001277",
      "name": "흑석한강센트레빌",
      "address": "서울특별시 동작구 흑석동 흑석한강로 2",
      "lat": "37.5051797465",
      "lng": "126.9645145496",
      "total_count": 4,
      "available_count": 4,
      "total_percent": 100.0,
      "slow_total": 3,
      "slow_avail": 3,
      "slow_percent": 100.0,
      "fast_total": 1,
      "fast_avail": 1,
      "fast_percent": 100.0,
      "latest_update": "20260714062015"
    },
    {
      "station_id": "LU101574",
      "name": "사당유니드아파트",
      "address": "서울특별시 동작구 동작대로29길 195",
      "lat": "37.4932876",
      "lng": "126.9749856",
      "total_count": 4,
      "available_count": 4,
      "total_percent": 100.0,
      "slow_total": 4,
      "slow_avail": 4,
      "slow_percent": 100.0,
      "fast_total": 0,
      "fast_avail": 0,
      "fast_percent": 0.0,
      "latest_update": "20260714083217"
    },
    {
      "station_id": "NT102536",
      "name": "동작 대방주공1단지아파트",
      "address": "서울특별시 동작구 여의대방로44길 47",
      "lat": "37.510754",
      "lng": "126.930153",
      "total_count": 4,
      "available_count": 3,
      "total_percent": 75.0,
      "slow_total": 4,
      "slow_avail": 3,
      "slow_percent": 75.0,
      "fast_total": 0,
      "fast_avail": 0,
      "fast_percent": 0.0,
      "latest_update": "20260714095950"
    },
    {
      "station_id": "PC000111",
      "name": "상도 더샵2차아파트(동작)",
      "address": "서울특별시 동작구 장승배기로10길 100",
      "lat": "37.502868",
      "lng": "126.943452",
      "total_count": 4,
      "available_count": 3,
      "total_percent": 75.0,
      "slow_total": 3,
      "slow_avail": 2,
      "slow_percent": 66.7,
      "fast_total": 1,
      "fast_avail": 1,
      "fast_percent": 100.0,
      "latest_update": "20260713210653"
    },
    {
      "station_id": "PC001282",
      "name": "동원베네스트아파트(동작)",
      "address": "서울특별시 동작구 상도로34길 42",
      "lat": "37.5029051",
      "lng": "126.9444482",
      "total_count": 4,
      "available_count": 4,
      "total_percent": 100.0,
      "slow_total": 4,
      "slow_avail": 4,
      "slow_percent": 100.0,
      "fast_total": 0,
      "fast_avail": 0,
      "fast_percent": 0.0,
      "latest_update": "20260714101355"
    },
    {
      "station_id": "PI019154",
      "name": "신대방2차우성아파트",
      "address": "서울특별시 동작구 여의대방로 8",
      "lat": "37.492639553",
      "lng": "126.91017325",
      "total_count": 4,
      "available_count": 4,
      "total_percent": 100.0,
      "slow_total": 4,
      "slow_avail": 4,
      "slow_percent": 100.0,
      "fast_total": 0,
      "fast_avail": 0,
      "fast_percent": 0.0,
      "latest_update": "20260712150600"
    },
    {
      "station_id": "PI200767",
      "name": "서울시 동작구 신대방2차우성",
      "address": "서울특별시 동작구 여의대방로 8",
      "lat": "37.492527026",
      "lng": "126.91030343",
      "total_count": 4,
      "available_count": 4,
      "total_percent": 100.0,
      "slow_total": 4,
      "slow_avail": 4,
      "slow_percent": 100.0,
      "fast_total": 0,
      "fast_avail": 0,
      "fast_percent": 0.0,
      "latest_update": "20260713191709"
    },
    {
      "station_id": "PI204036",
      "name": "서울시 동작구 남도학숙",
      "address": "서울특별시 동작구 여의대방로44길 46",
      "lat": "37.508631094",
      "lng": "126.92828501",
      "total_count": 4,
      "available_count": 4,
      "total_percent": 100.0,
      "slow_total": 4,
      "slow_avail": 4,
      "slow_percent": 100.0,
      "fast_total": 0,
      "fast_avail": 0,
      "fast_percent": 0.0,
      "latest_update": "20260714080129"
    },
    {
      "station_id": "PI204187",
      "name": "서울시 동작구 사당동진흥아파트",
      "address": "서울특별시 동작구 사당로16아길 43",
      "lat": "37.480562",
      "lng": "126.9693294",
      "total_count": 4,
      "available_count": 3,
      "total_percent": 75.0,
      "slow_total": 4,
      "slow_avail": 3,
      "slow_percent": 75.0,
      "fast_total": 0,
      "fast_avail": 0,
      "fast_percent": 0.0,
      "latest_update": "20260714114635"
    },
    {
      "station_id": "PI204247",
      "name": "서울시 동작구 총신대사당캠퍼스",
      "address": "서울특별시 동작구 사당로 143",
      "lat": "37.4879290",
      "lng": "126.9667631",
      "total_count": 4,
      "available_count": 3,
      "total_percent": 75.0,
      "slow_total": 4,
      "slow_avail": 3,
      "slow_percent": 75.0,
      "fast_total": 0,
      "fast_avail": 0,
      "fast_percent": 0.0,
      "latest_update": "20260714120146"
    },
    {
      "station_id": "PI708595",
      "name": "보라매현대아파트",
      "address": "서울특별시 동작구 보라매로5길 35",
      "lat": "37.492117426",
      "lng": "126.92363295",
      "total_count": 4,
      "available_count": 4,
      "total_percent": 100.0,
      "slow_total": 4,
      "slow_avail": 4,
      "slow_percent": 100.0,
      "fast_total": 0,
      "fast_avail": 0,
      "fast_percent": 0.0,
      "latest_update": "20260704210012"
    },
    {
      "station_id": "PI747437",
      "name": "BMW차징스테이션 삼익그린뷰아파트",
      "address": "서울특별시 동작구 남부순환로255길 21",
      "lat": "37.4772209",
      "lng": "126.9697492",
      "total_count": 4,
      "available_count": 3,
      "total_percent": 75.0,
      "slow_total": 4,
      "slow_avail": 3,
      "slow_percent": 75.0,
      "fast_total": 0,
      "fast_avail": 0,
      "fast_percent": 0.0,
      "latest_update": "20260714045741"
    },
    {
      "station_id": "PI808556",
      "name": "서울 동작구 래미안상도2차아파트",
      "address": "서울특별시 동작구 상도로55길 47",
      "lat": "37.4983401",
      "lng": "126.9588505",
      "total_count": 4,
      "available_count": 4,
      "total_percent": 100.0,
      "slow_total": 4,
      "slow_avail": 4,
      "slow_percent": 100.0,
      "fast_total": 0,
      "fast_avail": 0,
      "fast_percent": 0.0,
      "latest_update": "20260714065752"
    },
    {
      "station_id": "ME21B305",
      "name": "남부수도사업소",
      "address": "서울특별시 동작구 여의대방로10길 97",
      "lat": "37.4921248",
      "lng": "126.914969",
      "total_count": 3,
      "available_count": 3,
      "total_percent": 100.0,
      "slow_total": 0,
      "slow_avail": 0,
      "slow_percent": 0.0,
      "fast_total": 3,
      "fast_avail": 3,
      "fast_percent": 100.0,
      "latest_update": "20260714120224"
    },
    {
      "station_id": "CGA00116",
      "name": "동작 대방2차현대아파트",
      "address": "서울특별시 동작구 알마타길 58",
      "lat": "37.510813573",
      "lng": "126.93142953",
      "total_count": 3,
      "available_count": 3,
      "total_percent": 100.0,
      "slow_total": 3,
      "slow_avail": 3,
      "slow_percent": 100.0,
      "fast_total": 0,
      "fast_avail": 0,
      "fast_percent": 0.0,
      "latest_update": "20260714080018"
    },
    {
      "station_id": "CGA00142",
      "name": "동작 장은해그린아파트_지상",
      "address": "서울특별시 동작구 사당로2길 40",
      "lat": "37.4919177",
      "lng": "126.9634132",
      "total_count": 3,
      "available_count": 3,
      "total_percent": 100.0,
      "slow_total": 3,
      "slow_avail": 3,
      "slow_percent": 100.0,
      "fast_total": 0,
      "fast_avail": 0,
      "fast_percent": 0.0,
      "latest_update": "20260714093007"
    },
    {
      "station_id": "CGA00269",
      "name": "동작 래미안로이파크",
      "address": "서울특별시 동작구 사당로23길 112",
      "lat": "37.4885891",
      "lng": "126.9733375",
      "total_count": 3,
      "available_count": 3,
      "total_percent": 100.0,
      "slow_total": 3,
      "slow_avail": 3,
      "slow_percent": 100.0,
      "fast_total": 0,
      "fast_avail": 0,
      "fast_percent": 0.0,
      "latest_update": "20260714110005"
    },
    {
      "station_id": "CSSGI026",
      "name": "보라매한국아델리움엔클래스",
      "address": "서울특별시 동작구 국사봉2길 29",
      "lat": "37.4973",
      "lng": "126.9286",
      "total_count": 3,
      "available_count": 3,
      "total_percent": 100.0,
      "slow_total": 2,
      "slow_avail": 2,
      "slow_percent": 100.0,
      "fast_total": 1,
      "fast_avail": 1,
      "fast_percent": 100.0,
      "latest_update": "20260714020002"
    },
    {
      "station_id": "CV001240",
      "name": "여성가족재단 스페이스 살림",
      "address": "서울특별시 동작구 노량진로 10",
      "lat": "37.512207",
      "lng": "126.9265462",
      "total_count": 3,
      "available_count": 2,
      "total_percent": 66.7,
      "slow_total": 1,
      "slow_avail": 1,
      "slow_percent": 100.0,
      "fast_total": 2,
      "fast_avail": 1,
      "fast_percent": 50.0,
      "latest_update": "20260714114520"
    },
    {
      "station_id": "EC004920",
      "name": "동작삼익프라자아파트 B1주차장",
      "address": "서울특별시 동작구 만양로 84",
      "lat": "37.5110008",
      "lng": "126.9448494",
      "total_count": 3,
      "available_count": 1,
      "total_percent": 33.3,
      "slow_total": 3,
      "slow_avail": 1,
      "slow_percent": 33.3,
      "fast_total": 0,
      "fast_avail": 0,
      "fast_percent": 0.0,
      "latest_update": "20260714101202"
    },
    {
      "station_id": "EC110001",
      "name": "건영약수맨션 B동",
      "address": "서울특별시 동작구 양녕로26길 11",
      "lat": "37.4983752",
      "lng": "126.9441887",
      "total_count": 3,
      "available_count": 3,
      "total_percent": 100.0,
      "slow_total": 3,
      "slow_avail": 3,
      "slow_percent": 100.0,
      "fast_total": 0,
      "fast_avail": 0,
      "fast_percent": 0.0,
      "latest_update": "20260713095202"
    },
    {
      "station_id": "EV002050",
      "name": "서울사당휴먼시아 지하1층",
      "address": "서울특별시 동작구 사당로16길 96",
      "lat": "37.479006",
      "lng": "126.969576",
      "total_count": 3,
      "available_count": 3,
      "total_percent": 100.0,
      "slow_total": 3,
      "slow_avail": 3,
      "slow_percent": 100.0,
      "fast_total": 0,
      "fast_avail": 0,
      "fast_percent": 0.0,
      "latest_update": "20260714054647"
    },
    {
      "station_id": "EV004566",
      "name": "서울동작 롯데캐슬비엔아파트",
      "address": "서울특별시 동작구 양녕로 170",
      "lat": "37.4970019",
      "lng": "126.9436426",
      "total_count": 3,
      "available_count": 3,
      "total_percent": 100.0,
      "slow_total": 3,
      "slow_avail": 3,
      "slow_percent": 100.0,
      "fast_total": 0,
      "fast_avail": 0,
      "fast_percent": 0.0,
      "latest_update": "20260713222832"
    },
    {
      "station_id": "EV004588",
      "name": "서울동작 경향렉스빌아파트 지하3층",
      "address": "서울특별시 동작구 양녕로23길 9",
      "lat": "37.495308641",
      "lng": "126.94244098",
      "total_count": 3,
      "available_count": 3,
      "total_percent": 100.0,
      "slow_total": 3,
      "slow_avail": 3,
      "slow_percent": 100.0,
      "fast_total": 0,
      "fast_avail": 0,
      "fast_percent": 0.0,
      "latest_update": "20260713220418"
    },
    {
      "station_id": "EV007378",
      "name": "서울동작 대방현대아파트1",
      "address": "서울특별시 동작구 등용로 127",
      "lat": "37.512891880",
      "lng": "126.93013253",
      "total_count": 3,
      "available_count": 3,
      "total_percent": 100.0,
      "slow_total": 3,
      "slow_avail": 3,
      "slow_percent": 100.0,
      "fast_total": 0,
      "fast_avail": 0,
      "fast_percent": 0.0,
      "latest_update": "20260713103657"
    },
    {
      "station_id": "EV007379",
      "name": "서울동작 대방현대아파트2",
      "address": "서울특별시 동작구 등용로 127",
      "lat": "37.512872026",
      "lng": "126.93084513",
      "total_count": 3,
      "available_count": 2,
      "total_percent": 66.7,
      "slow_total": 3,
      "slow_avail": 2,
      "slow_percent": 66.7,
      "fast_total": 0,
      "fast_avail": 0,
      "fast_percent": 0.0,
      "latest_update": "20260714114256"
    },
    {
      "station_id": "EV007381",
      "name": "서울동작 대방현대아파트4",
      "address": "서울특별시 동작구 등용로 127",
      "lat": "37.512694321",
      "lng": "126.93126097",
      "total_count": 3,
      "available_count": 3,
      "total_percent": 100.0,
      "slow_total": 3,
      "slow_avail": 3,
      "slow_percent": 100.0,
      "fast_total": 0,
      "fast_avail": 0,
      "fast_percent": 0.0,
      "latest_update": "20260714005606"
    },
    {
      "station_id": "EV007431",
      "name": "서울동작 사당휴먼시아1",
      "address": "서울특별시 동작구 사당로16길 96",
      "lat": "37.479015011",
      "lng": "126.96959870",
      "total_count": 3,
      "available_count": 3,
      "total_percent": 100.0,
      "slow_total": 3,
      "slow_avail": 3,
      "slow_percent": 100.0,
      "fast_total": 0,
      "fast_avail": 0,
      "fast_percent": 0.0,
      "latest_update": "20260710160748"
    },
    {
      "station_id": "EV007432",
      "name": "서울동작 사당휴먼시아2",
      "address": "서울특별시 동작구 사당로16길 96",
      "lat": "37.478807761",
      "lng": "126.96953095",
      "total_count": 3,
      "available_count": 3,
      "total_percent": 100.0,
      "slow_total": 3,
      "slow_avail": 3,
      "slow_percent": 100.0,
      "fast_total": 0,
      "fast_avail": 0,
      "fast_percent": 0.0,
      "latest_update": "20260714095313"
    },
    {
      "station_id": "EV008291",
      "name": "서울동작 흑석동양아파트",
      "address": "서울특별시 동작구 서달로1길 17",
      "lat": "37.5007352",
      "lng": "126.9586697",
      "total_count": 3,
      "available_count": 2,
      "total_percent": 66.7,
      "slow_total": 3,
      "slow_avail": 2,
      "slow_percent": 66.7,
      "fast_total": 0,
      "fast_avail": 0,
      "fast_percent": 0.0,
      "latest_update": "20260714110834"
    },
    {
      "station_id": "EV010128",
      "name": "서울동작 사당대림아파트1",
      "address": "서울특별시 동작구 사당로17길 52",
      "lat": "37.487102",
      "lng": "126.971348",
      "total_count": 3,
      "available_count": 3,
      "total_percent": 100.0,
      "slow_total": 3,
      "slow_avail": 3,
      "slow_percent": 100.0,
      "fast_total": 0,
      "fast_avail": 0,
      "fast_percent": 0.0,
      "latest_update": "20260714082421"
    },
    {
      "station_id": "EV012827",
      "name": "서울동작 중앙대학교병원 2",
      "address": "서울특별시 동작구 흑석로 102 (흑석동)",
      "lat": "37.506038",
      "lng": "126.9604218",
      "total_count": 3,
      "available_count": 1,
      "total_percent": 33.3,
      "slow_total": 3,
      "slow_avail": 1,
      "slow_percent": 33.3,
      "fast_total": 0,
      "fast_avail": 0,
      "fast_percent": 0.0,
      "latest_update": "20260714110633"
    },
    {
      "station_id": "EV012829",
      "name": "서울동작 중앙대학교병원 4",
      "address": "서울특별시 동작구 흑석로 102 (흑석동)",
      "lat": "37.506038",
      "lng": "126.9604218",
      "total_count": 3,
      "available_count": 1,
      "total_percent": 33.3,
      "slow_total": 3,
      "slow_avail": 1,
      "slow_percent": 33.3,
      "fast_total": 0,
      "fast_avail": 0,
      "fast_percent": 0.0,
      "latest_update": "20260714113452"
    },
    {
      "station_id": "EV016401",
      "name": "서울동작 대방1차e편한세상 1",
      "address": "서울특별시 동작구 알마타길 37 (대방동, 대방1차e-편한세상)",
      "lat": "37.5126599",
      "lng": "126.9295526",
      "total_count": 3,
      "available_count": 2,
      "total_percent": 66.7,
      "slow_total": 3,
      "slow_avail": 2,
      "slow_percent": 66.7,
      "fast_total": 0,
      "fast_avail": 0,
      "fast_percent": 0.0,
      "latest_update": "20260713192233"
    },
    {
      "station_id": "EV017793",
      "name": "서울동작 중앙대학교 3",
      "address": "서울특별시 동작구 흑석동 221 중앙대학교",
      "lat": "37.5043967",
      "lng": "127.0818556",
      "total_count": 3,
      "available_count": 1,
      "total_percent": 33.3,
      "slow_total": 2,
      "slow_avail": 1,
      "slow_percent": 50.0,
      "fast_total": 1,
      "fast_avail": 0,
      "fast_percent": 0.0,
      "latest_update": "20260713200059"
    },
    {
      "station_id": "EV017794",
      "name": "서울동작 중앙대학교 4",
      "address": "서울특별시 동작구 흑석동 221 중앙대학교",
      "lat": "37.5043967",
      "lng": "127.0818556",
      "total_count": 3,
      "available_count": 1,
      "total_percent": 33.3,
      "slow_total": 3,
      "slow_avail": 1,
      "slow_percent": 33.3,
      "fast_total": 0,
      "fast_avail": 0,
      "fast_percent": 0.0,
      "latest_update": "20260714111237"
    },
    {
      "station_id": "EV018419",
      "name": "서울동작 상도휴엔하임 1",
      "address": "서울특별시 동작구 상도로15길 131",
      "lat": "37.5049676",
      "lng": "126.9379704",
      "total_count": 3,
      "available_count": 2,
      "total_percent": 66.7,
      "slow_total": 3,
      "slow_avail": 2,
      "slow_percent": 66.7,
      "fast_total": 0,
      "fast_avail": 0,
      "fast_percent": 0.0,
      "latest_update": "20260713073800"
    },
    {
      "station_id": "EV018447",
      "name": "서울동작 사당휴먼시아 3",
      "address": "서울특별시 동작구 사당로16길 96",
      "lat": "37.4794961",
      "lng": "126.9701405",
      "total_count": 3,
      "available_count": 2,
      "total_percent": 66.7,
      "slow_total": 3,
      "slow_avail": 2,
      "slow_percent": 66.7,
      "fast_total": 0,
      "fast_avail": 0,
      "fast_percent": 0.0,
      "latest_update": "20260714115505"
    },
    {
      "station_id": "EV018996",
      "name": "서울동작 본동신동아아파트 2",
      "address": "서울특별시 동작구 매봉로 134",
      "lat": "37.5101470",
      "lng": "126.9514909",
      "total_count": 3,
      "available_count": 2,
      "total_percent": 66.7,
      "slow_total": 3,
      "slow_avail": 2,
      "slow_percent": 66.7,
      "fast_total": 0,
      "fast_avail": 0,
      "fast_percent": 0.0,
      "latest_update": "20260714060900"
    },
    {
      "station_id": "EV018997",
      "name": "서울동작 본동신동아아파트 3",
      "address": "서울특별시 동작구 매봉로 134",
      "lat": "37.5101470",
      "lng": "126.9514909",
      "total_count": 3,
      "available_count": 3,
      "total_percent": 100.0,
      "slow_total": 3,
      "slow_avail": 3,
      "slow_percent": 100.0,
      "fast_total": 0,
      "fast_avail": 0,
      "fast_percent": 0.0,
      "latest_update": "20260714104947"
    },
    {
      "station_id": "EV019732",
      "name": "서울동작 대방1차e편한세상 5",
      "address": "서울특별시 동작구 알마타길 37 (대방동, 대방1차e-편한세상)",
      "lat": "37.5126599",
      "lng": "126.9295526",
      "total_count": 3,
      "available_count": 3,
      "total_percent": 100.0,
      "slow_total": 3,
      "slow_avail": 3,
      "slow_percent": 100.0,
      "fast_total": 0,
      "fast_avail": 0,
      "fast_percent": 0.0,
      "latest_update": "20260714080609"
    },
    {
      "station_id": "EV020856",
      "name": "서울동작 상도푸르지오클라베뉴 4",
      "address": "서울 동작구 성대로 164",
      "lat": "37.4981407",
      "lng": "126.9392667",
      "total_count": 3,
      "available_count": 3,
      "total_percent": 100.0,
      "slow_total": 3,
      "slow_avail": 3,
      "slow_percent": 100.0,
      "fast_total": 0,
      "fast_avail": 0,
      "fast_percent": 0.0,
      "latest_update": "20260713101244"
    },
    {
      "station_id": "HE212776",
      "name": "브라운스톤상도아파트",
      "address": "서울특별시 동작구 상도로31길 19",
      "lat": "37.505886",
      "lng": "126.944142",
      "total_count": 3,
      "available_count": 3,
      "total_percent": 100.0,
      "slow_total": 3,
      "slow_avail": 3,
      "slow_percent": 100.0,
      "fast_total": 0,
      "fast_avail": 0,
      "fast_percent": 0.0,
      "latest_update": "20260713211100"
    },
    {
      "station_id": "HM110240",
      "name": "_어바니엘한강",
      "address": "서울특별시 동작구 노량진로 190",
      "lat": "37.5129574",
      "lng": "126.9468624",
      "total_count": 3,
      "available_count": 3,
      "total_percent": 100.0,
      "slow_total": 3,
      "slow_avail": 3,
      "slow_percent": 100.0,
      "fast_total": 0,
      "fast_avail": 0,
      "fast_percent": 0.0,
      "latest_update": "20260713232219"
    },
    {
      "station_id": "KL002163",
      "name": "대방동경남아너스빌아파트",
      "address": "서울특별시 동작구 여의대방로54길 6",
      "lat": "37.5116136",
      "lng": "126.9256082",
      "total_count": 3,
      "available_count": 3,
      "total_percent": 100.0,
      "slow_total": 3,
      "slow_avail": 3,
      "slow_percent": 100.0,
      "fast_total": 0,
      "fast_avail": 0,
      "fast_percent": 0.0,
      "latest_update": "20260714014701"
    },
    {
      "station_id": "KL002428",
      "name": "상도대림아파트",
      "address": "서울특별시 동작구 상도로60길 20",
      "lat": "37.49319",
      "lng": "126.95326",
      "total_count": 3,
      "available_count": 2,
      "total_percent": 66.7,
      "slow_total": 3,
      "slow_avail": 2,
      "slow_percent": 66.7,
      "fast_total": 0,
      "fast_avail": 0,
      "fast_percent": 0.0,
      "latest_update": "20260714092702"
    },
    {
      "station_id": "KP001271",
      "name": "대방성원 아파트",
      "address": "서울특별시 동작구 대방동 여의대방로44길 9",
      "lat": "37.509731742",
      "lng": "126.9259166877",
      "total_count": 3,
      "available_count": 3,
      "total_percent": 100.0,
      "slow_total": 2,
      "slow_avail": 2,
      "slow_percent": 100.0,
      "fast_total": 1,
      "fast_avail": 1,
      "fast_percent": 100.0,
      "latest_update": "20260714080018"
    },
    {
      "station_id": "KP007601",
      "name": "관악동작지사",
      "address": "서울 동작구 사당동 1008-22",
      "lat": "37.4820923",
      "lng": "126.9814443",
      "total_count": 3,
      "available_count": 1,
      "total_percent": 33.3,
      "slow_total": 3,
      "slow_avail": 1,
      "slow_percent": 33.3,
      "fast_total": 0,
      "fast_avail": 0,
      "fast_percent": 0.0,
      "latest_update": "20260714110006"
    },
    {
      "station_id": "PC000188",
      "name": "남해오네뜨아파트(동작)",
      "address": "서울특별시 동작구 사당로2가길 173",
      "lat": "37.487003",
      "lng": "126.965671",
      "total_count": 3,
      "available_count": 3,
      "total_percent": 100.0,
      "slow_total": 2,
      "slow_avail": 2,
      "slow_percent": 100.0,
      "fast_total": 1,
      "fast_avail": 1,
      "fast_percent": 100.0,
      "latest_update": "20260714092809"
    },
    {
      "station_id": "PI200333",
      "name": "서울시 동작구 현진아파트",
      "address": "서울특별시 동작구 신대방1나길 45",
      "lat": "37.4858814",
      "lng": "126.9070488",
      "total_count": 3,
      "available_count": 3,
      "total_percent": 100.0,
      "slow_total": 3,
      "slow_avail": 3,
      "slow_percent": 100.0,
      "fast_total": 0,
      "fast_avail": 0,
      "fast_percent": 0.0,
      "latest_update": "20260710031603"
    },
    {
      "station_id": "PI202057",
      "name": "동작상떼빌오피스텔상가",
      "address": "서울특별시 동작구 신대방1가길 38",
      "lat": "37.487888782",
      "lng": "126.90699033",
      "total_count": 3,
      "available_count": 2,
      "total_percent": 66.7,
      "slow_total": 3,
      "slow_avail": 2,
      "slow_percent": 66.7,
      "fast_total": 0,
      "fast_avail": 0,
      "fast_percent": 0.0,
      "latest_update": "20260714092810"
    },
    {
      "station_id": "PI204210",
      "name": "서울시 동작구 상도대우유로카운티",
      "address": "서울특별시 동작구 양녕로 287",
      "lat": "37.505402426",
      "lng": "126.94931421",
      "total_count": 3,
      "available_count": 2,
      "total_percent": 66.7,
      "slow_total": 3,
      "slow_avail": 2,
      "slow_percent": 66.7,
      "fast_total": 0,
      "fast_avail": 0,
      "fast_percent": 0.0,
      "latest_update": "20260714110645"
    },
    {
      "station_id": "PI204294",
      "name": "서울시 동작구 삼익아파트",
      "address": "서울특별시 동작구 양녕로 26나길 8",
      "lat": "37.4973649",
      "lng": "126.9445587",
      "total_count": 3,
      "available_count": 3,
      "total_percent": 100.0,
      "slow_total": 3,
      "slow_avail": 3,
      "slow_percent": 100.0,
      "fast_total": 0,
      "fast_avail": 0,
      "fast_percent": 0.0,
      "latest_update": "20260714084146"
    },
    {
      "station_id": "PI306219",
      "name": "보라매나산스위트",
      "address": "서울특별시 동작구 보라매로5가길 24",
      "lat": "37.490696311",
      "lng": "126.92397928",
      "total_count": 3,
      "available_count": 3,
      "total_percent": 100.0,
      "slow_total": 3,
      "slow_avail": 3,
      "slow_percent": 100.0,
      "fast_total": 0,
      "fast_avail": 0,
      "fast_percent": 0.0,
      "latest_update": "20260714071743"
    },
    {
      "station_id": "PI700637",
      "name": "신동아파밀리에하늘마루아파트",
      "address": "서울특별시 동작구 알마타길 6",
      "lat": "37.509969243",
      "lng": "126.92462988",
      "total_count": 3,
      "available_count": 3,
      "total_percent": 100.0,
      "slow_total": 3,
      "slow_avail": 3,
      "slow_percent": 100.0,
      "fast_total": 0,
      "fast_avail": 0,
      "fast_percent": 0.0,
      "latest_update": "20260714105504"
    },
    {
      "station_id": "PI716153",
      "name": "한강쌍용아파트",
      "address": "서울특별시 동작구 노량진로24길 2",
      "lat": "37.5123883",
      "lng": "126.9530502",
      "total_count": 3,
      "available_count": 3,
      "total_percent": 100.0,
      "slow_total": 3,
      "slow_avail": 3,
      "slow_percent": 100.0,
      "fast_total": 0,
      "fast_avail": 0,
      "fast_percent": 0.0,
      "latest_update": "20260713145541"
    },
    {
      "station_id": "PI724041",
      "name": "보라매현대파크스퀘어",
      "address": "서울특별시 동작구 보라매로5길 35",
      "lat": "37.492103774",
      "lng": "126.92342095",
      "total_count": 3,
      "available_count": 1,
      "total_percent": 33.3,
      "slow_total": 3,
      "slow_avail": 1,
      "slow_percent": 33.3,
      "fast_total": 0,
      "fast_avail": 0,
      "fast_percent": 0.0,
      "latest_update": "20260714103210"
    },
    {
      "station_id": "PI764143",
      "name": "상도2차갑을명가아파트",
      "address": "서울특별시 동작구 국사봉길 175",
      "lat": "37.4934715",
      "lng": "126.9353211",
      "total_count": 3,
      "available_count": 2,
      "total_percent": 66.7,
      "slow_total": 3,
      "slow_avail": 2,
      "slow_percent": 66.7,
      "fast_total": 0,
      "fast_avail": 0,
      "fast_percent": 0.0,
      "latest_update": "20260714112535"
    },
    {
      "station_id": "PI801622",
      "name": "골든시네마타워",
      "address": "서울특별시 동작구 동작대로 89",
      "lat": "37.4846140",
      "lng": "126.9816657",
      "total_count": 3,
      "available_count": 2,
      "total_percent": 66.7,
      "slow_total": 3,
      "slow_avail": 2,
      "slow_percent": 66.7,
      "fast_total": 0,
      "fast_avail": 0,
      "fast_percent": 0.0,
      "latest_update": "20260714114242"
    },
    {
      "station_id": "PI805053",
      "name": "서울 동작구 리움펠리체",
      "address": "서울특별시 동작구 양녕로 212",
      "lat": "37.4999500",
      "lng": "126.9449300",
      "total_count": 3,
      "available_count": 0,
      "total_percent": 0.0,
      "slow_total": 3,
      "slow_avail": 0,
      "slow_percent": 0.0,
      "fast_total": 0,
      "fast_avail": 0,
      "fast_percent": 0.0,
      "latest_update": "20260714103310"
    },
    {
      "station_id": "BT000168",
      "name": "빙수골장미주차장",
      "address": "서울특별시 동작구 국사봉16길 28",
      "lat": "37.49342277",
      "lng": "126.9335543",
      "total_count": 2,
      "available_count": 1,
      "total_percent": 50.0,
      "slow_total": 0,
      "slow_avail": 0,
      "slow_percent": 0.0,
      "fast_total": 2,
      "fast_avail": 1,
      "fast_percent": 50.0,
      "latest_update": "20260711202350"
    },
    {
      "station_id": "BT000173",
      "name": "동작갯마을 공영주차장",
      "address": "서울특별시 동작구 동작대로 213",
      "lat": "37.49582594",
      "lng": "126.9825286",
      "total_count": 2,
      "available_count": 1,
      "total_percent": 50.0,
      "slow_total": 0,
      "slow_avail": 0,
      "slow_percent": 0.0,
      "fast_total": 2,
      "fast_avail": 1,
      "fast_percent": 50.0,
      "latest_update": "20260714050326"
    },
    {
      "station_id": "CG000042",
      "name": "동작 대방2차현대아파트",
      "address": "서울특별시 동작구 알마타길 58",
      "lat": "37.5108167",
      "lng": "126.9311465",
      "total_count": 2,
      "available_count": 1,
      "total_percent": 50.0,
      "slow_total": 2,
      "slow_avail": 1,
      "slow_percent": 50.0,
      "fast_total": 0,
      "fast_avail": 0,
      "fast_percent": 0.0,
      "latest_update": "20260712224514"
    },
    {
      "station_id": "CGA00218",
      "name": "동작 보라매우성아파트②",
      "address": "서울특별시 동작구 보라매로5길 5",
      "lat": "37.4923574",
      "lng": "126.9255493",
      "total_count": 2,
      "available_count": 1,
      "total_percent": 50.0,
      "slow_total": 2,
      "slow_avail": 1,
      "slow_percent": 50.0,
      "fast_total": 0,
      "fast_avail": 0,
      "fast_percent": 0.0,
      "latest_update": "20260714054504"
    },
    {
      "station_id": "CV001742",
      "name": "신대방현대아파트 101동 지하1층",
      "address": "서울특별시 동작구 여의대방로 28",
      "lat": "37.493637",
      "lng": "126.912795",
      "total_count": 2,
      "available_count": 2,
      "total_percent": 100.0,
      "slow_total": 2,
      "slow_avail": 2,
      "slow_percent": 100.0,
      "fast_total": 0,
      "fast_avail": 0,
      "fast_percent": 0.0,
      "latest_update": "20260714103027"
    },
    {
      "station_id": "CV002023",
      "name": "신대방현대아파트 106동 지하1층",
      "address": "서울특별시 동작구 여의대방로 28",
      "lat": "37.493686",
      "lng": "126.912702",
      "total_count": 2,
      "available_count": 2,
      "total_percent": 100.0,
      "slow_total": 2,
      "slow_avail": 2,
      "slow_percent": 100.0,
      "fast_total": 0,
      "fast_avail": 0,
      "fast_percent": 0.0,
      "latest_update": "20260714025528"
    },
    {
      "station_id": "CV002024",
      "name": "신대방현대아파트 105동",
      "address": "서울특별시 동작구 여의대방로 28",
      "lat": "37.494149",
      "lng": "126.912107",
      "total_count": 2,
      "available_count": 2,
      "total_percent": 100.0,
      "slow_total": 2,
      "slow_avail": 2,
      "slow_percent": 100.0,
      "fast_total": 0,
      "fast_avail": 0,
      "fast_percent": 0.0,
      "latest_update": "20260714000029"
    },
    {
      "station_id": "CV002025",
      "name": "신대방현대아파트 102동",
      "address": "서울특별시 동작구 여의대방로 28",
      "lat": "37.495316",
      "lng": "126.912061",
      "total_count": 2,
      "available_count": 2,
      "total_percent": 100.0,
      "slow_total": 2,
      "slow_avail": 2,
      "slow_percent": 100.0,
      "fast_total": 0,
      "fast_avail": 0,
      "fast_percent": 0.0,
      "latest_update": "20260713233529"
    },
    {
      "station_id": "CV002026",
      "name": "신대방현대아파트 101동 뒷편",
      "address": "서울특별시 동작구 여의대방로 28",
      "lat": "37.495922",
      "lng": "126.912173",
      "total_count": 2,
      "available_count": 2,
      "total_percent": 100.0,
      "slow_total": 2,
      "slow_avail": 2,
      "slow_percent": 100.0,
      "fast_total": 0,
      "fast_avail": 0,
      "fast_percent": 0.0,
      "latest_update": "20260714045527"
    },
    {
      "station_id": "CV004346",
      "name": "신동아아파트",
      "address": "서울특별시 동작구 동작대로29길 110",
      "lat": "37.488927",
      "lng": "126.978105",
      "total_count": 2,
      "available_count": 2,
      "total_percent": 100.0,
      "slow_total": 0,
      "slow_avail": 0,
      "slow_percent": 0.0,
      "fast_total": 2,
      "fast_avail": 2,
      "fast_percent": 100.0,
      "latest_update": "20260714064043"
    },
    {
      "station_id": "CV004617",
      "name": "상도SH빌아파트",
      "address": "서울특별시 동작구 상도로53길 70",
      "lat": "37.502858",
      "lng": "126.95443",
      "total_count": 2,
      "available_count": 2,
      "total_percent": 100.0,
      "slow_total": 0,
      "slow_avail": 0,
      "slow_percent": 0.0,
      "fast_total": 2,
      "fast_avail": 2,
      "fast_percent": 100.0,
      "latest_update": "20260714083546"
    },
    {
      "station_id": "EC004921",
      "name": "동작삼익프라자아파트 지상 상가주차장",
      "address": "서울특별시 동작구 만양로 84",
      "lat": "37.5108095",
      "lng": "126.945104",
      "total_count": 2,
      "available_count": 2,
      "total_percent": 100.0,
      "slow_total": 2,
      "slow_avail": 2,
      "slow_percent": 100.0,
      "fast_total": 0,
      "fast_avail": 0,
      "fast_percent": 0.0,
      "latest_update": "20260714011802"
    },
    {
      "station_id": "EC110002",
      "name": "건영약수맨션 C동",
      "address": "서울특별시 동작구 양녕로26길 11",
      "lat": "37.497596",
      "lng": "126.9446246",
      "total_count": 2,
      "available_count": 0,
      "total_percent": 0.0,
      "slow_total": 2,
      "slow_avail": 0,
      "slow_percent": 0.0,
      "fast_total": 0,
      "fast_avail": 0,
      "fast_percent": 0.0,
      "latest_update": "20260713102802"
    },
    {
      "station_id": "EV000835",
      "name": "상도래미안3차아파트1",
      "address": "서울특별시 동작구 상도로53길 8",
      "lat": "37.4988501",
      "lng": "126.9539223",
      "total_count": 2,
      "available_count": 2,
      "total_percent": 100.0,
      "slow_total": 2,
      "slow_avail": 2,
      "slow_percent": 100.0,
      "fast_total": 0,
      "fast_avail": 0,
      "fast_percent": 0.0,
      "latest_update": "20260714050426"
    },
    {
      "station_id": "EV000836",
      "name": "상도래미안3차아파트2",
      "address": "서울특별시 동작구 상도로53길 8",
      "lat": "37.4992647",
      "lng": "126.9540917",
      "total_count": 2,
      "available_count": 2,
      "total_percent": 100.0,
      "slow_total": 2,
      "slow_avail": 2,
      "slow_percent": 100.0,
      "fast_total": 0,
      "fast_avail": 0,
      "fast_percent": 0.0,
      "latest_update": "20260714091854"
    },
    {
      "station_id": "EV000837",
      "name": "상도래미안3차아파트3",
      "address": "서울특별시 동작구 상도로53길 8",
      "lat": "37.4997288",
      "lng": "126.9543289",
      "total_count": 2,
      "available_count": 1,
      "total_percent": 50.0,
      "slow_total": 2,
      "slow_avail": 1,
      "slow_percent": 50.0,
      "fast_total": 0,
      "fast_avail": 0,
      "fast_percent": 0.0,
      "latest_update": "20260714022257"
    },
    {
      "station_id": "EV000838",
      "name": "상도래미안3차아파트4",
      "address": "서울특별시 동작구 상도로53길 8",
      "lat": "37.5006118",
      "lng": "126.9544584",
      "total_count": 2,
      "available_count": 2,
      "total_percent": 100.0,
      "slow_total": 2,
      "slow_avail": 2,
      "slow_percent": 100.0,
      "fast_total": 0,
      "fast_avail": 0,
      "fast_percent": 0.0,
      "latest_update": "20260714010613"
    },
    {
      "station_id": "EV000841",
      "name": "상도래미안3차아파트7",
      "address": "서울특별시 동작구 상도로53길 8",
      "lat": "37.5006436",
      "lng": "126.9552217",
      "total_count": 2,
      "available_count": 2,
      "total_percent": 100.0,
      "slow_total": 2,
      "slow_avail": 2,
      "slow_percent": 100.0,
      "fast_total": 0,
      "fast_avail": 0,
      "fast_percent": 0.0,
      "latest_update": "20260712061925"
    },
    {
      "station_id": "EV000842",
      "name": "상도래미안3차아파트8",
      "address": "서울특별시 동작구 상도로53길 8",
      "lat": "37.4997517",
      "lng": "126.9554173",
      "total_count": 2,
      "available_count": 2,
      "total_percent": 100.0,
      "slow_total": 2,
      "slow_avail": 2,
      "slow_percent": 100.0,
      "fast_total": 0,
      "fast_avail": 0,
      "fast_percent": 0.0,
      "latest_update": "20260714043209"
    },
    {
      "station_id": "EV000843",
      "name": "상도래미안3차아파트9",
      "address": "서울특별시 동작구 상도로53길 8",
      "lat": "37.499184",
      "lng": "126.9553074",
      "total_count": 2,
      "available_count": 2,
      "total_percent": 100.0,
      "slow_total": 2,
      "slow_avail": 2,
      "slow_percent": 100.0,
      "fast_total": 0,
      "fast_avail": 0,
      "fast_percent": 0.0,
      "latest_update": "20260714054045"
    },
    {
      "station_id": "EV000844",
      "name": "상도래미안3차아파트10",
      "address": "서울특별시 동작구 상도로53길 8",
      "lat": "37.4986388",
      "lng": "126.9550137",
      "total_count": 2,
      "available_count": 2,
      "total_percent": 100.0,
      "slow_total": 2,
      "slow_avail": 2,
      "slow_percent": 100.0,
      "fast_total": 0,
      "fast_avail": 0,
      "fast_percent": 0.0,
      "latest_update": "20260714034345"
    },
    {
      "station_id": "EV000845",
      "name": "상도래미안3차아파트11",
      "address": "서울특별시 동작구 상도로53길 8",
      "lat": "37.4982425",
      "lng": "126.9552741",
      "total_count": 2,
      "available_count": 2,
      "total_percent": 100.0,
      "slow_total": 2,
      "slow_avail": 2,
      "slow_percent": 100.0,
      "fast_total": 0,
      "fast_avail": 0,
      "fast_percent": 0.0,
      "latest_update": "20260713231500"
    },
    {
      "station_id": "EV001908",
      "name": "동작 이수교KCC스위첸아파트",
      "address": "서울특별시 동작구 동작대로45길 22 (동작동, 이수교KCC스위첸아파트)",
      "lat": "37.497512",
      "lng": "126.98118533",
      "total_count": 2,
      "available_count": 2,
      "total_percent": 100.0,
      "slow_total": 2,
      "slow_avail": 2,
      "slow_percent": 100.0,
      "fast_total": 0,
      "fast_avail": 0,
      "fast_percent": 0.0,
      "latest_update": "20260714005205"
    },
    {
      "station_id": "EV002051",
      "name": "서울사당휴먼시아 지하2층",
      "address": "서울특별시 동작구 사당로16길 96",
      "lat": "37.4788078",
      "lng": "126.969497",
      "total_count": 2,
      "available_count": 2,
      "total_percent": 100.0,
      "slow_total": 2,
      "slow_avail": 2,
      "slow_percent": 100.0,
      "fast_total": 0,
      "fast_avail": 0,
      "fast_percent": 0.0,
      "latest_update": "20260711232927"
    },
    {
      "station_id": "EV002999",
      "name": "서울동작 대방1차e편한세상B1",
      "address": "서울특별시 동작구 알마타길 37",
      "lat": "37.5121549",
      "lng": "126.9294828",
      "total_count": 2,
      "available_count": 2,
      "total_percent": 100.0,
      "slow_total": 2,
      "slow_avail": 2,
      "slow_percent": 100.0,
      "fast_total": 0,
      "fast_avail": 0,
      "fast_percent": 0.0,
      "latest_update": "20260701191130"
    },
    {
      "station_id": "EV003619",
      "name": "서울동작 노량진쌍용예가 1",
      "address": "서울특별시 동작구 장승배기로16길 134",
      "lat": "37.5095363",
      "lng": "126.9441266",
      "total_count": 2,
      "available_count": 1,
      "total_percent": 50.0,
      "slow_total": 2,
      "slow_avail": 1,
      "slow_percent": 50.0,
      "fast_total": 0,
      "fast_avail": 0,
      "fast_percent": 0.0,
      "latest_update": "20260714115054"
    },
    {
      "station_id": "EV006289",
      "name": "서울동작 상도현대아파트",
      "address": "서울특별시 동작구 사당로2길 2-32",
      "lat": "37.4941991",
      "lng": "126.9595703",
      "total_count": 2,
      "available_count": 2,
      "total_percent": 100.0,
      "slow_total": 2,
      "slow_avail": 2,
      "slow_percent": 100.0,
      "fast_total": 0,
      "fast_avail": 0,
      "fast_percent": 0.0,
      "latest_update": "20260714023101"
    },
    {
      "station_id": "EV007380",
      "name": "서울동작 대방현대아파트3",
      "address": "서울특별시 동작구 등용로 127",
      "lat": "37.5125587",
      "lng": "126.9309884",
      "total_count": 2,
      "available_count": 2,
      "total_percent": 100.0,
      "slow_total": 2,
      "slow_avail": 2,
      "slow_percent": 100.0,
      "fast_total": 0,
      "fast_avail": 0,
      "fast_percent": 0.0,
      "latest_update": "20260713091206"
    },
    {
      "station_id": "EV010129",
      "name": "서울동작 사당대림아파트2",
      "address": "서울특별시 동작구 사당로17길 52",
      "lat": "37.4846473",
      "lng": "126.973876",
      "total_count": 2,
      "available_count": 2,
      "total_percent": 100.0,
      "slow_total": 2,
      "slow_avail": 2,
      "slow_percent": 100.0,
      "fast_total": 0,
      "fast_avail": 0,
      "fast_percent": 0.0,
      "latest_update": "20260714113645"
    },
    {
      "station_id": "EV012436",
      "name": "서울동작 사당5구역신동아아파트 1",
      "address": "서울특별시 동작구 동작대로29길 118",
      "lat": "37.491041480",
      "lng": "126.97714822",
      "total_count": 2,
      "available_count": 2,
      "total_percent": 100.0,
      "slow_total": 2,
      "slow_avail": 2,
      "slow_percent": 100.0,
      "fast_total": 0,
      "fast_avail": 0,
      "fast_percent": 0.0,
      "latest_update": "20260630114516"
    },
    {
      "station_id": "EV012826",
      "name": "서울동작 중앙대학교병원 1",
      "address": "서울특별시 동작구 흑석로 102 (흑석동)",
      "lat": "37.506038",
      "lng": "126.9604218",
      "total_count": 2,
      "available_count": 0,
      "total_percent": 0.0,
      "slow_total": 2,
      "slow_avail": 0,
      "slow_percent": 0.0,
      "fast_total": 0,
      "fast_avail": 0,
      "fast_percent": 0.0,
      "latest_update": "20260714084835"
    },
    {
      "station_id": "EV012828",
      "name": "서울동작 중앙대학교병원 3",
      "address": "서울특별시 동작구 흑석로 102 (흑석동)",
      "lat": "37.506038",
      "lng": "126.9604218",
      "total_count": 2,
      "available_count": 2,
      "total_percent": 100.0,
      "slow_total": 2,
      "slow_avail": 2,
      "slow_percent": 100.0,
      "fast_total": 0,
      "fast_avail": 0,
      "fast_percent": 0.0,
      "latest_update": "20260710160949"
    },
    {
      "station_id": "EV013257",
      "name": "서울동작 중앙대학교병원(급속)",
      "address": "서울특별시 동작구 흑석로 102",
      "lat": "37.506038005",
      "lng": "126.96042177",
      "total_count": 2,
      "available_count": 1,
      "total_percent": 50.0,
      "slow_total": 0,
      "slow_avail": 0,
      "slow_percent": 0.0,
      "fast_total": 2,
      "fast_avail": 1,
      "fast_percent": 50.0,
      "latest_update": "20260624081827"
    },
    {
      "station_id": "EV014089",
      "name": "서울동작 사당대아2차아파트",
      "address": "서울특별시 동작구 사당로 165",
      "lat": "37.4874123",
      "lng": "126.9677489",
      "total_count": 2,
      "available_count": 2,
      "total_percent": 100.0,
      "slow_total": 2,
      "slow_avail": 2,
      "slow_percent": 100.0,
      "fast_total": 0,
      "fast_avail": 0,
      "fast_percent": 0.0,
      "latest_update": "20260714071740"
    },
    {
      "station_id": "EV015016",
      "name": "서울동작 이수교KCC스위첸아파트 2",
      "address": "서울특별시 동작구 동작대로45길 22",
      "lat": "37.4975350",
      "lng": "126.9811140",
      "total_count": 2,
      "available_count": 2,
      "total_percent": 100.0,
      "slow_total": 2,
      "slow_avail": 2,
      "slow_percent": 100.0,
      "fast_total": 0,
      "fast_avail": 0,
      "fast_percent": 0.0,
      "latest_update": "20260714051030"
    },
    {
      "station_id": "EV015017",
      "name": "서울동작 이수교KCC스위첸아파트 3",
      "address": "서울특별시 동작구 동작대로45길 22",
      "lat": "37.4975350",
      "lng": "126.9811140",
      "total_count": 2,
      "available_count": 2,
      "total_percent": 100.0,
      "slow_total": 2,
      "slow_avail": 2,
      "slow_percent": 100.0,
      "fast_total": 0,
      "fast_avail": 0,
      "fast_percent": 0.0,
      "latest_update": "20260714063917"
    },
    {
      "station_id": "EV017791",
      "name": "서울동작 중앙대학교 1",
      "address": "서울특별시 동작구 흑석동 221 중앙대학교",
      "lat": "37.5043967",
      "lng": "126.8668376",
      "total_count": 2,
      "available_count": 2,
      "total_percent": 100.0,
      "slow_total": 1,
      "slow_avail": 1,
      "slow_percent": 100.0,
      "fast_total": 1,
      "fast_avail": 1,
      "fast_percent": 100.0,
      "latest_update": "20260713144528"
    },
    {
      "station_id": "EV017792",
      "name": "서울동작 중앙대학교 2",
      "address": "서울특별시 동작구 흑석동 221 중앙대학교",
      "lat": "37.5043967",
      "lng": "126.8668376",
      "total_count": 2,
      "available_count": 1,
      "total_percent": 50.0,
      "slow_total": 2,
      "slow_avail": 1,
      "slow_percent": 50.0,
      "fast_total": 0,
      "fast_avail": 0,
      "fast_percent": 0.0,
      "latest_update": "20260714082822"
    },
    {
      "station_id": "EV017870",
      "name": "서울동작 상도동건영아파트 1",
      "address": "서울 동작구 만양로 26",
      "lat": "37.5076265",
      "lng": "126.9495479",
      "total_count": 2,
      "available_count": 2,
      "total_percent": 100.0,
      "slow_total": 2,
      "slow_avail": 2,
      "slow_percent": 100.0,
      "fast_total": 0,
      "fast_avail": 0,
      "fast_percent": 0.0,
      "latest_update": "20260714082018"
    },
    {
      "station_id": "EV019730",
      "name": "서울동작 대방1차e편한세상 3",
      "address": "서울특별시 동작구 알마타길 37 (대방동, 대방1차e-편한세상)",
      "lat": "37.5126599",
      "lng": "126.9295526",
      "total_count": 2,
      "available_count": 2,
      "total_percent": 100.0,
      "slow_total": 2,
      "slow_avail": 2,
      "slow_percent": 100.0,
      "fast_total": 0,
      "fast_avail": 0,
      "fast_percent": 0.0,
      "latest_update": "20260714092658"
    },
    {
      "station_id": "EV019731",
      "name": "서울동작 대방1차e편한세상 4",
      "address": "서울특별시 동작구 알마타길 37 (대방동, 대방1차e-편한세상)",
      "lat": "37.5126599",
      "lng": "126.9295526",
      "total_count": 2,
      "available_count": 2,
      "total_percent": 100.0,
      "slow_total": 2,
      "slow_avail": 2,
      "slow_percent": 100.0,
      "fast_total": 0,
      "fast_avail": 0,
      "fast_percent": 0.0,
      "latest_update": "20260714071137"
    },
    {
      "station_id": "GS000072",
      "name": "대방주유소",
      "address": "서울특별시 동작구 여의대방로 214",
      "lat": "37.505694",
      "lng": "126.922894",
      "total_count": 2,
      "available_count": 0,
      "total_percent": 0.0,
      "slow_total": 0,
      "slow_avail": 0,
      "slow_percent": 0.0,
      "fast_total": 2,
      "fast_avail": 0,
      "fast_percent": 0.0,
      "latest_update": "20260709144810"
    },
    {
      "station_id": "HE212817",
      "name": "상도삼환나우빌아파트",
      "address": "서울특별시 동작구 상도로55길 25",
      "lat": "37.498317",
      "lng": "126.956335",
      "total_count": 2,
      "available_count": 2,
      "total_percent": 100.0,
      "slow_total": 2,
      "slow_avail": 2,
      "slow_percent": 100.0,
      "fast_total": 0,
      "fast_avail": 0,
      "fast_percent": 0.0,
      "latest_update": "20260714022800"
    },
    {
      "station_id": "HE212824",
      "name": "보라매나산스위트아파트",
      "address": "서울특별시 동작구 보라매로5가길 24",
      "lat": "37.490761",
      "lng": "126.923977",
      "total_count": 2,
      "available_count": 1,
      "total_percent": 50.0,
      "slow_total": 2,
      "slow_avail": 1,
      "slow_percent": 50.0,
      "fast_total": 0,
      "fast_avail": 0,
      "fast_percent": 0.0,
      "latest_update": "20260714105100"
    },
    {
      "station_id": "HY001113",
      "name": "동작 본동한신휴플러스",
      "address": "서울특별시 동작구 매봉로 99",
      "lat": "37.5086744",
      "lng": "126.9509247",
      "total_count": 2,
      "available_count": 2,
      "total_percent": 100.0,
      "slow_total": 2,
      "slow_avail": 2,
      "slow_percent": 100.0,
      "fast_total": 0,
      "fast_avail": 0,
      "fast_percent": 0.0,
      "latest_update": "20260713223805"
    },
    {
      "station_id": "JA110114",
      "name": "상도4동소규모공영주차장",
      "address": "서울특별시 동작구 성대로10길 35",
      "lat": "37.4965936",
      "lng": "126.9356775",
      "total_count": 2,
      "available_count": 2,
      "total_percent": 100.0,
      "slow_total": 0,
      "slow_avail": 0,
      "slow_percent": 0.0,
      "fast_total": 2,
      "fast_avail": 2,
      "fast_percent": 100.0,
      "latest_update": "20260714103508"
    },
    {
      "station_id": "JA110146",
      "name": "신라스테이 해링턴타워",
      "address": "서울특별시 동작구 시흥대로 596",
      "lat": "37.4854226",
      "lng": "126.9046275",
      "total_count": 2,
      "available_count": 2,
      "total_percent": 100.0,
      "slow_total": 2,
      "slow_avail": 2,
      "slow_percent": 100.0,
      "fast_total": 0,
      "fast_avail": 0,
      "fast_percent": 0.0,
      "latest_update": "20260714070013"
    },