{
  "district": "금천구",
  "zscode": "11545",
  "summary": {
    "total_count": 500,
    "available_count": 338,
    "total_percent": 67.6,
    "slow_total": 425,
    "slow_avail": 286,
    "slow_percent": 67.3,
    "fast_total": 75,
    "fast_avail": 52,
    "fast_percent": 69.3,
    "station_count": 104
  },
  "stations": [
    {
      "station_id": "HY001876",
      "name": "금천 관악산벽산타운5단지",
      "address": "서울특별시 금천구 금하로 816",
      "lat": "37.4497786",
      "lng": "126.9200208",
      "total_count": 47,
      "available_count": 46,
      "total_percent": 97.9,
      "slow_total": 47,
      "slow_avail": 46,
      "slow_percent": 97.9,
      "fast_total": 0,
      "fast_avail": 0,
      "fast_percent": 0.0,
      "latest_update": "20260714104106"
    },
    {
      "station_id": "EC000210",
      "name": "시흥벽산아파트",
      "address": "서울특별시 금천구 금하로 793",
      "lat": "37.4498981",
      "lng": "126.9177590",
      "total_count": 30,
      "available_count": 28,
      "total_percent": 93.3,
      "slow_total": 30,
      "slow_avail": 28,
      "slow_percent": 93.3,
      "fast_total": 0,
      "fast_avail": 0,
      "fast_percent": 0.0,
      "latest_update": "20260714102201"
    },
    {
      "station_id": "CV002928",
      "name": "홈플러스 금천점",
      "address": "서울특별시 금천구 시흥대로 391",
      "lat": "37.468668",
      "lng": "126.89688",
      "total_count": 21,
      "available_count": 21,
      "total_percent": 100.0,
      "slow_total": 17,
      "slow_avail": 17,
      "slow_percent": 100.0,
      "fast_total": 4,
      "fast_avail": 4,
      "fast_percent": 100.0,
      "latest_update": "20260714111538"
    },
    {
      "station_id": "CGA00119",
      "name": "금천 대륭테크노타운2차",
      "address": "서울특별시 금천구 가산디지털1로 33",
      "lat": "37.4684624",
      "lng": "126.8846472",
      "total_count": 17,
      "available_count": 13,
      "total_percent": 76.5,
      "slow_total": 17,
      "slow_avail": 13,
      "slow_percent": 76.5,
      "fast_total": 0,
      "fast_avail": 0,
      "fast_percent": 0.0,
      "latest_update": "20260714113008"
    },
    {
      "station_id": "HY000816",
      "name": "현대아울렛 가산점",
      "address": "서울특별시 금천구 디지털로10길 9",
      "lat": "37.477619",
      "lng": "126.8890553",
      "total_count": 15,
      "available_count": 13,
      "total_percent": 86.7,
      "slow_total": 11,
      "slow_avail": 9,
      "slow_percent": 81.8,
      "fast_total": 4,
      "fast_avail": 4,
      "fast_percent": 100.0,
      "latest_update": "20260714075404"
    },
    {
      "station_id": "IN120033",
      "name": "시흥벽산아파트",
      "address": "서울특별시 금천구 금하로 793",
      "lat": "37.4516",
      "lng": "126.9189",
      "total_count": 13,
      "available_count": 1,
      "total_percent": 7.7,
      "slow_total": 13,
      "slow_avail": 1,
      "slow_percent": 7.7,
      "fast_total": 0,
      "fast_avail": 0,
      "fast_percent": 0.0,
      "latest_update": "20260615122836"
    },
    {
      "station_id": "HU200034",
      "name": "가산한화비즈메트로2차",
      "address": "서울특별시 금천구 가산디지털2로 43-14",
      "lat": "37.4724617",
      "lng": "126.8815175",
      "total_count": 12,
      "available_count": 5,
      "total_percent": 41.7,
      "slow_total": 12,
      "slow_avail": 5,
      "slow_percent": 41.7,
      "fast_total": 0,
      "fast_avail": 0,
      "fast_percent": 0.0,
      "latest_update": "20260714112006"
    },
    {
      "station_id": "HU200037",
      "name": "독산역롯데캐슬",
      "address": "서울특별시 금천구 벚꽃로 100",
      "lat": "37.4637527",
      "lng": "126.8909598",
      "total_count": 11,
      "available_count": 10,
      "total_percent": 90.9,
      "slow_total": 11,
      "slow_avail": 10,
      "slow_percent": 90.9,
      "fast_total": 0,
      "fast_avail": 0,
      "fast_percent": 0.0,
      "latest_update": "20260714114035"
    },
    {
      "station_id": "EC110008",
      "name": "대륭포스트타워5차",
      "address": "서울특별시 금천구 디지털로9길 68",
      "lat": "37.481076",
      "lng": "126.8864218",
      "total_count": 10,
      "available_count": 2,
      "total_percent": 20.0,
      "slow_total": 10,
      "slow_avail": 2,
      "slow_percent": 20.0,
      "fast_total": 0,
      "fast_avail": 0,
      "fast_percent": 0.0,
      "latest_update": "20260714102202"
    },
    {
      "station_id": "EC110027",
      "name": "금천이랜드해가든 B2",
      "address": "서울특별시 금천구 벚꽃로6길 3",
      "lat": "37.4605574",
      "lng": "126.8924932",
      "total_count": 10,
      "available_count": 10,
      "total_percent": 100.0,
      "slow_total": 10,
      "slow_avail": 10,
      "slow_percent": 100.0,
      "fast_total": 0,
      "fast_avail": 0,
      "fast_percent": 0.0,
      "latest_update": "20260714094202"
    },
    {
      "station_id": "EZ510015",
      "name": "시흥유통산업단지 노란충전",
      "address": "서울특별시 금천구 시흥대로 97",
      "lat": "37.4417337",
      "lng": "126.9026209",
      "total_count": 8,
      "available_count": 0,
      "total_percent": 0.0,
      "slow_total": 0,
      "slow_avail": 0,
      "slow_percent": 0.0,
      "fast_total": 8,
      "fast_avail": 0,
      "fast_percent": 0.0,
      "latest_update": "20260601113310"
    },
    {
      "station_id": "HE240477",
      "name": "기아(주) 시흥서비스센터",
      "address": "서울특별시 금천구 시흥대로51길 20",
      "lat": "37.452273929",
      "lng": "126.89857507",
      "total_count": 8,
      "available_count": 4,
      "total_percent": 50.0,
      "slow_total": 8,
      "slow_avail": 4,
      "slow_percent": 50.0,
      "fast_total": 0,
      "fast_avail": 0,
      "fast_percent": 0.0,
      "latest_update": "20260713162100"
    },
    {
      "station_id": "HM110251",
      "name": "아스크타워",
      "address": "서울특별시 금천구 디지털로10길 37",
      "lat": "37.476629",
      "lng": "126.889802",
      "total_count": 8,
      "available_count": 2,
      "total_percent": 25.0,
      "slow_total": 4,
      "slow_avail": 1,
      "slow_percent": 25.0,
      "fast_total": 4,
      "fast_avail": 1,
      "fast_percent": 25.0,
      "latest_update": "20260714105620"
    },
    {
      "station_id": "HY001284",
      "name": "가산2차 SKV1AP타워",
      "address": "서울특별시 금천구 가산디지털1로 16",
      "lat": "37.4676023",
      "lng": "126.8879973",
      "total_count": 7,
      "available_count": 6,
      "total_percent": 85.7,
      "slow_total": 7,
      "slow_avail": 6,
      "slow_percent": 85.7,
      "fast_total": 0,
      "fast_avail": 0,
      "fast_percent": 0.0,
      "latest_update": "20260714112704"
    },
    {
      "station_id": "CGA00146",
      "name": "금천 벽산/경인 디지털밸리_주차장입구1",
      "address": "서울특별시 금천구 가산디지털2로 184",
      "lat": "37.4842494",
      "lng": "126.8780843",
      "total_count": 6,
      "available_count": 4,
      "total_percent": 66.7,
      "slow_total": 6,
      "slow_avail": 4,
      "slow_percent": 66.7,
      "fast_total": 0,
      "fast_avail": 0,
      "fast_percent": 0.0,
      "latest_update": "20260714110012"
    },
    {
      "station_id": "CGA00189",
      "name": "금천 SK트윈테크타워",
      "address": "서울특별시 금천구 가산디지털1로 119",
      "lat": "37.4760632",
      "lng": "126.8829254",
      "total_count": 6,
      "available_count": 2,
      "total_percent": 33.3,
      "slow_total": 6,
      "slow_avail": 2,
      "slow_percent": 33.3,
      "fast_total": 0,
      "fast_avail": 0,
      "fast_percent": 0.0,
      "latest_update": "20260714091507"
    },
    {
      "station_id": "EC002393",
      "name": "우림라이온스밸리2차 B2",
      "address": "서울특별시 금천구 가산디지털1로 2",
      "lat": "37.4670683",
      "lng": "126.8883711",
      "total_count": 6,
      "available_count": 2,
      "total_percent": 33.3,
      "slow_total": 6,
      "slow_avail": 2,
      "slow_percent": 33.3,
      "fast_total": 0,
      "fast_avail": 0,
      "fast_percent": 0.0,
      "latest_update": "20260714112801"
    },
    {
      "station_id": "EP200392",
      "name": "금천롯데캐슬골드파크2차오피스텔",
      "address": "서울특별시 금천구 벚꽃로 30",
      "lat": "37.4582229",
      "lng": "126.8937104",
      "total_count": 6,
      "available_count": 0,
      "total_percent": 0.0,
      "slow_total": 6,
      "slow_avail": 0,
      "slow_percent": 0.0,
      "fast_total": 0,
      "fast_avail": 0,
      "fast_percent": 0.0,
      "latest_update": "20260324150039"
    },
    {
      "station_id": "EP210180",
      "name": "대륭테크노타운6차",
      "address": "서울특별시 금천구 서부샛길 648",
      "lat": "37.4812045",
      "lng": "126.8761807",
      "total_count": 6,
      "available_count": 0,
      "total_percent": 0.0,
      "slow_total": 6,
      "slow_avail": 0,
      "slow_percent": 0.0,
      "fast_total": 0,
      "fast_avail": 0,
      "fast_percent": 0.0,
      "latest_update": "20260324150039"
    },
    {
      "station_id": "EP210287",
      "name": "에이스테크노타워10차",
      "address": "서울특별시 금천구 가산디지털1로 196",
      "lat": "37.4829649",
      "lng": "126.8812848",
      "total_count": 6,
      "available_count": 0,
      "total_percent": 0.0,
      "slow_total": 6,
      "slow_avail": 0,
      "slow_percent": 0.0,
      "fast_total": 0,
      "fast_avail": 0,
      "fast_percent": 0.0,
      "latest_update": "20260713135310"
    },
    {
      "station_id": "EV013836",
      "name": "서울금천 백운한비치2차아파트",
      "address": "서울특별시 금천구 금하로23길 52",
      "lat": "37.453577165",
      "lng": "126.90934284",
      "total_count": 6,
      "available_count": 6,
      "total_percent": 100.0,
      "slow_total": 6,
      "slow_avail": 6,
      "slow_percent": 100.0,
      "fast_total": 0,
      "fast_avail": 0,
      "fast_percent": 0.0,
      "latest_update": "20260714094308"
    },
    {
      "station_id": "HE240479",
      "name": "기아(주) 시흥서비스센터(TSU)",
      "address": "서울특별시 금천구 시흥대로51길 20",
      "lat": "37.452233446",
      "lng": "126.89864859",
      "total_count": 6,
      "available_count": 5,
      "total_percent": 83.3,
      "slow_total": 0,
      "slow_avail": 0,
      "slow_percent": 0.0,
      "fast_total": 6,
      "fast_avail": 5,
      "fast_percent": 83.3,
      "latest_update": "20260714045500"
    },
    {
      "station_id": "HM100099",
      "name": "_가산모비우스 지식산업센터",
      "address": "서울특별시 금천구 가산디지털2로 169-23",
      "lat": "37.4822066",
      "lng": "126.8767469",
      "total_count": 6,
      "available_count": 1,
      "total_percent": 16.7,
      "slow_total": 5,
      "slow_avail": 1,
      "slow_percent": 20.0,
      "fast_total": 1,
      "fast_avail": 0,
      "fast_percent": 0.0,
      "latest_update": "20260714101418"
    },
    {
      "station_id": "HM110255",
      "name": "가산어반워크1차",
      "address": "서울특별시 금천구 가산디지털2로 135",
      "lat": "37.480020766",
      "lng": "126.87801582",
      "total_count": 6,
      "available_count": 2,
      "total_percent": 33.3,
      "slow_total": 5,
      "slow_avail": 1,
      "slow_percent": 20.0,
      "fast_total": 1,
      "fast_avail": 1,
      "fast_percent": 100.0,
      "latest_update": "20260714101224"
    },
    {
      "station_id": "HU200010",
      "name": "비젼파크지식산업센터",
      "address": "서울특별시 금천구 가산로7길 100",
      "lat": "37.4734426",
      "lng": "126.8879865",
      "total_count": 6,
      "available_count": 6,
      "total_percent": 100.0,
      "slow_total": 6,
      "slow_avail": 6,
      "slow_percent": 100.0,
      "fast_total": 0,
      "fast_avail": 0,
      "fast_percent": 0.0,
      "latest_update": "20260615124001"
    },
    {
      "station_id": "HY001060",
      "name": "금천 관악산벽산타운6단지I",
      "address": "서울특별시 금천구 금하로 796",
      "lat": "37.449",
      "lng": "126.917",
      "total_count": 6,
      "available_count": 5,
      "total_percent": 83.3,
      "slow_total": 6,
      "slow_avail": 5,
      "slow_percent": 83.3,
      "fast_total": 0,
      "fast_avail": 0,
      "fast_percent": 0.0,
      "latest_update": "20260714081303"
    },
    {
      "station_id": "BNBN0988",
      "name": "서울 금천구 독산2동 마을공원 공영주차장",
      "address": "서울특별시 금천구 시흥대로98길 27",
      "lat": "37.4638037",
      "lng": "126.8993095",
      "total_count": 5,
      "available_count": 5,
      "total_percent": 100.0,
      "slow_total": 5,
      "slow_avail": 5,
      "slow_percent": 100.0,
      "fast_total": 0,
      "fast_avail": 0,
      "fast_percent": 0.0,
      "latest_update": "20260714095719"
    },
    {
      "station_id": "CGA00193",
      "name": "금천 벽산/경인 디지털밸리_주차장입구2",
      "address": "서울특별시 금천구 가산디지털2로 184",
      "lat": "37.4842494",
      "lng": "126.8780843",
      "total_count": 5,
      "available_count": 5,
      "total_percent": 100.0,
      "slow_total": 5,
      "slow_avail": 5,
      "slow_percent": 100.0,
      "fast_total": 0,
      "fast_avail": 0,
      "fast_percent": 0.0,
      "latest_update": "20260714100010"
    },
    {
      "station_id": "EC110025",
      "name": "독산동삼익아파트 B1",
      "address": "서울특별시 금천구 남부순환로120길 22",
      "lat": "37.4782125",
      "lng": "126.901109",
      "total_count": 5,
      "available_count": 5,
      "total_percent": 100.0,
      "slow_total": 5,
      "slow_avail": 5,
      "slow_percent": 100.0,
      "fast_total": 0,
      "fast_avail": 0,
      "fast_percent": 0.0,
      "latest_update": "20260605083202"
    },
    {
      "station_id": "EV003740",
      "name": "에이스하이엔드타워6차",
      "address": "서울특별시 금천구 벚꽃로 234",
      "lat": "37.4759973",
      "lng": "126.8861324",
      "total_count": 5,
      "available_count": 5,
      "total_percent": 100.0,
      "slow_total": 5,
      "slow_avail": 5,
      "slow_percent": 100.0,
      "fast_total": 0,
      "fast_avail": 0,
      "fast_percent": 0.0,
      "latest_update": "20260714091452"
    },
    {
      "station_id": "EV008320",
      "name": "서울금천 남성프라자",
      "address": "서울특별시 금천구 디지털로 130",
      "lat": "37.4754519",
      "lng": "126.8818744",
      "total_count": 5,
      "available_count": 2,
      "total_percent": 40.0,
      "slow_total": 5,
      "slow_avail": 2,
      "slow_percent": 40.0,
      "fast_total": 0,
      "fast_avail": 0,
      "fast_percent": 0.0,
      "latest_update": "20260714112042"
    },
    {
      "station_id": "EV013616",
      "name": "서울금천 대륭테크노타운6차",
      "address": "서울특별시 금천구 서부샛길 648",
      "lat": "37.4812045",
      "lng": "126.8761807",
      "total_count": 5,
      "available_count": 4,
      "total_percent": 80.0,
      "slow_total": 5,
      "slow_avail": 4,
      "slow_percent": 80.0,
      "fast_total": 0,
      "fast_avail": 0,
      "fast_percent": 0.0,
      "latest_update": "20260714101930"
    },
    {
      "station_id": "HE192182",
      "name": "대륭테크노타운17차",
      "address": "서울특별시 금천구 가산디지털1로 25",
      "lat": "37.468211",
      "lng": "126.886242",
      "total_count": 5,
      "available_count": 4,
      "total_percent": 80.0,
      "slow_total": 5,
      "slow_avail": 4,
      "slow_percent": 80.0,
      "fast_total": 0,
      "fast_avail": 0,
      "fast_percent": 0.0,
      "latest_update": "20260714111420"
    },
    {
      "station_id": "HM001233",
      "name": "대륭테크노타운20차 관리단운영위원회",
      "address": "서울특별시 금천구 가산디지털1로 5",
      "lat": "37.466745483",
      "lng": "126.88671883",
      "total_count": 5,
      "available_count": 1,
      "total_percent": 20.0,
      "slow_total": 5,
      "slow_avail": 1,
      "slow_percent": 20.0,
      "fast_total": 0,
      "fast_avail": 0,
      "fast_percent": 0.0,
      "latest_update": "20260714100017"
    },
    {
      "station_id": "BNBN0325",
      "name": "서울 금천구 가산동 가산디지털 서측노외",
      "address": "서울특별시 금천구 가산디지털1로 230",
      "lat": "37.485481",
      "lng": "126.880392",
      "total_count": 4,
      "available_count": 2,
      "total_percent": 50.0,
      "slow_total": 0,
      "slow_avail": 0,
      "slow_percent": 0.0,
      "fast_total": 4,
      "fast_avail": 2,
      "fast_percent": 50.0,
      "latest_update": "20260714113916"
    },
    {
      "station_id": "CGA00216",
      "name": "금천 대륭포스트타워6차",
      "address": "서울특별시 금천구 벚꽃로 298",
      "lat": "37.4814402",
      "lng": "126.8838717",
      "total_count": 4,
      "available_count": 1,
      "total_percent": 25.0,
      "slow_total": 4,
      "slow_avail": 1,
      "slow_percent": 25.0,
      "fast_total": 0,
      "fast_avail": 0,
      "fast_percent": 0.0,
      "latest_update": "20260714111508"
    },
    {
      "station_id": "CU200033",
      "name": "독산2동 공영주차장",
      "address": "서울특별시 금천구 시흥대로98길 27",
      "lat": "37.4638364",
      "lng": "126.900025",
      "total_count": 4,
      "available_count": 0,
      "total_percent": 0.0,
      "slow_total": 4,
      "slow_avail": 0,
      "slow_percent": 0.0,
      "fast_total": 0,
      "fast_avail": 0,
      "fast_percent": 0.0,
      "latest_update": "20260324151401"
    },
    {
      "station_id": "EC004535",
      "name": "독산계룡 102동",
      "address": "서울특별시 금천구 범안로15길 7",
      "lat": "37.4668608",
      "lng": "126.8929147",
      "total_count": 4,
      "available_count": 0,
      "total_percent": 0.0,
      "slow_total": 4,
      "slow_avail": 0,
      "slow_percent": 0.0,
      "fast_total": 0,
      "fast_avail": 0,
      "fast_percent": 0.0,
      "latest_update": "20260519112013"
    },
    {
      "station_id": "EV001760",
      "name": "LG가산디지털센터",
      "address": "서울특별시 금천구 가산디지털1로 189",
      "lat": "37.4821518",
      "lng": "126.8797058",
      "total_count": 4,
      "available_count": 3,
      "total_percent": 75.0,
      "slow_total": 4,
      "slow_avail": 3,
      "slow_percent": 75.0,
      "fast_total": 0,
      "fast_avail": 0,
      "fast_percent": 0.0,
      "latest_update": "20260714105627"
    },
    {
      "station_id": "EV006695",
      "name": "서울금천 월드메르디앙벤처센터",
      "address": "서울특별시 금천구 벚꽃로 254",
      "lat": "37.477763",
      "lng": "126.8854927",
      "total_count": 4,
      "available_count": 3,
      "total_percent": 75.0,
      "slow_total": 4,
      "slow_avail": 3,
      "slow_percent": 75.0,
      "fast_total": 0,
      "fast_avail": 0,
      "fast_percent": 0.0,
      "latest_update": "20260714112947"
    },
    {
      "station_id": "EV011564",
      "name": "서울금천 한일산업운수",
      "address": "서울특별시 금천구 시흥대로18길 46 (시흥동)",
      "lat": "37.4402992",
      "lng": "126.9061194",
      "total_count": 4,
      "available_count": 4,
      "total_percent": 100.0,
      "slow_total": 0,
      "slow_avail": 0,
      "slow_percent": 0.0,
      "fast_total": 4,
      "fast_avail": 4,
      "fast_percent": 100.0,
      "latest_update": "20260710105444"
    },
    {
      "station_id": "EV014640",
      "name": "서울금천 가산센트럴푸르지오시티 1",
      "address": "서울특별시 금천구 디지털로10길 69",
      "lat": "37.4753002",
      "lng": "126.8908539",
      "total_count": 4,
      "available_count": 4,
      "total_percent": 100.0,
      "slow_total": 4,
      "slow_avail": 4,
      "slow_percent": 100.0,
      "fast_total": 0,
      "fast_avail": 0,
      "fast_percent": 0.0,
      "latest_update": "20260714111438"
    },
    {
      "station_id": "EV014641",
      "name": "서울금천 가산센트럴푸르지오시티 2",
      "address": "서울특별시 금천구 디지털로10길 69",
      "lat": "37.4753002",
      "lng": "126.8908539",
      "total_count": 4,
      "available_count": 4,
      "total_percent": 100.0,
      "slow_total": 4,
      "slow_avail": 4,
      "slow_percent": 100.0,
      "fast_total": 0,
      "fast_avail": 0,
      "fast_percent": 0.0,
      "latest_update": "20260714083225"
    },
    {
      "station_id": "EV014642",
      "name": "서울금천 가산센트럴푸르지오시티 3",
      "address": "서울특별시 금천구 디지털로10길 69",
      "lat": "37.4753002",
      "lng": "126.8908539",
      "total_count": 4,
      "available_count": 3,
      "total_percent": 75.0,
      "slow_total": 4,
      "slow_avail": 3,
      "slow_percent": 75.0,
      "fast_total": 0,
      "fast_avail": 0,
      "fast_percent": 0.0,
      "latest_update": "20260714111237"
    },
    {
      "station_id": "EV015139",
      "name": "서울금천 에이스하이엔드타워6차",
      "address": "서울특별시 금천구 벚꽃로 234",
      "lat": "37.475997302",
      "lng": "126.88613236",
      "total_count": 4,
      "available_count": 3,
      "total_percent": 75.0,
      "slow_total": 4,
      "slow_avail": 3,
      "slow_percent": 75.0,
      "fast_total": 0,
      "fast_avail": 0,
      "fast_percent": 0.0,
      "latest_update": "20260714105149"
    },
    {
      "station_id": "EV015608",
      "name": "서울금천 진도2차아파트",
      "address": "서울특별시 금천구 두산로 36 (독산동, 진도아파트)",
      "lat": "37.4702436",
      "lng": "126.8919160",
      "total_count": 4,
      "available_count": 4,
      "total_percent": 100.0,
      "slow_total": 4,
      "slow_avail": 4,
      "slow_percent": 100.0,
      "fast_total": 0,
      "fast_avail": 0,
      "fast_percent": 0.0,
      "latest_update": "20260714064922"
    },
    {
      "station_id": "EZ200266",
      "name": "가산미소지움 관리단",
      "address": "서울특별시 금천구 서부샛길 528",
      "lat": "37.4762916",
      "lng": "126.8787002",
      "total_count": 4,
      "available_count": 0,
      "total_percent": 0.0,
      "slow_total": 4,
      "slow_avail": 0,
      "slow_percent": 0.0,
      "fast_total": 0,
      "fast_avail": 0,
      "fast_percent": 0.0,
      "latest_update": "20260601113310"
    },
    {
      "station_id": "HE000782",
      "name": "대륭테크노타운 18차",
      "address": "서울특별시 금천구 가산디지털1로 19",
      "lat": "37.467926",
      "lng": "126.886383",
      "total_count": 4,
      "available_count": 4,
      "total_percent": 100.0,
      "slow_total": 4,
      "slow_avail": 4,
      "slow_percent": 100.0,
      "fast_total": 0,
      "fast_avail": 0,
      "fast_percent": 0.0,
      "latest_update": "20260713174200"
    },
    {
      "station_id": "HE212788",
      "name": "시티렉스 2",
      "address": "서울특별시 금천구 시흥대로 399",
      "lat": "37.469307",
      "lng": "126.896892",
      "total_count": 4,
      "available_count": 4,
      "total_percent": 100.0,
      "slow_total": 4,
      "slow_avail": 4,
      "slow_percent": 100.0,
      "fast_total": 0,
      "fast_avail": 0,
      "fast_percent": 0.0,
      "latest_update": "20260713220700"
    },
    {
      "station_id": "HJ000002",
      "name": "한진 구로택배터미널 전기차충전소",
      "address": "서울특별시 금천구 가산디지털2로 83",
      "lat": "37.474893",
      "lng": "126.8802628",
      "total_count": 4,
      "available_count": 4,
      "total_percent": 100.0,
      "slow_total": 0,
      "slow_avail": 0,
      "slow_percent": 0.0,
      "fast_total": 4,
      "fast_avail": 4,
      "fast_percent": 100.0,
      "latest_update": "20260714082600"
    },
    {
      "station_id": "HM110261",
      "name": "가산어반워크2차",
      "address": "서울특별시 금천구 가산디지털2로 143",
      "lat": "37.480624005",
      "lng": "126.87768041",
      "total_count": 4,
      "available_count": 0,
      "total_percent": 0.0,
      "slow_total": 3,
      "slow_avail": 0,
      "slow_percent": 0.0,
      "fast_total": 1,
      "fast_avail": 0,
      "fast_percent": 0.0,
      "latest_update": "20260714112221"
    },
    {
      "station_id": "IM000278",
      "name": "한신IT타워2차",
      "address": "서울특별시 금천구 디지털로9길 47",
      "lat": "37.4795756",
      "lng": "126.8858586",
      "total_count": 4,
      "available_count": 4,
      "total_percent": 100.0,
      "slow_total": 4,
      "slow_avail": 4,
      "slow_percent": 100.0,
      "fast_total": 0,
      "fast_avail": 0,
      "fast_percent": 0.0,
      "latest_update": "20260713153027"
    },
    {
      "station_id": "EP210295",
      "name": "코오롱테크노밸리",
      "address": "서울특별시 금천구 디지털로9길 56",
      "lat": "37.4804026",
      "lng": "126.8868723",
      "total_count": 3,
      "available_count": 0,
      "total_percent": 0.0,
      "slow_total": 3,
      "slow_avail": 0,
      "slow_percent": 0.0,
      "fast_total": 0,
      "fast_avail": 0,
      "fast_percent": 0.0,
      "latest_update": "20260324150039"
    },
    {
      "station_id": "EP230205",
      "name": "서울 코오롱테크노밸리",
      "address": "서울특별시 금천구 디지털로9길 56",
      "lat": "37.480402595",
      "lng": "126.88687232",
      "total_count": 3,
      "available_count": 0,
      "total_percent": 0.0,
      "slow_total": 3,
      "slow_avail": 0,
      "slow_percent": 0.0,
      "fast_total": 0,
      "fast_avail": 0,
      "fast_percent": 0.0,
      "latest_update": "20260324150039"
    },
    {
      "station_id": "EV003719",
      "name": "서울금천_에이스비즈포레",
      "address": "서울특별시 금천구 가산디지털2로 173",
      "lat": "37.4831681",
      "lng": "126.8770673",
      "total_count": 3,
      "available_count": 2,
      "total_percent": 66.7,
      "slow_total": 3,
      "slow_avail": 2,
      "slow_percent": 66.7,
      "fast_total": 0,
      "fast_avail": 0,
      "fast_percent": 0.0,
      "latest_update": "20260714090848"
    },
    {
      "station_id": "EV003876",
      "name": "서울금천_독산동한양수자인1",
      "address": "서울특별시 금천구 시흥대로150길 6",
      "lat": "37.4760196",
      "lng": "126.8998116",
      "total_count": 3,
      "available_count": 3,
      "total_percent": 100.0,
      "slow_total": 3,
      "slow_avail": 3,
      "slow_percent": 100.0,
      "fast_total": 0,
      "fast_avail": 0,
      "fast_percent": 0.0,
      "latest_update": "20260714050426"
    },
    {
      "station_id": "EV014719",
      "name": "서울금천 대동테크노빌",
      "address": "서울특별시 금천구 범안로9길 58",
      "lat": "37.4688049",
      "lng": "126.8898705",
      "total_count": 3,
      "available_count": 3,
      "total_percent": 100.0,
      "slow_total": 3,
      "slow_avail": 3,
      "slow_percent": 100.0,
      "fast_total": 0,
      "fast_avail": 0,
      "fast_percent": 0.0,
      "latest_update": "20260713224446"
    },
    {
      "station_id": "EV019815",
      "name": "서울금천 백운한비치아파트 1",
      "address": "서울 금천구 탑골로2길 19",
      "lat": "37.4514200",
      "lng": "126.9118572",
      "total_count": 3,
      "available_count": 3,
      "total_percent": 100.0,
      "slow_total": 3,
      "slow_avail": 3,
      "slow_percent": 100.0,
      "fast_total": 0,
      "fast_avail": 0,
      "fast_percent": 0.0,
      "latest_update": "20260706211910"
    },
    {
      "station_id": "EZ101140",
      "name": "STX V타워",
      "address": "서울특별시 금천구 가산디지털1로 128",
      "lat": "37.4772358",
      "lng": "126.8837009",
      "total_count": 3,
      "available_count": 0,
      "total_percent": 0.0,
      "slow_total": 3,
      "slow_avail": 0,
      "slow_percent": 0.0,
      "fast_total": 0,
      "fast_avail": 0,
      "fast_percent": 0.0,
      "latest_update": "20260601113310"
    },
    {
      "station_id": "HY001059",
      "name": "금천 관악산벽산타운2단지",
      "address": "서울특별시 금천구 금하로 793",
      "lat": "37.4538083",
      "lng": "126.9196399",
      "total_count": 3,
      "available_count": 3,
      "total_percent": 100.0,
      "slow_total": 3,
      "slow_avail": 3,
      "slow_percent": 100.0,
      "fast_total": 0,
      "fast_avail": 0,
      "fast_percent": 0.0,
      "latest_update": "20260714082303"
    },
    {
      "station_id": "HY001380",
      "name": "금천 탑스빌아파트",
      "address": "서울특별시 금천구 금하로30길 34",
      "lat": "37.4489277",
      "lng": "126.9153463",
      "total_count": 3,
      "available_count": 1,
      "total_percent": 33.3,
      "slow_total": 3,
      "slow_avail": 1,
      "slow_percent": 33.3,
      "fast_total": 0,
      "fast_avail": 0,
      "fast_percent": 0.0,
      "latest_update": "20260714102605"
    },
    {
      "station_id": "BNAA0104",
      "name": "독산1동 공영주차장",
      "address": "서울특별시 금천구 범안로12가길 65",
      "lat": "37.464822",
      "lng": "126.894850",
      "total_count": 2,
      "available_count": 2,
      "total_percent": 100.0,
      "slow_total": 0,
      "slow_avail": 0,
      "slow_percent": 0.0,
      "fast_total": 2,
      "fast_avail": 2,
      "fast_percent": 100.0,
      "latest_update": "20260713105819"
    },
    {
      "station_id": "BNAA0105",
      "name": "독산2동 공영주차장",
      "address": "서울특별시 금천구 시흥대로98길 36",
      "lat": "37.463768",
      "lng": "126.89908",
      "total_count": 2,
      "available_count": 2,
      "total_percent": 100.0,
      "slow_total": 0,
      "slow_avail": 0,
      "slow_percent": 0.0,
      "fast_total": 2,
      "fast_avail": 2,
      "fast_percent": 100.0,
      "latest_update": "20260714064829"
    },
    {
      "station_id": "BNAA0106",
      "name": "독산3동 공영주차장",
      "address": "서울특별시 금천구 독산로108길 44",
      "lat": "37.479632",
      "lng": "126.906450",
      "total_count": 2,
      "available_count": 2,
      "total_percent": 100.0,
      "slow_total": 0,
      "slow_avail": 0,
      "slow_percent": 0.0,
      "fast_total": 2,
      "fast_avail": 2,
      "fast_percent": 100.0,
      "latest_update": "20260714095631"
    },
    {
      "station_id": "BNAA0109",
      "name": "시흥4동 공영주차장",
      "address": "서울특별시 금천구 독산로36나길 21",
      "lat": "37.459156",
      "lng": "126.908331",
      "total_count": 2,
      "available_count": 2,
      "total_percent": 100.0,
      "slow_total": 0,
      "slow_avail": 0,
      "slow_percent": 0.0,
      "fast_total": 2,
      "fast_avail": 2,
      "fast_percent": 100.0,
      "latest_update": "20260714061628"
    },
    {
      "station_id": "BNBN0157",
      "name": "서울 금천구 독산2동 공영주차장",
      "address": "서울특별시 금천구 시흥대로98길 36",
      "lat": "37.463940",
      "lng": "126.899975",
      "total_count": 2,
      "available_count": 2,
      "total_percent": 100.0,
      "slow_total": 0,
      "slow_avail": 0,
      "slow_percent": 0.0,
      "fast_total": 2,
      "fast_avail": 2,
      "fast_percent": 100.0,
      "latest_update": "20260714025104"
    },
    {
      "station_id": "BNBN0279",
      "name": "서울 금천구 독산4동 공영주차장",
      "address": "서울특별시 금천구 독산로78다길 9",
      "lat": "37.469603",
      "lng": "126.904410",
      "total_count": 2,
      "available_count": 2,
      "total_percent": 100.0,
      "slow_total": 0,
      "slow_avail": 0,
      "slow_percent": 0.0,
      "fast_total": 2,
      "fast_avail": 2,
      "fast_percent": 100.0,
      "latest_update": "20260714025105"
    },
    {
      "station_id": "BNBN0320",
      "name": "서울 금천구 시흥3동 공영주차장",
      "address": "서울특별시 금천구 시흥대로28길 35-9",
      "lat": "37.443121",
      "lng": "126.905806",
      "total_count": 2,
      "available_count": 1,
      "total_percent": 50.0,
      "slow_total": 0,
      "slow_avail": 0,
      "slow_percent": 0.0,
      "fast_total": 2,
      "fast_avail": 1,
      "fast_percent": 50.0,
      "latest_update": "20260714113315"
    },
    {
      "station_id": "BNBN0322",
      "name": "서울 금천구 가산동 공영주차장",
      "address": "서울특별시 금천구 시흥대로153길 53",
      "lat": "37.476801",
      "lng": "126.895610",
      "total_count": 2,
      "available_count": 2,
      "total_percent": 100.0,
      "slow_total": 0,
      "slow_avail": 0,
      "slow_percent": 0.0,
      "fast_total": 2,
      "fast_avail": 2,
      "fast_percent": 100.0,
      "latest_update": "20260714025105"
    },
    {
      "station_id": "BNBN0380",
      "name": "서울 금천구 시흥1동 공영주차장",
      "address": "서울특별시 금천구 시흥대로51길 93",
      "lat": "37.450903",
      "lng": "126.896634",
      "total_count": 2,
      "available_count": 2,
      "total_percent": 100.0,
      "slow_total": 0,
      "slow_avail": 0,
      "slow_percent": 0.0,
      "fast_total": 2,
      "fast_avail": 2,
      "fast_percent": 100.0,
      "latest_update": "20260714025105"
    },
    {
      "station_id": "BNBN0381",
      "name": "서울 금천구 시흥2동 공영주차장",
      "address": "서울특별시 금천구 독산로36나길 63",
      "lat": "37.458441",
      "lng": "126.910710",
      "total_count": 2,
      "available_count": 2,
      "total_percent": 100.0,
      "slow_total": 0,
      "slow_avail": 0,
      "slow_percent": 0.0,
      "fast_total": 2,
      "fast_avail": 2,
      "fast_percent": 100.0,
      "latest_update": "20260714113916"
    },
    {
      "station_id": "BNBN0582",
      "name": "서울 금천구 견인차량보관소",
      "address": "서울 금천구 가산디지털2로 169-34 (가산동)",
      "lat": "37.4831701",
      "lng": "126.8758006",
      "total_count": 2,
      "available_count": 1,
      "total_percent": 50.0,
      "slow_total": 2,
      "slow_avail": 1,
      "slow_percent": 50.0,
      "fast_total": 0,
      "fast_avail": 0,
      "fast_percent": 0.0,
      "latest_update": "20260714100317"
    },
    {
      "station_id": "BNBN0741",
      "name": "서울 금천구 금하마을 에코에너지센터",
      "address": "서울특별시 금천구 금하로1다길 12",
      "lat": "37.453111",
      "lng": "126.891468",
      "total_count": 2,
      "available_count": 2,
      "total_percent": 100.0,
      "slow_total": 0,
      "slow_avail": 0,
      "slow_percent": 0.0,
      "fast_total": 2,
      "fast_avail": 2,
      "fast_percent": 100.0,
      "latest_update": "20260714082117"
    },
    {
      "station_id": "BNBN1321",
      "name": "서울 금천구 시흥4동 삼성체육공원 공영주차장",
      "address": "서울특별시 금천구 독산로24마길 30",
      "lat": "37.454523441",
      "lng": "126.90903372",
      "total_count": 2,
      "available_count": 1,
      "total_percent": 50.0,
      "slow_total": 2,
      "slow_avail": 1,
      "slow_percent": 50.0,
      "fast_total": 0,
      "fast_avail": 0,
      "fast_percent": 0.0,
      "latest_update": "20260714074519"
    },
    {
      "station_id": "CV001096",
      "name": "시흥5동 복합청사",
      "address": "서울특별시 금천구 금하로24길 6",
      "lat": "37.4507172",
      "lng": "126.9083556",
      "total_count": 2,
      "available_count": 2,
      "total_percent": 100.0,
      "slow_total": 0,
      "slow_avail": 0,
      "slow_percent": 0.0,
      "fast_total": 2,
      "fast_avail": 2,
      "fast_percent": 100.0,
      "latest_update": "20260713162520"
    },
    {
      "station_id": "EC004804",
      "name": "한미빌라",
      "address": "서울특별시 금천구 시흥대로24길 49",
      "lat": "37.4415571",
      "lng": "126.9072563",
      "total_count": 2,
      "available_count": 2,
      "total_percent": 100.0,
      "slow_total": 2,
      "slow_avail": 2,
      "slow_percent": 100.0,
      "fast_total": 0,
      "fast_avail": 0,
      "fast_percent": 0.0,
      "latest_update": "20260709153202"
    },
    {
      "station_id": "EC110006",
      "name": "금천구시설관리공단",
      "address": "서울특별시 금천구 시흥대로37길 18",
      "lat": "37.4456647",
      "lng": "126.9026451",
      "total_count": 2,
      "available_count": 2,
      "total_percent": 100.0,
      "slow_total": 2,
      "slow_avail": 2,
      "slow_percent": 100.0,
      "fast_total": 0,
      "fast_avail": 0,
      "fast_percent": 0.0,
      "latest_update": "20260707073802"
    },
    {
      "station_id": "EC110112",
      "name": "대륭포스트타워5차 (급)",
      "address": "서울특별시 금천구 디지털로9길 68",
      "lat": "37.4811672",
      "lng": "126.8862972",
      "total_count": 2,
      "available_count": 0,
      "total_percent": 0.0,
      "slow_total": 0,
      "slow_avail": 0,
      "slow_percent": 0.0,
      "fast_total": 2,
      "fast_avail": 0,
      "fast_percent": 0.0,
      "latest_update": "20260714084602"
    },
    {
      "station_id": "EP200236",
      "name": "서울 영남중공업",
      "address": "서울특별시 금천구 시흥대로153길 26",
      "lat": "37.4778275",
      "lng": "126.896922",
      "total_count": 2,
      "available_count": 0,
      "total_percent": 0.0,
      "slow_total": 2,
      "slow_avail": 0,
      "slow_percent": 0.0,
      "fast_total": 0,
      "fast_avail": 0,
      "fast_percent": 0.0,
      "latest_update": "20260324150039"
    },
    {
      "station_id": "EV001701",
      "name": "금천구청",
      "address": "서울특별시 금천구 시흥대로73길 70",
      "lat": "37.4570651",
      "lng": "126.8960351",
      "total_count": 2,
      "available_count": 2,
      "total_percent": 100.0,
      "slow_total": 2,
      "slow_avail": 2,
      "slow_percent": 100.0,
      "fast_total": 0,
      "fast_avail": 0,
      "fast_percent": 0.0,
      "latest_update": "20260713205817"
    },
    {
      "station_id": "EV003877",
      "name": "서울금천_독산동한양수자인2",
      "address": "서울특별시 금천구 시흥대로150길 6",
      "lat": "37.4760196",
      "lng": "126.8998116",
      "total_count": 2,
      "available_count": 2,
      "total_percent": 100.0,
      "slow_total": 2,
      "slow_avail": 2,
      "slow_percent": 100.0,
      "fast_total": 0,
      "fast_avail": 0,
      "fast_percent": 0.0,
      "latest_update": "20260714093302"
    },
    {
      "station_id": "EV005671",
      "name": "서울금천 남부여성발전센터(급속)",
      "address": "서울특별시 금천구 독산로50길 23",
      "lat": "37.4632182",
      "lng": "126.9056423",
      "total_count": 2,
      "available_count": 1,
      "total_percent": 50.0,
      "slow_total": 0,
      "slow_avail": 0,
      "slow_percent": 0.0,
      "fast_total": 2,
      "fast_avail": 1,
      "fast_percent": 50.0,
      "latest_update": "20260714112244"
    },
    {
      "station_id": "EV018250",
      "name": "서울금천 오름오피스텔 1",
      "address": "서울특별시 금천구 가산로 91",
      "lat": "37.4740969",
      "lng": "126.8941462",
      "total_count": 2,
      "available_count": 0,
      "total_percent": 0.0,
      "slow_total": 2,
      "slow_avail": 0,
      "slow_percent": 0.0,
      "fast_total": 0,
      "fast_avail": 0,
      "fast_percent": 0.0,
      "latest_update": "20260526125310"
    },
    {
      "station_id": "EZ002303",
      "name": "대륭7차운영위원회",
      "address": "서울특별시 금천구 서부샛길 638",
      "lat": "37.4809717",
      "lng": "126.8770429",
      "total_count": 2,
      "available_count": 0,
      "total_percent": 0.0,
      "slow_total": 2,
      "slow_avail": 0,
      "slow_percent": 0.0,
      "fast_total": 0,
      "fast_avail": 0,
      "fast_percent": 0.0,
      "latest_update": "20260601113310"
    },
    {
      "station_id": "EZ200293",
      "name": "대륭5차운영협의회",
      "address": "서울특별시 금천구 서부샛길 632",
      "lat": "37.4805145",
      "lng": "126.8762648",
      "total_count": 2,
      "available_count": 0,
      "total_percent": 0.0,
      "slow_total": 2,
      "slow_avail": 0,
      "slow_percent": 0.0,
      "fast_total": 0,
      "fast_avail": 0,
      "fast_percent": 0.0,
      "latest_update": "20260601113310"
    },
    {
      "station_id": "GS000020",
      "name": "일신주유소",
      "address": "서울특별시 금천구 시흥대로 118",
      "lat": "37.444394",
      "lng": "126.904283",
      "total_count": 2,
      "available_count": 0,
      "total_percent": 0.0,
      "slow_total": 0,
      "slow_avail": 0,
      "slow_percent": 0.0,
      "fast_total": 2,
      "fast_avail": 0,
      "fast_percent": 0.0,
      "latest_update": "20260709144810"
    },
    {
      "station_id": "HE000875",
      "name": "마리오아울렛 3관",
      "address": "서울특별시 금천구 벚꽃로 266",
      "lat": "37.478727",
      "lng": "126.885155",
      "total_count": 2,
      "available_count": 1,
      "total_percent": 50.0,
      "slow_total": 0,
      "slow_avail": 0,
      "slow_percent": 0.0,
      "fast_total": 2,
      "fast_avail": 1,
      "fast_percent": 50.0,
      "latest_update": "20260714110500"
    },
    {
      "station_id": "HM000099",
      "name": "에이스태세라타워",
      "address": "서울특별시 금천구 가산디지털2로 46",
      "lat": "37.472727716",
      "lng": "126.88270996",
      "total_count": 2,
      "available_count": 2,
      "total_percent": 100.0,
      "slow_total": 2,
      "slow_avail": 2,
      "slow_percent": 100.0,
      "fast_total": 0,
      "fast_avail": 0,
      "fast_percent": 0.0,
      "latest_update": "20260714040800"
    },
    {
      "station_id": "HM001518",
      "name": "서울불교대학원대학교",
      "address": "서울특별시 금천구 독산로70길 8",
      "lat": "37.466418021",
      "lng": "126.90232571",
      "total_count": 2,
      "available_count": 2,
      "total_percent": 100.0,
      "slow_total": 2,
      "slow_avail": 2,
      "slow_percent": 100.0,
      "fast_total": 0,
      "fast_avail": 0,
      "fast_percent": 0.0,
      "latest_update": "20260711131214"
    },
    {
      "station_id": "HY001117",
      "name": "금천 관악산벽산타운6단지II",
      "address": "서울특별시 금천구 금하로 796",
      "lat": "37.4494322",
      "lng": "126.917082",
      "total_count": 2,
      "available_count": 2,
      "total_percent": 100.0,
      "slow_total": 2,
      "slow_avail": 2,
      "slow_percent": 100.0,
      "fast_total": 0,
      "fast_avail": 0,
      "fast_percent": 0.0,
      "latest_update": "20260713094105"
    },
    {
      "station_id": "ME21A128",
      "name": "금천종합복지타운",
      "address": "서울특별시 금천구 금하로 764",
      "lat": "37.4498682",
      "lng": "126.914594",
      "total_count": 1,
      "available_count": 1,
      "total_percent": 100.0,
      "slow_total": 0,
      "slow_avail": 0,
      "slow_percent": 0.0,
      "fast_total": 1,
      "fast_avail": 1,
      "fast_percent": 100.0,
      "latest_update": "20260714113229"
    },
    {
      "station_id": "ME21D047",
      "name": "독산1동 공영주차장",
      "address": "서울특별시 금천구 범안로12가길 65",
      "lat": "37.4648944",
      "lng": "126.8947719",
      "total_count": 1,
      "available_count": 1,
      "total_percent": 100.0,
      "slow_total": 0,
      "slow_avail": 0,
      "slow_percent": 0.0,
      "fast_total": 1,
      "fast_avail": 1,
      "fast_percent": 100.0,
      "latest_update": "20260714113140"
    },
    {
      "station_id": "BNBN1320",
      "name": "서울 금천구 시흥4동 효봉공영주차장",
      "address": "서울특별시 금천구 독산로50마길 6",
      "lat": "37.460741092",
      "lng": "126.91097246",
      "total_count": 1,
      "available_count": 1,
      "total_percent": 100.0,
      "slow_total": 1,
      "slow_avail": 1,
      "slow_percent": 100.0,
      "fast_total": 0,
      "fast_avail": 0,
      "fast_percent": 0.0,
      "latest_update": "20260714025115"
    },
    {
      "station_id": "CCA00004",
      "name": "독산자이하우스",
      "address": "서울특별시 금천구 독산로93길 21",
      "lat": "37.473820426",
      "lng": "126.90207629",
      "total_count": 1,
      "available_count": 0,
      "total_percent": 0.0,
      "slow_total": 1,
      "slow_avail": 0,
      "slow_percent": 0.0,
      "fast_total": 0,
      "fast_avail": 0,
      "fast_percent": 0.0,
      "latest_update": ""
    },
    {
      "station_id": "CPCT0032",
      "name": "신영와코루_본사",
      "address": "서울특별시 금천구 가산디지털1로 104",
      "lat": "37.4755",
      "lng": "126.8847",
      "total_count": 1,
      "available_count": 1,
      "total_percent": 100.0,
      "slow_total": 1,
      "slow_avail": 1,
      "slow_percent": 100.0,
      "fast_total": 0,
      "fast_avail": 0,
      "fast_percent": 0.0,
      "latest_update": "20260710171021"
    },
    {
      "station_id": "CPCT0033",
      "name": "신영와코루_물류센터",
      "address": "서울특별시 금천구 가산디지털1로 99",
      "lat": "37.4748",
      "lng": "126.8837",
      "total_count": 1,
      "available_count": 1,
      "total_percent": 100.0,
      "slow_total": 1,
      "slow_avail": 1,
      "slow_percent": 100.0,
      "fast_total": 0,
      "fast_avail": 0,
      "fast_percent": 0.0,
      "latest_update": "20260710130706"
    },
    {
      "station_id": "EC999998",
      "name": "연구소",
      "address": "서울특별시 금천구 디지털로9길 68",
      "lat": "37.5463577",
      "lng": "126.7123465",
      "total_count": 1,
      "available_count": 0,
      "total_percent": 0.0,
      "slow_total": 1,
      "slow_avail": 0,
      "slow_percent": 0.0,
      "fast_total": 0,
      "fast_avail": 0,
      "fast_percent": 0.0,
      "latest_update": "20260519112015"
    },
    {
      "station_id": "EK221033",
      "name": "에이스하이엔드타워6차(INO)",
      "address": "서울특별시 금천구 벚꽃로 234",
      "lat": "37.4759973",
      "lng": "126.8861324",
      "total_count": 1,
      "available_count": 0,
      "total_percent": 0.0,
      "slow_total": 1,
      "slow_avail": 0,
      "slow_percent": 0.0,
      "fast_total": 0,
      "fast_avail": 0,
      "fast_percent": 0.0,
      "latest_update": "20260324150039"
    },
    {
      "station_id": "EV011133",
      "name": "서울금천 지산IT벤처센터(B1)",
      "address": "서울특별시 금천구 벚꽃로12길 15",
      "lat": "37.464907037",
      "lng": "126.89100433",
      "total_count": 1,
      "available_count": 1,
      "total_percent": 100.0,
      "slow_total": 1,
      "slow_avail": 1,
      "slow_percent": 100.0,
      "fast_total": 0,
      "fast_avail": 0,
      "fast_percent": 0.0,
      "latest_update": "20260705153935"
    },
    {
      "station_id": "EV012984",
      "name": "서울금천 국민은행 독산동",
      "address": "서울특별시 금천구 벚꽃로12길 15 (독산동)",
      "lat": "37.4649070",
      "lng": "126.8910043",
      "total_count": 1,
      "available_count": 0,
      "total_percent": 0.0,
      "slow_total": 1,
      "slow_avail": 0,
      "slow_percent": 0.0,
      "fast_total": 0,
      "fast_avail": 0,
      "fast_percent": 0.0,
      "latest_update": "20260714075803"
    },
    {
      "station_id": "EV018248",
      "name": "서울금천 웨스트밸리 1",
      "address": "서울특별시 금천구 시흥대로57길 5",
      "lat": "37.4525634",
      "lng": "126.9004275",
      "total_count": 1,
      "available_count": 1,
      "total_percent": 100.0,
      "slow_total": 1,
      "slow_avail": 1,
      "slow_percent": 100.0,
      "fast_total": 0,
      "fast_avail": 0,
      "fast_percent": 0.0,
      "latest_update": "20260714091252"
    },
    {
      "station_id": "EV018249",
      "name": "서울금천 아이유아임 1",
      "address": "서울특별시 금천구 두산로9길 23",
      "lat": "37.4714740",
      "lng": "126.8924511",
      "total_count": 1,
      "available_count": 1,
      "total_percent": 100.0,
      "slow_total": 1,
      "slow_avail": 1,
      "slow_percent": 100.0,
      "fast_total": 0,
      "fast_avail": 0,
      "fast_percent": 0.0,
      "latest_update": "20260702171228"
    },
    {
      "station_id": "EV018251",
      "name": "서울금천 신영오피스텔 1",
      "address": "서울특별시 금천구 범안로11길 60",
      "lat": "37.4694638",
      "lng": "126.8910697",
      "total_count": 1,
      "available_count": 1,
      "total_percent": 100.0,
      "slow_total": 1,
      "slow_avail": 1,
      "slow_percent": 100.0,
      "fast_total": 0,
      "fast_avail": 0,
      "fast_percent": 0.0,
      "latest_update": "20260711104317"
    },
    {
      "station_id": "HU200039",
      "name": "코오롱테크노밸리 지식산업센터",
      "address": "서울특별시 금천구 디지털로9길 56",
      "lat": "37.4804032",
      "lng": "126.8868718",
      "total_count": 1,
      "available_count": 1,
      "total_percent": 100.0,
      "slow_total": 1,
      "slow_avail": 1,
      "slow_percent": 100.0,
      "fast_total": 0,
      "fast_avail": 0,
      "fast_percent": 0.0,
      "latest_update": "20260714094035"
    }
  ],
  "collected_at_kst": "2026-07-14T11:28:55.368653+09:00",
  "collected_at_utc": "2026-07-14T02:28:55.368653+00:00"
}