{
  "district": "강북구",
  "zscode": "11305",
  "summary": {
    "total_count": 1267,
    "available_count": 1105,
    "total_percent": 87.2,
    "slow_total": 1105,
    "slow_avail": 982,
    "slow_percent": 88.9,
    "fast_total": 162,
    "fast_avail": 123,
    "fast_percent": 75.9,
    "station_count": 235
  },
  "stations": [
    {
      "station_id": "PI707856",
      "name": "미아SK북한산시티아파트",
      "address": "서울특별시 강북구 솔샘로 174",
      "lat": "37.618621411",
      "lng": "127.01081719",
      "total_count": 72,
      "available_count": 64,
      "total_percent": 88.9,
      "slow_total": 72,
      "slow_avail": 64,
      "slow_percent": 88.9,
      "fast_total": 0,
      "fast_avail": 0,
      "fast_percent": 0.0,
      "latest_update": "20260713174509"
    },
    {
      "station_id": "PL032102",
      "name": "서울 강북구 미아뉴타운래미안트리베라1차아파트",
      "address": "서울 강북구 삼양로19길 25",
      "lat": "37.6156943",
      "lng": "127.0211390",
      "total_count": 46,
      "available_count": 45,
      "total_percent": 97.8,
      "slow_total": 45,
      "slow_avail": 44,
      "slow_percent": 97.8,
      "fast_total": 1,
      "fast_avail": 1,
      "fast_percent": 100.0,
      "latest_update": "20260713164727"
    },
    {
      "station_id": "PIH00270",
      "name": "삼성래미안트리베라아파트",
      "address": "서울특별시 강북구 삼양로27길 19",
      "lat": "37.616809100",
      "lng": "127.02067030",
      "total_count": 44,
      "available_count": 38,
      "total_percent": 86.4,
      "slow_total": 44,
      "slow_avail": 38,
      "slow_percent": 86.4,
      "fast_total": 0,
      "fast_avail": 0,
      "fast_percent": 0.0,
      "latest_update": "20260713174718"
    },
    {
      "station_id": "HM000649",
      "name": "미아뉴타운 두산위브트레지움아파트 1단지",
      "address": "서울특별시 강북구 삼양로27길 95",
      "lat": "37.6186022",
      "lng": "127.01594",
      "total_count": 36,
      "available_count": 31,
      "total_percent": 86.1,
      "slow_total": 36,
      "slow_avail": 31,
      "slow_percent": 86.1,
      "fast_total": 0,
      "fast_avail": 0,
      "fast_percent": 0.0,
      "latest_update": "20260713174609"
    },
    {
      "station_id": "LU101499",
      "name": " 한화포레나미아",
      "address": "서울특별시 강북구 솔샘로53길 21",
      "lat": "37.61989263",
      "lng": "127.02227848",
      "total_count": 34,
      "available_count": 32,
      "total_percent": 94.1,
      "slow_total": 32,
      "slow_avail": 30,
      "slow_percent": 93.8,
      "fast_total": 2,
      "fast_avail": 2,
      "fast_percent": 100.0,
      "latest_update": "20260713152821"
    },
    {
      "station_id": "PL001065",
      "name": "삼각산아이원아파트",
      "address": "서울특별시 강북구 삼양로19길 113",
      "lat": "37.6170556",
      "lng": "127.0177233",
      "total_count": 33,
      "available_count": 30,
      "total_percent": 90.9,
      "slow_total": 33,
      "slow_avail": 30,
      "slow_percent": 90.9,
      "fast_total": 0,
      "fast_avail": 0,
      "fast_percent": 0.0,
      "latest_update": "20260713164230"
    },
    {
      "station_id": "PIH00135",
      "name": "북한산스카이빌딩",
      "address": "서울특별시 강북구 도봉로 308",
      "lat": "37.6356724",
      "lng": "127.0238758",
      "total_count": 28,
      "available_count": 27,
      "total_percent": 96.4,
      "slow_total": 28,
      "slow_avail": 27,
      "slow_percent": 96.4,
      "fast_total": 0,
      "fast_avail": 0,
      "fast_percent": 0.0,
      "latest_update": "20260713171234"
    },
    {
      "station_id": "PL001092",
      "name": "강북수유벽산아파트",
      "address": "서울특별시 강북구 삼각산로 143-1",
      "lat": "37.6426558",
      "lng": "127.019639",
      "total_count": 26,
      "available_count": 21,
      "total_percent": 80.8,
      "slow_total": 26,
      "slow_avail": 21,
      "slow_percent": 80.8,
      "fast_total": 0,
      "fast_avail": 0,
      "fast_percent": 0.0,
      "latest_update": "20260713172214"
    },
    {
      "station_id": "SF002044",
      "name": "수유역두산위브1단지",
      "address": "서울특별시 강북구 덕릉로41길 12",
      "lat": "37.635640968",
      "lng": "127.03207729",
      "total_count": 25,
      "available_count": 25,
      "total_percent": 100.0,
      "slow_total": 25,
      "slow_avail": 25,
      "slow_percent": 100.0,
      "fast_total": 0,
      "fast_avail": 0,
      "fast_percent": 0.0,
      "latest_update": "20260713063611"
    },
    {
      "station_id": "PI708064",
      "name": "래미안트리베라1차",
      "address": "서울특별시 강북구 삼양로19길 25",
      "lat": "37.6156943",
      "lng": "127.021139",
      "total_count": 24,
      "available_count": 22,
      "total_percent": 91.7,
      "slow_total": 24,
      "slow_avail": 22,
      "slow_percent": 91.7,
      "fast_total": 0,
      "fast_avail": 0,
      "fast_percent": 0.0,
      "latest_update": "20260713170514"
    },
    {
      "station_id": "PIH00223",
      "name": "경남아너스빌",
      "address": "서울특별시 강북구 삼양로74길 8",
      "lat": "37.6291409",
      "lng": "127.0183516",
      "total_count": 22,
      "available_count": 22,
      "total_percent": 100.0,
      "slow_total": 22,
      "slow_avail": 22,
      "slow_percent": 100.0,
      "fast_total": 0,
      "fast_avail": 0,
      "fast_percent": 0.0,
      "latest_update": "20260713153728"
    },
    {
      "station_id": "SF002753",
      "name": "꿈의숲한신더휴",
      "address": "서울특별시 강북구 오패산로 202",
      "lat": "37.620599785",
      "lng": "127.03282148",
      "total_count": 22,
      "available_count": 21,
      "total_percent": 95.5,
      "slow_total": 22,
      "slow_avail": 21,
      "slow_percent": 95.5,
      "fast_total": 0,
      "fast_avail": 0,
      "fast_percent": 0.0,
      "latest_update": "20260713142420"
    },
    {
      "station_id": "LU003194",
      "name": "강북경남아너스빌",
      "address": "서울특별시 강북구 오패산로30길 30",
      "lat": "37.616356",
      "lng": "127.035671",
      "total_count": 18,
      "available_count": 16,
      "total_percent": 88.9,
      "slow_total": 18,
      "slow_avail": 16,
      "slow_percent": 88.9,
      "fast_total": 0,
      "fast_avail": 0,
      "fast_percent": 0.0,
      "latest_update": "20260713153400"
    },
    {
      "station_id": "PIH00211",
      "name": "미아래미안1차아파트",
      "address": "서울특별시 강북구 삼양로 256",
      "lat": "37.626150380",
      "lng": "127.01899430",
      "total_count": 17,
      "available_count": 16,
      "total_percent": 94.1,
      "slow_total": 17,
      "slow_avail": 16,
      "slow_percent": 94.1,
      "fast_total": 0,
      "fast_avail": 0,
      "fast_percent": 0.0,
      "latest_update": "20260713153728"
    },
    {
      "station_id": "PK000011",
      "name": "동아운수 수유동1차 차고지",
      "address": "서울특별시 강북구 인수봉로 145",
      "lat": "37.6324548",
      "lng": "127.0126224",
      "total_count": 16,
      "available_count": 16,
      "total_percent": 100.0,
      "slow_total": 0,
      "slow_avail": 0,
      "slow_percent": 0.0,
      "fast_total": 16,
      "fast_avail": 16,
      "fast_percent": 100.0,
      "latest_update": "20260713164035"
    },
    {
      "station_id": "SF002045",
      "name": "수유역두산위브2단지",
      "address": "서울특별시 강북구 덕릉로41길 15",
      "lat": "37.635659565",
      "lng": "127.03092724",
      "total_count": 15,
      "available_count": 15,
      "total_percent": 100.0,
      "slow_total": 15,
      "slow_avail": 15,
      "slow_percent": 100.0,
      "fast_total": 0,
      "fast_avail": 0,
      "fast_percent": 0.0,
      "latest_update": "20260712015927"
    },
    {
      "station_id": "PIH00803",
      "name": "래미안수유아파트",
      "address": "서울특별시 강북구 한천로159길 8",
      "lat": "37.6444548",
      "lng": "127.0186552",
      "total_count": 13,
      "available_count": 13,
      "total_percent": 100.0,
      "slow_total": 13,
      "slow_avail": 13,
      "slow_percent": 100.0,
      "fast_total": 0,
      "fast_avail": 0,
      "fast_percent": 0.0,
      "latest_update": "20260713074710"
    },
    {
      "station_id": "PK000185",
      "name": "동아운수 수유동2차 차고지",
      "address": "서울특별시 강북구 인수봉로38길 13-3",
      "lat": "37.63194",
      "lng": "127.01436",
      "total_count": 12,
      "available_count": 7,
      "total_percent": 58.3,
      "slow_total": 0,
      "slow_avail": 0,
      "slow_percent": 0.0,
      "fast_total": 12,
      "fast_avail": 7,
      "fast_percent": 58.3,
      "latest_update": "20260713172616"
    },
    {
      "station_id": "PL001039",
      "name": "꿈의숲 롯데캐슬",
      "address": "서울특별시 강북구 오현로 56",
      "lat": "37.6184116",
      "lng": "127.0364759",
      "total_count": 12,
      "available_count": 10,
      "total_percent": 83.3,
      "slow_total": 12,
      "slow_avail": 10,
      "slow_percent": 83.3,
      "fast_total": 0,
      "fast_avail": 0,
      "fast_percent": 0.0,
      "latest_update": "20260713174201"
    },
    {
      "station_id": "PL032639",
      "name": "미아 동부센트레빌",
      "address": "서울 강북구 숭인로7가길 37",
      "lat": "37.6138958",
      "lng": "127.0262234",
      "total_count": 11,
      "available_count": 7,
      "total_percent": 63.6,
      "slow_total": 11,
      "slow_avail": 7,
      "slow_percent": 63.6,
      "fast_total": 0,
      "fast_avail": 0,
      "fast_percent": 0.0,
      "latest_update": "20260713092422"
    },
    {
      "station_id": "JA110037",
      "name": "롯데백화점 미아점",
      "address": "서울특별시 강북구 도봉로 62",
      "lat": "37.6149487",
      "lng": "127.0305641",
      "total_count": 10,
      "available_count": 10,
      "total_percent": 100.0,
      "slow_total": 8,
      "slow_avail": 8,
      "slow_percent": 100.0,
      "fast_total": 2,
      "fast_avail": 2,
      "fast_percent": 100.0,
      "latest_update": "20260713134903"
    },
    {
      "station_id": "NT102519",
      "name": "강북 서울번동5단지주공아파트",
      "address": "서울특별시 강북구 한천로115길 20",
      "lat": "37.63368",
      "lng": "127.03453",
      "total_count": 10,
      "available_count": 5,
      "total_percent": 50.0,
      "slow_total": 10,
      "slow_avail": 5,
      "slow_percent": 50.0,
      "fast_total": 0,
      "fast_avail": 0,
      "fast_percent": 0.0,
      "latest_update": "20260713150250"
    },
    {
      "station_id": "PIH01046",
      "name": "대우아파트",
      "address": "서울특별시 강북구 삼양로149길 45",
      "lat": "37.6547611",
      "lng": "127.0112038",
      "total_count": 10,
      "available_count": 10,
      "total_percent": 100.0,
      "slow_total": 10,
      "slow_avail": 10,
      "slow_percent": 100.0,
      "fast_total": 0,
      "fast_avail": 0,
      "fast_percent": 0.0,
      "latest_update": "20260713134729"
    },
    {
      "station_id": "SF002046",
      "name": "효성인텔리안오피스텔수유",
      "address": "서울특별시 강북구 도봉로 313",
      "lat": "37.636440458",
      "lng": "127.02346192",
      "total_count": 10,
      "available_count": 10,
      "total_percent": 100.0,
      "slow_total": 10,
      "slow_avail": 10,
      "slow_percent": 100.0,
      "fast_total": 0,
      "fast_avail": 0,
      "fast_percent": 0.0,
      "latest_update": "20260627121942"
    },
    {
      "station_id": "KE000698",
      "name": "서울강북미아한일유앤아이",
      "address": "서울특별시 강북구 월계로21가길 41",
      "lat": "37.6144506",
      "lng": "127.036828",
      "total_count": 9,
      "available_count": 8,
      "total_percent": 88.9,
      "slow_total": 9,
      "slow_avail": 8,
      "slow_percent": 88.9,
      "fast_total": 0,
      "fast_avail": 0,
      "fast_percent": 0.0,
      "latest_update": "20260713170909"
    },
    {
      "station_id": "LU100482",
      "name": "래미안수유아파트",
      "address": "서울특별시 강북구 한천로159길 8",
      "lat": "37.64439088",
      "lng": "127.0186716",
      "total_count": 9,
      "available_count": 8,
      "total_percent": 88.9,
      "slow_total": 9,
      "slow_avail": 8,
      "slow_percent": 88.9,
      "fast_total": 0,
      "fast_avail": 0,
      "fast_percent": 0.0,
      "latest_update": "20260713172012"
    },
    {
      "station_id": "NT102518",
      "name": "강북 서울번동2단지주공아파트",
      "address": "서울특별시 강북구 한천로105길 24",
      "lat": "37.62760",
      "lng": "127.04480",
      "total_count": 9,
      "available_count": 9,
      "total_percent": 100.0,
      "slow_total": 9,
      "slow_avail": 9,
      "slow_percent": 100.0,
      "fast_total": 0,
      "fast_avail": 0,
      "fast_percent": 0.0,
      "latest_update": "20260713170850"
    },
    {
      "station_id": "NT102529",
      "name": "강북 번동주공3단지",
      "address": "서울특별시 강북구 오현로 208",
      "lat": "37.63013",
      "lng": "127.04141",
      "total_count": 9,
      "available_count": 9,
      "total_percent": 100.0,
      "slow_total": 9,
      "slow_avail": 9,
      "slow_percent": 100.0,
      "fast_total": 0,
      "fast_avail": 0,
      "fast_percent": 0.0,
      "latest_update": "20260713080950"
    },
    {
      "station_id": "PI200969",
      "name": "서울시 강북구 국립재활원",
      "address": "서울특별시 강북구 삼각산로 58",
      "lat": "37.638655704",
      "lng": "127.01026459",
      "total_count": 9,
      "available_count": 8,
      "total_percent": 88.9,
      "slow_total": 9,
      "slow_avail": 8,
      "slow_percent": 88.9,
      "fast_total": 0,
      "fast_avail": 0,
      "fast_percent": 0.0,
      "latest_update": "20260713142626"
    },
    {
      "station_id": "PI747190",
      "name": "BMW차징스테이션 꿈의숲롯데캐슬아파트",
      "address": "서울특별시 강북구 오현로 56",
      "lat": "37.6172828",
      "lng": "127.0363530",
      "total_count": 9,
      "available_count": 9,
      "total_percent": 100.0,
      "slow_total": 9,
      "slow_avail": 9,
      "slow_percent": 100.0,
      "fast_total": 0,
      "fast_avail": 0,
      "fast_percent": 0.0,
      "latest_update": "20260713064233"
    },
    {
      "station_id": "BNBN0058",
      "name": "서울 강북구 장미원시장 공영주차장",
      "address": "서울 강북구 인수봉로78길 24 (수유동, 장미원시장 공영주차장)",
      "lat": "37.6444975",
      "lng": "127.0119167",
      "total_count": 8,
      "available_count": 7,
      "total_percent": 87.5,
      "slow_total": 0,
      "slow_avail": 0,
      "slow_percent": 0.0,
      "fast_total": 8,
      "fast_avail": 7,
      "fast_percent": 87.5,
      "latest_update": "20260713173914"
    },
    {
      "station_id": "EV014970",
      "name": "서울강북 벽산라이브파크아파트 2",
      "address": "서울특별시 강북구 솔샘로 159",
      "lat": "37.6218233",
      "lng": "127.0124075",
      "total_count": 8,
      "available_count": 8,
      "total_percent": 100.0,
      "slow_total": 8,
      "slow_avail": 8,
      "slow_percent": 100.0,
      "fast_total": 0,
      "fast_avail": 0,
      "fast_percent": 0.0,
      "latest_update": "20260713151545"
    },
    {
      "station_id": "EV014971",
      "name": "서울강북 벽산라이브파크아파트 3",
      "address": "서울특별시 강북구 솔샘로 159",
      "lat": "37.6218233",
      "lng": "127.0124075",
      "total_count": 8,
      "available_count": 8,
      "total_percent": 100.0,
      "slow_total": 8,
      "slow_avail": 8,
      "slow_percent": 100.0,
      "fast_total": 0,
      "fast_avail": 0,
      "fast_percent": 0.0,
      "latest_update": "20260713114133"
    },
    {
      "station_id": "EV017743",
      "name": "서울강북 꿈의숲해링턴플레이스11",
      "address": "서울특별시 강북구 오현로 45 (미아동, 꿈의숲 해링턴 플레이스)",
      "lat": "37.6169370",
      "lng": "127.0346104",
      "total_count": 8,
      "available_count": 7,
      "total_percent": 87.5,
      "slow_total": 8,
      "slow_avail": 7,
      "slow_percent": 87.5,
      "fast_total": 0,
      "fast_avail": 0,
      "fast_percent": 0.0,
      "latest_update": "20260711184013"
    },
    {
      "station_id": "HY001368",
      "name": "강북 한솔솔파크",
      "address": "서울특별시 강북구 오현로 180",
      "lat": "37.6270422",
      "lng": "127.0392497",
      "total_count": 8,
      "available_count": 8,
      "total_percent": 100.0,
      "slow_total": 8,
      "slow_avail": 8,
      "slow_percent": 100.0,
      "fast_total": 0,
      "fast_avail": 0,
      "fast_percent": 0.0,
      "latest_update": "20260713174105"
    },
    {
      "station_id": "KL001209",
      "name": "삼각산아이원아파트",
      "address": "서울특별시 강북구 삼양로19길 113",
      "lat": "37.615801",
      "lng": "127.018752",
      "total_count": 8,
      "available_count": 2,
      "total_percent": 25.0,
      "slow_total": 8,
      "slow_avail": 2,
      "slow_percent": 25.0,
      "fast_total": 0,
      "fast_avail": 0,
      "fast_percent": 0.0,
      "latest_update": "20260711004401"
    },
    {
      "station_id": "KP000010",
      "name": "강북성북지사(공용)",
      "address": "서울특별시 강북구 도봉로 242",
      "lat": "37.630583",
      "lng": "127.0248869",
      "total_count": 8,
      "available_count": 6,
      "total_percent": 75.0,
      "slow_total": 2,
      "slow_avail": 2,
      "slow_percent": 100.0,
      "fast_total": 6,
      "fast_avail": 4,
      "fast_percent": 66.7,
      "latest_update": "20260713171023"
    },
    {
      "station_id": "PI766530",
      "name": "미아sk북한산시티아파트B",
      "address": "서울특별시 강북구 솔샘로 174",
      "lat": "37.619927465",
      "lng": "127.01436276",
      "total_count": 8,
      "available_count": 6,
      "total_percent": 75.0,
      "slow_total": 8,
      "slow_avail": 6,
      "slow_percent": 75.0,
      "fast_total": 0,
      "fast_avail": 0,
      "fast_percent": 0.0,
      "latest_update": "20260713152551"
    },
    {
      "station_id": "PK000292",
      "name": "동아우이동2차차고지",
      "address": "서울특별시 강북구 삼양로 648",
      "lat": "37.6609400",
      "lng": "127.0137200",
      "total_count": 8,
      "available_count": 1,
      "total_percent": 12.5,
      "slow_total": 0,
      "slow_avail": 0,
      "slow_percent": 0.0,
      "fast_total": 8,
      "fast_avail": 1,
      "fast_percent": 12.5,
      "latest_update": "20260713164211"
    },
    {
      "station_id": "PK000437",
      "name": "우이동1차차고지",
      "address": "서울특별시 강북구 삼양로 648",
      "lat": "37.6432180",
      "lng": "127.0179140",
      "total_count": 8,
      "available_count": 7,
      "total_percent": 87.5,
      "slow_total": 0,
      "slow_avail": 0,
      "slow_percent": 0.0,
      "fast_total": 8,
      "fast_avail": 7,
      "fast_percent": 87.5,
      "latest_update": "20260713174536"
    },
    {
      "station_id": "EV014969",
      "name": "서울강북 벽산라이브파크아파트 1",
      "address": "서울특별시 강북구 솔샘로 159",
      "lat": "37.6218233",
      "lng": "127.0124075",
      "total_count": 7,
      "available_count": 7,
      "total_percent": 100.0,
      "slow_total": 7,
      "slow_avail": 7,
      "slow_percent": 100.0,
      "fast_total": 0,
      "fast_avail": 0,
      "fast_percent": 0.0,
      "latest_update": "20260711164658"
    },
    {
      "station_id": "EV014972",
      "name": "서울강북 벽산라이브파크아파트 4",
      "address": "서울특별시 강북구 솔샘로 159",
      "lat": "37.6218233",
      "lng": "127.0124075",
      "total_count": 7,
      "available_count": 5,
      "total_percent": 71.4,
      "slow_total": 7,
      "slow_avail": 5,
      "slow_percent": 71.4,
      "fast_total": 0,
      "fast_avail": 0,
      "fast_percent": 0.0,
      "latest_update": "20260713171702"
    },
    {
      "station_id": "KE000675",
      "name": "서울강북벽산라이브파크2차",
      "address": "서울특별시 강북구 솔샘로 159",
      "lat": "37.6215645",
      "lng": "127.0109726",
      "total_count": 7,
      "available_count": 7,
      "total_percent": 100.0,
      "slow_total": 7,
      "slow_avail": 7,
      "slow_percent": 100.0,
      "fast_total": 0,
      "fast_avail": 0,
      "fast_percent": 0.0,
      "latest_update": "20260712230710"
    },
    {
      "station_id": "PI773863",
      "name": "번동1단지주공아파트",
      "address": "서울특별시 강북구 한천로105길 23",
      "lat": "37.6245323",
      "lng": "127.0465984",
      "total_count": 7,
      "available_count": 6,
      "total_percent": 85.7,
      "slow_total": 7,
      "slow_avail": 6,
      "slow_percent": 85.7,
      "fast_total": 0,
      "fast_avail": 0,
      "fast_percent": 0.0,
      "latest_update": "20260713172750"
    },
    {
      "station_id": "PL032736",
      "name": "극동아파트",
      "address": "서울 강북구 인수봉로72길 4",
      "lat": "37.6417907",
      "lng": "127.0123056",
      "total_count": 7,
      "available_count": 5,
      "total_percent": 71.4,
      "slow_total": 7,
      "slow_avail": 5,
      "slow_percent": 71.4,
      "fast_total": 0,
      "fast_avail": 0,
      "fast_percent": 0.0,
      "latest_update": "20260713172558"
    },
    {
      "station_id": "PW801203",
      "name": "오동공원현대홈타운입주자대표회의25(T)",
      "address": "서울특별시 강북구 오현로31길 89",
      "lat": "37.6317188",
      "lng": "127.0355846",
      "total_count": 7,
      "available_count": 6,
      "total_percent": 85.7,
      "slow_total": 7,
      "slow_avail": 6,
      "slow_percent": 85.7,
      "fast_total": 0,
      "fast_avail": 0,
      "fast_percent": 0.0,
      "latest_update": "20260713165328"
    },
    {
      "station_id": "EV003459",
      "name": "서울강북 꿈의숲해링턴플레이스2",
      "address": "서울특별시 강북구 오현로 45",
      "lat": "37.6181324",
      "lng": "127.0349545",
      "total_count": 6,
      "available_count": 6,
      "total_percent": 100.0,
      "slow_total": 6,
      "slow_avail": 6,
      "slow_percent": 100.0,
      "fast_total": 0,
      "fast_avail": 0,
      "fast_percent": 0.0,
      "latest_update": "20260713062020"
    },
    {
      "station_id": "EV017736",
      "name": "서울강북 꿈의숲해링턴플레이스4",
      "address": "서울특별시 강북구 오현로 45 (미아동, 꿈의숲 해링턴 플레이스)",
      "lat": "37.6169370",
      "lng": "127.0346104",
      "total_count": 6,
      "available_count": 6,
      "total_percent": 100.0,
      "slow_total": 6,
      "slow_avail": 6,
      "slow_percent": 100.0,
      "fast_total": 0,
      "fast_avail": 0,
      "fast_percent": 0.0,
      "latest_update": "20260710150913"
    },
    {
      "station_id": "EV017740",
      "name": "서울강북 꿈의숲해링턴플레이스8",
      "address": "서울특별시 강북구 오현로 45 (미아동, 꿈의숲 해링턴 플레이스)",
      "lat": "37.6169370",
      "lng": "127.0346104",
      "total_count": 6,
      "available_count": 6,
      "total_percent": 100.0,
      "slow_total": 6,
      "slow_avail": 6,
      "slow_percent": 100.0,
      "fast_total": 0,
      "fast_avail": 0,
      "fast_percent": 0.0,
      "latest_update": "20260710145906"
    },
    {
      "station_id": "EV017744",
      "name": "서울강북 꿈의숲해링턴플레이스12",
      "address": "서울특별시 강북구 오현로 45 (미아동, 꿈의숲 해링턴 플레이스)",
      "lat": "37.6169370",
      "lng": "127.0346104",
      "total_count": 6,
      "available_count": 5,
      "total_percent": 83.3,
      "slow_total": 6,
      "slow_avail": 5,
      "slow_percent": 83.3,
      "fast_total": 0,
      "fast_avail": 0,
      "fast_percent": 0.0,
      "latest_update": "20260713155611"
    },
    {
      "station_id": "EV017745",
      "name": "서울강북 꿈의숲해링턴플레이스13",
      "address": "서울특별시 강북구 오현로 45 (미아동, 꿈의숲 해링턴 플레이스)",
      "lat": "37.6169370",
      "lng": "127.0346104",
      "total_count": 6,
      "available_count": 6,
      "total_percent": 100.0,
      "slow_total": 6,
      "slow_avail": 6,
      "slow_percent": 100.0,
      "fast_total": 0,
      "fast_avail": 0,
      "fast_percent": 0.0,
      "latest_update": "20260713054157"
    },
    {
      "station_id": "EV017747",
      "name": "서울강북 꿈의숲해링턴플레이스15",
      "address": "서울특별시 강북구 오현로 45 (미아동, 꿈의숲 해링턴 플레이스)",
      "lat": "37.6169370",
      "lng": "127.0346104",
      "total_count": 6,
      "available_count": 6,
      "total_percent": 100.0,
      "slow_total": 6,
      "slow_avail": 6,
      "slow_percent": 100.0,
      "fast_total": 0,
      "fast_avail": 0,
      "fast_percent": 0.0,
      "latest_update": "20260713081301"
    },
    {
      "station_id": "KE000700",
      "name": "서울강북삼각산아이원",
      "address": "서울특별시 강북구 삼양로19길 113",
      "lat": "37.6148364",
      "lng": "127.0203324",
      "total_count": 6,
      "available_count": 6,
      "total_percent": 100.0,
      "slow_total": 6,
      "slow_avail": 6,
      "slow_percent": 100.0,
      "fast_total": 0,
      "fast_avail": 0,
      "fast_percent": 0.0,
      "latest_update": "20260713171410"
    },
    {
      "station_id": "LU000177",
      "name": "서울사이버대학교",
      "address": "서울특별시 강북구 솔매로49길 60",
      "lat": "37.629844",
      "lng": "127.027123",
      "total_count": 6,
      "available_count": 5,
      "total_percent": 83.3,
      "slow_total": 6,
      "slow_avail": 5,
      "slow_percent": 83.3,
      "fast_total": 0,
      "fast_avail": 0,
      "fast_percent": 0.0,
      "latest_update": "20260713173535"
    },
    {
      "station_id": "PI001320",
      "name": "번동솔그린아파트",
      "address": "서울특별시 강북구 한천로109길 83",
      "lat": "37.6265391",
      "lng": "127.039637",
      "total_count": 6,
      "available_count": 5,
      "total_percent": 83.3,
      "slow_total": 6,
      "slow_avail": 5,
      "slow_percent": 83.3,
      "fast_total": 0,
      "fast_avail": 0,
      "fast_percent": 0.0,
      "latest_update": "20260713174919"
    },
    {
      "station_id": "PI122360",
      "name": "SK북한산시티",
      "address": "서울특별시 강북구 솔샘로 174 (미아동, SK북한산시티아파트)",
      "lat": "37.619308274",
      "lng": "127.01224449",
      "total_count": 6,
      "available_count": 5,
      "total_percent": 83.3,
      "slow_total": 6,
      "slow_avail": 5,
      "slow_percent": 83.3,
      "fast_total": 0,
      "fast_avail": 0,
      "fast_percent": 0.0,
      "latest_update": "20260713174624"
    },
    {
      "station_id": "PI202768",
      "name": "케이티미아빌딩",
      "address": "서울특별시 강북구 솔매로50길 43 (미아동, KT강북지사)",
      "lat": "37.6245",
      "lng": "127.028",
      "total_count": 6,
      "available_count": 5,
      "total_percent": 83.3,
      "slow_total": 6,
      "slow_avail": 5,
      "slow_percent": 83.3,
      "fast_total": 0,
      "fast_avail": 0,
      "fast_percent": 0.0,
      "latest_update": "20260713171611"
    },
    {
      "station_id": "PI755108",
      "name": "전진교통",
      "address": "서울특별시 강북구 덕릉로 183",
      "lat": "37.635839",
      "lng": "127.0339908",
      "total_count": 6,
      "available_count": 6,
      "total_percent": 100.0,
      "slow_total": 2,
      "slow_avail": 2,
      "slow_percent": 100.0,
      "fast_total": 4,
      "fast_avail": 4,
      "fast_percent": 100.0,
      "latest_update": "20260713164033"
    },
    {
      "station_id": "PK000013",
      "name": "삼양교통",
      "address": "서울특별시 강북구 삼양로173길 12",
      "lat": "37.6631467",
      "lng": "127.011722",
      "total_count": 6,
      "available_count": 1,
      "total_percent": 16.7,
      "slow_total": 0,
      "slow_avail": 0,
      "slow_percent": 0.0,
      "fast_total": 6,
      "fast_avail": 1,
      "fast_percent": 16.7,
      "latest_update": "20260713174541"
    },
    {
      "station_id": "PL000018",
      "name": "강북수유벽산아파트",
      "address": "서울특별시 강북구 삼각산로 143-1",
      "lat": "37.6426558",
      "lng": "127.0196390",
      "total_count": 6,
      "available_count": 6,
      "total_percent": 100.0,
      "slow_total": 6,
      "slow_avail": 6,
      "slow_percent": 100.0,
      "fast_total": 0,
      "fast_avail": 0,
      "fast_percent": 0.0,
      "latest_update": "20260617221003"
    },
    {
      "station_id": "PL001070",
      "name": "해모로아파트",
      "address": "서울특별시 강북구 오현로 156",
      "lat": "37.6262741",
      "lng": "127.0369032",
      "total_count": 6,
      "available_count": 6,
      "total_percent": 100.0,
      "slow_total": 6,
      "slow_avail": 6,
      "slow_percent": 100.0,
      "fast_total": 0,
      "fast_avail": 0,
      "fast_percent": 0.0,
      "latest_update": "20260713041219"
    },
    {
      "station_id": "EP210250",
      "name": "성신여자대학교 미아운정그린캠퍼스",
      "address": "서울특별시 강북구 도봉로76가길 55",
      "lat": "37.6322043",
      "lng": "127.0273476",
      "total_count": 5,
      "available_count": 0,
      "total_percent": 0.0,
      "slow_total": 5,
      "slow_avail": 0,
      "slow_percent": 0.0,
      "fast_total": 0,
      "fast_avail": 0,
      "fast_percent": 0.0,
      "latest_update": "20260324150039"
    },
    {
      "station_id": "EV003853",
      "name": "서울강북 래미안트리베라2차",
      "address": "서울특별시 강북구 삼양로27길 19",
      "lat": "37.6168114",
      "lng": "127.0204332",
      "total_count": 5,
      "available_count": 3,
      "total_percent": 60.0,
      "slow_total": 5,
      "slow_avail": 3,
      "slow_percent": 60.0,
      "fast_total": 0,
      "fast_avail": 0,
      "fast_percent": 0.0,
      "latest_update": "20260713163437"
    },
    {
      "station_id": "EV005237",
      "name": "서울강북 미아2경남아너스빌",
      "address": "서울특별시 강북구 삼양로74길 8",
      "lat": "37.6291409",
      "lng": "127.0183516",
      "total_count": 5,
      "available_count": 4,
      "total_percent": 80.0,
      "slow_total": 5,
      "slow_avail": 4,
      "slow_percent": 80.0,
      "fast_total": 0,
      "fast_avail": 0,
      "fast_percent": 0.0,
      "latest_update": "20260713171904"
    },
    {
      "station_id": "EV010667",
      "name": "서울강북 꿈의숲 롯데캐슬아파트 1(콘센트)",
      "address": "서울특별시 강북구 오현로 56",
      "lat": "37.617221861",
      "lng": "127.03689103",
      "total_count": 5,
      "available_count": 5,
      "total_percent": 100.0,
      "slow_total": 5,
      "slow_avail": 5,
      "slow_percent": 100.0,
      "fast_total": 0,
      "fast_avail": 0,
      "fast_percent": 0.0,
      "latest_update": "20260710122132"
    },
    {
      "station_id": "EV010668",
      "name": "서울강북 꿈의숲 롯데캐슬아파트 2(콘센트)",
      "address": "서울특별시 강북구 오현로 56",
      "lat": "37.617338947",
      "lng": "127.03702701",
      "total_count": 5,
      "available_count": 5,
      "total_percent": 100.0,
      "slow_total": 5,
      "slow_avail": 5,
      "slow_percent": 100.0,
      "fast_total": 0,
      "fast_avail": 0,
      "fast_percent": 0.0,
      "latest_update": "20260622091341"
    },
    {
      "station_id": "EV010669",
      "name": "서울강북 꿈의숲 롯데캐슬아파트 3(콘센트)",
      "address": "서울특별시 강북구 오현로 56",
      "lat": "37.617654307",
      "lng": "127.03698186",
      "total_count": 5,
      "available_count": 5,
      "total_percent": 100.0,
      "slow_total": 5,
      "slow_avail": 5,
      "slow_percent": 100.0,
      "fast_total": 0,
      "fast_avail": 0,
      "fast_percent": 0.0,
      "latest_update": "20260624043645"
    },
    {
      "station_id": "HE230069",
      "name": "북부수도사업소",
      "address": "서울특별시 강북구 한천로 935",
      "lat": "37.634368",
      "lng": "127.0357694",
      "total_count": 5,
      "available_count": 4,
      "total_percent": 80.0,
      "slow_total": 3,
      "slow_avail": 2,
      "slow_percent": 66.7,
      "fast_total": 2,
      "fast_avail": 2,
      "fast_percent": 100.0,
      "latest_update": "20260713161800"
    },
    {
      "station_id": "JA110013",
      "name": "롯데마트 삼양점",
      "address": "서울특별시 강북구 삼양로 247",
      "lat": "37.6255183",
      "lng": "127.017747",
      "total_count": 5,
      "available_count": 3,
      "total_percent": 60.0,
      "slow_total": 3,
      "slow_avail": 1,
      "slow_percent": 33.3,
      "fast_total": 2,
      "fast_avail": 2,
      "fast_percent": 100.0,
      "latest_update": "20260713174901"
    },
    {
      "station_id": "KL001971",
      "name": "번동솔그린아파트",
      "address": "서울특별시 강북구 한천로109길 83",
      "lat": "37.6262806",
      "lng": "127.0396423",
      "total_count": 5,
      "available_count": 5,
      "total_percent": 100.0,
      "slow_total": 5,
      "slow_avail": 5,
      "slow_percent": 100.0,
      "fast_total": 0,
      "fast_avail": 0,
      "fast_percent": 0.0,
      "latest_update": "20260713030702"
    },
    {
      "station_id": "KL002186",
      "name": "번동금호어울림아파트",
      "address": "서울특별시 강북구 오현로31길 85-7",
      "lat": "37.6308424",
      "lng": "127.0353474",
      "total_count": 5,
      "available_count": 3,
      "total_percent": 60.0,
      "slow_total": 5,
      "slow_avail": 3,
      "slow_percent": 60.0,
      "fast_total": 0,
      "fast_avail": 0,
      "fast_percent": 0.0,
      "latest_update": "20260713173002"
    },
    {
      "station_id": "NT102873",
      "name": "강북 래미안미아1차",
      "address": "서울특별시 강북구 삼양로 256",
      "lat": "37.62628",
      "lng": "127.01889",
      "total_count": 5,
      "available_count": 5,
      "total_percent": 100.0,
      "slow_total": 5,
      "slow_avail": 5,
      "slow_percent": 100.0,
      "fast_total": 0,
      "fast_avail": 0,
      "fast_percent": 0.0,
      "latest_update": "20260713105850"
    },
    {
      "station_id": "PI708613",
      "name": "수유역 두산위브아파트1단지",
      "address": "서울특별시 강북구 덕릉로41길 12",
      "lat": "37.635630344",
      "lng": "127.03238250",
      "total_count": 5,
      "available_count": 5,
      "total_percent": 100.0,
      "slow_total": 5,
      "slow_avail": 5,
      "slow_percent": 100.0,
      "fast_total": 0,
      "fast_avail": 0,
      "fast_percent": 0.0,
      "latest_update": "20260711093514"
    },
    {
      "station_id": "PI722863",
      "name": "송천센트레빌아파트",
      "address": "서울특별시 강북구 숭인로 39",
      "lat": "37.6127541",
      "lng": "127.0258142",
      "total_count": 5,
      "available_count": 5,
      "total_percent": 100.0,
      "slow_total": 5,
      "slow_avail": 5,
      "slow_percent": 100.0,
      "fast_total": 0,
      "fast_avail": 0,
      "fast_percent": 0.0,
      "latest_update": "20260713172203"
    },
    {
      "station_id": "PL031839",
      "name": "서울 기산그린아파트",
      "address": "서울 강북구 월계로37길 137",
      "lat": "37.6271709",
      "lng": "127.0434356",
      "total_count": 5,
      "available_count": 4,
      "total_percent": 80.0,
      "slow_total": 5,
      "slow_avail": 4,
      "slow_percent": 80.0,
      "fast_total": 0,
      "fast_avail": 0,
      "fast_percent": 0.0,
      "latest_update": "20260713165734"
    },
    {
      "station_id": "PL032867",
      "name": "번동주공4단지아파트",
      "address": "서울 강북구 오현로 207",
      "lat": "37.6308936",
      "lng": "127.0386803",
      "total_count": 5,
      "available_count": 5,
      "total_percent": 100.0,
      "slow_total": 5,
      "slow_avail": 5,
      "slow_percent": 100.0,
      "fast_total": 0,
      "fast_avail": 0,
      "fast_percent": 0.0,
      "latest_update": "20260713112048"
    },
    {
      "station_id": "PW012524",
      "name": "오동공원현대홈타운 입주자대표회의",
      "address": "서울특별시 강북구 오현로31길 89",
      "lat": "37.631718783",
      "lng": "127.03558461",
      "total_count": 5,
      "available_count": 5,
      "total_percent": 100.0,
      "slow_total": 5,
      "slow_avail": 5,
      "slow_percent": 100.0,
      "fast_total": 0,
      "fast_avail": 0,
      "fast_percent": 0.0,
      "latest_update": "20260710090410"
    },
    {
      "station_id": "PW013396",
      "name": "벽산라이브파크아파트입주자대표회의22",
      "address": "서울특별시 강북구 솔샘로 159",
      "lat": "37.6218233",
      "lng": "127.0124075",
      "total_count": 5,
      "available_count": 5,
      "total_percent": 100.0,
      "slow_total": 5,
      "slow_avail": 5,
      "slow_percent": 100.0,
      "fast_total": 0,
      "fast_avail": 0,
      "fast_percent": 0.0,
      "latest_update": "20260713141125"
    },
    {
      "station_id": "ME21B404",
      "name": "우이동교통광장",
      "address": "서울특별시 강북구 우이동 산101-5",
      "lat": "37.6634506",
      "lng": "127.0129069",
      "total_count": 4,
      "available_count": 3,
      "total_percent": 75.0,
      "slow_total": 0,
      "slow_avail": 0,
      "slow_percent": 0.0,
      "fast_total": 4,
      "fast_avail": 3,
      "fast_percent": 75.0,
      "latest_update": "20260713174802"
    },
    {
      "station_id": "CG000041",
      "name": "강북 송천센트레빌아파트",
      "address": "서울특별시 강북구 숭인로 39",
      "lat": "37.612740957",
      "lng": "127.02696519",
      "total_count": 4,
      "available_count": 3,
      "total_percent": 75.0,
      "slow_total": 4,
      "slow_avail": 3,
      "slow_percent": 75.0,
      "fast_total": 0,
      "fast_avail": 0,
      "fast_percent": 0.0,
      "latest_update": "20260713154512"
    },
    {
      "station_id": "CV001243",
      "name": "수송초등학교",
      "address": "서울특별시 강북구 한천로124길 14",
      "lat": "37.637356",
      "lng": "127.0331848",
      "total_count": 4,
      "available_count": 3,
      "total_percent": 75.0,
      "slow_total": 0,
      "slow_avail": 0,
      "slow_percent": 0.0,
      "fast_total": 4,
      "fast_avail": 3,
      "fast_percent": 75.0,
      "latest_update": "20260713172022"
    },
    {
      "station_id": "EV003054",
      "name": "서울강북 번동삼성아파트",
      "address": "서울특별시 강북구 도봉로98길 33",
      "lat": "37.641299579173",
      "lng": "127.0315028962",
      "total_count": 4,
      "available_count": 3,
      "total_percent": 75.0,
      "slow_total": 4,
      "slow_avail": 3,
      "slow_percent": 75.0,
      "fast_total": 0,
      "fast_avail": 0,
      "fast_percent": 0.0,
      "latest_update": "20260713164643"
    },
    {
      "station_id": "EV003429",
      "name": "서울강북 꿈의숲해링턴플레이스1",
      "address": "서울특별시 강북구 오현로 45",
      "lat": "37.617164",
      "lng": "127.034569",
      "total_count": 4,
      "available_count": 4,
      "total_percent": 100.0,
      "slow_total": 4,
      "slow_avail": 4,
      "slow_percent": 100.0,
      "fast_total": 0,
      "fast_avail": 0,
      "fast_percent": 0.0,
      "latest_update": "20260713072657"
    },
    {
      "station_id": "EV005908",
      "name": "서울성북 성북프라자아파트",
      "address": "서울특별시 강북구 도봉로33길 18",
      "lat": "37.6215641",
      "lng": "127.0265024",
      "total_count": 4,
      "available_count": 4,
      "total_percent": 100.0,
      "slow_total": 4,
      "slow_avail": 4,
      "slow_percent": 100.0,
      "fast_total": 0,
      "fast_avail": 0,
      "fast_percent": 0.0,
      "latest_update": "20260713090801"
    },
    {
      "station_id": "EV008509",
      "name": "서울강북 꿈의숲롯데캐슬2",
      "address": "서울특별시 강북구 오현로 56",
      "lat": "37.618055294",
      "lng": "127.03682915",
      "total_count": 4,
      "available_count": 4,
      "total_percent": 100.0,
      "slow_total": 4,
      "slow_avail": 4,
      "slow_percent": 100.0,
      "fast_total": 0,
      "fast_avail": 0,
      "fast_percent": 0.0,
      "latest_update": "20260711060825"
    },
    {
      "station_id": "EV010670",
      "name": "서울강북 꿈의숲 롯데캐슬아파트 4(콘센트)",
      "address": "서울특별시 강북구 오현로 56",
      "lat": "37.616726409",
      "lng": "127.03659629",
      "total_count": 4,
      "available_count": 4,
      "total_percent": 100.0,
      "slow_total": 4,
      "slow_avail": 4,
      "slow_percent": 100.0,
      "fast_total": 0,
      "fast_avail": 0,
      "fast_percent": 0.0,
      "latest_update": "20260712150245"
    },
    {
      "station_id": "EV010671",
      "name": "서울강북 꿈의숲 롯데캐슬아파트 5(콘센트)",
      "address": "서울특별시 강북구 오현로 56",
      "lat": "37.617533018",
      "lng": "127.03586612",
      "total_count": 4,
      "available_count": 3,
      "total_percent": 75.0,
      "slow_total": 4,
      "slow_avail": 3,
      "slow_percent": 75.0,
      "fast_total": 0,
      "fast_avail": 0,
      "fast_percent": 0.0,
      "latest_update": "20260713114939"
    },
    {
      "station_id": "EV010672",
      "name": "서울강북 꿈의숲 롯데캐슬아파트 6(콘센트)",
      "address": "서울특별시 강북구 오현로 56",
      "lat": "37.616708407",
      "lng": "127.03653965",
      "total_count": 4,
      "available_count": 4,
      "total_percent": 100.0,
      "slow_total": 4,
      "slow_avail": 4,
      "slow_percent": 100.0,
      "fast_total": 0,
      "fast_avail": 0,
      "fast_percent": 0.0,
      "latest_update": "20260622093754"
    },
    {
      "station_id": "EV010675",
      "name": "서울강북 북서울꿈의숲 동문 및 서문주차장(콘센트)",
      "address": "서울특별시 강북구 월계로 173",
      "lat": "37.6202545",
      "lng": "127.0443247",
      "total_count": 4,
      "available_count": 3,
      "total_percent": 75.0,
      "slow_total": 4,
      "slow_avail": 3,
      "slow_percent": 75.0,
      "fast_total": 0,
      "fast_avail": 0,
      "fast_percent": 0.0,
      "latest_update": "20260713142917"
    },
    {
      "station_id": "EV015002",
      "name": "서울강북 트레지오쇼핑몰",
      "address": "서울특별시 강북구 도봉로 34",
      "lat": "37.6120685",
      "lng": "127.0307216",
      "total_count": 4,
      "available_count": 4,
      "total_percent": 100.0,
      "slow_total": 4,
      "slow_avail": 4,
      "slow_percent": 100.0,
      "fast_total": 0,
      "fast_avail": 0,
      "fast_percent": 0.0,
      "latest_update": "20260713105305"
    },
    {
      "station_id": "HE240022",
      "name": "서울강북경찰서",
      "address": "서울특별시 강북구 오패산로 406",
      "lat": "37.637170211",
      "lng": "127.0270415",
      "total_count": 4,
      "available_count": 4,
      "total_percent": 100.0,
      "slow_total": 2,
      "slow_avail": 2,
      "slow_percent": 100.0,
      "fast_total": 2,
      "fast_avail": 2,
      "fast_percent": 100.0,
      "latest_update": "20260713174600"
    },
    {
      "station_id": "HY001693",
      "name": "강북 신일해피트리",
      "address": "서울특별시 강북구 오패산로60길 22",
      "lat": "37.6259161",
      "lng": "127.0311133",
      "total_count": 4,
      "available_count": 4,
      "total_percent": 100.0,
      "slow_total": 4,
      "slow_avail": 4,
      "slow_percent": 100.0,
      "fast_total": 0,
      "fast_avail": 0,
      "fast_percent": 0.0,
      "latest_update": "20260713100503"
    },
    {
      "station_id": "JA110153",
      "name": "서울 강북구 미아현대아파트",
      "address": "서울특별시 강북구 도봉로68길 26",
      "lat": "37.6309379",
      "lng": "127.0252603",
      "total_count": 4,
      "available_count": 4,
      "total_percent": 100.0,
      "slow_total": 4,
      "slow_avail": 4,
      "slow_percent": 100.0,
      "fast_total": 0,
      "fast_avail": 0,
      "fast_percent": 0.0,
      "latest_update": "20260713142013"
    },
    {
      "station_id": "KE000671",
      "name": "가든타워오피스텔",
      "address": "서울특별시 강북구 도봉로 328",
      "lat": "37.6371282",
      "lng": "127.0252103",
      "total_count": 4,
      "available_count": 4,
      "total_percent": 100.0,
      "slow_total": 4,
      "slow_avail": 4,
      "slow_percent": 100.0,
      "fast_total": 0,
      "fast_avail": 0,
      "fast_percent": 0.0,
      "latest_update": "20260713165809"
    },
    {
      "station_id": "PI200774",
      "name": "서울시 강북구 번동동문아파트",
      "address": "서울특별시 강북구 오현로 128",
      "lat": "37.624104611",
      "lng": "127.03797714",
      "total_count": 4,
      "available_count": 4,
      "total_percent": 100.0,
      "slow_total": 4,
      "slow_avail": 4,
      "slow_percent": 100.0,
      "fast_total": 0,
      "fast_avail": 0,
      "fast_percent": 0.0,
      "latest_update": "20260713163115"
    },
    {
      "station_id": "PI761587",
      "name": "번동한양아파트",
      "address": "서울특별시 강북구 한천로109길 69",
      "lat": "37.6268108",
      "lng": "127.0414226",
      "total_count": 4,
      "available_count": 4,
      "total_percent": 100.0,
      "slow_total": 4,
      "slow_avail": 4,
      "slow_percent": 100.0,
      "fast_total": 0,
      "fast_avail": 0,
      "fast_percent": 0.0,
      "latest_update": "20260713124522"
    },
    {
      "station_id": "PI801041",
      "name": "번동한진아파트",
      "address": "서울특별시 강북구 월계로37길 61",
      "lat": "37.6248092",
      "lng": "127.0449183",
      "total_count": 4,
      "available_count": 4,
      "total_percent": 100.0,
      "slow_total": 4,
      "slow_avail": 4,
      "slow_percent": 100.0,
      "fast_total": 0,
      "fast_avail": 0,
      "fast_percent": 0.0,
      "latest_update": "20260713085249"
    },
    {
      "station_id": "PMP00515",
      "name": "복지운수",
      "address": "서울특별시 강북구 한천로109길 57-50",
      "lat": "37.6275010",
      "lng": "127.0422680",
      "total_count": 4,
      "available_count": 4,
      "total_percent": 100.0,
      "slow_total": 0,
      "slow_avail": 0,
      "slow_percent": 0.0,
      "fast_total": 4,
      "fast_avail": 4,
      "fast_percent": 100.0,
      "latest_update": "20260712215159"
    },
    {
      "station_id": "PW014328",
      "name": "효성네오인텔리안빌딩운영위원회",
      "address": "서울특별시 강북구 도봉로 352",
      "lat": "37.638674768",
      "lng": "127.02703302",
      "total_count": 4,
      "available_count": 3,
      "total_percent": 75.0,
      "slow_total": 4,
      "slow_avail": 3,
      "slow_percent": 75.0,
      "fast_total": 0,
      "fast_avail": 0,
      "fast_percent": 0.0,
      "latest_update": "20260713172310"
    },
    {
      "station_id": "PW014562",
      "name": "수유역푸르지오시티관리단",
      "address": "서울특별시 강북구 도봉로 290",
      "lat": "37.634203429",
      "lng": "127.02377379",
      "total_count": 4,
      "available_count": 4,
      "total_percent": 100.0,
      "slow_total": 4,
      "slow_avail": 4,
      "slow_percent": 100.0,
      "fast_total": 0,
      "fast_avail": 0,
      "fast_percent": 0.0,
      "latest_update": "20260713071609"
    },
    {
      "station_id": "ST113001",
      "name": "서울 한일택시(개방 사용가능시간 확인필)",
      "address": "서울특별시 강북구 삼양로 363",
      "lat": "37.6359319",
      "lng": "127.017187",
      "total_count": 4,
      "available_count": 3,
      "total_percent": 75.0,
      "slow_total": 0,
      "slow_avail": 0,
      "slow_percent": 0.0,
      "fast_total": 4,
      "fast_avail": 3,
      "fast_percent": 75.0,
      "latest_update": "20260713173237"
    },
    {
      "station_id": "SZBA0005",
      "name": "(22년) 수유운수(버스전용)",
      "address": "서울특별시 강북구 인수봉로23길 51",
      "lat": "37.6273713",
      "lng": "127.0101222",
      "total_count": 4,
      "available_count": 3,
      "total_percent": 75.0,
      "slow_total": 0,
      "slow_avail": 0,
      "slow_percent": 0.0,
      "fast_total": 4,
      "fast_avail": 3,
      "fast_percent": 75.0,
      "latest_update": "20260713174947"
    },
    {
      "station_id": "SZBA0051",
      "name": "(23년) 드림운수",
      "address": "서울특별시 강북구 월계로37길 33",
      "lat": "37.6237613",
      "lng": "127.045657",
      "total_count": 4,
      "available_count": 4,
      "total_percent": 100.0,
      "slow_total": 0,
      "slow_avail": 0,
      "slow_percent": 0.0,
      "fast_total": 4,
      "fast_avail": 4,
      "fast_percent": 100.0,
      "latest_update": "20260713143213"
    },
    {
      "station_id": "SZBA0065",
      "name": "(23년) 인헌운수",
      "address": "서울특별시 강북구 번동 118-13",
      "lat": "37.6235329",
      "lng": "127.0457759",
      "total_count": 4,
      "available_count": 4,
      "total_percent": 100.0,
      "slow_total": 0,
      "slow_avail": 0,
      "slow_percent": 0.0,
      "fast_total": 4,
      "fast_avail": 4,
      "fast_percent": 100.0,
      "latest_update": "20260713134558"
    },
    {
      "station_id": "AMAM0014",
      "name": "수유경남아너스빌",
      "address": "서울특별시 강북구 노해로8길 22",
      "lat": "37.638176",
      "lng": "127.024170",
      "total_count": 3,
      "available_count": 3,
      "total_percent": 100.0,
      "slow_total": 3,
      "slow_avail": 3,
      "slow_percent": 100.0,
      "fast_total": 0,
      "fast_avail": 0,
      "fast_percent": 0.0,
      "latest_update": "20260712055443"
    },
    {
      "station_id": "EP210357",
      "name": "통일교육원",
      "address": "서울특별시 강북구 4.19로 123",
      "lat": "37.6421443",
      "lng": "127.0026585",
      "total_count": 3,
      "available_count": 0,
      "total_percent": 0.0,
      "slow_total": 3,
      "slow_avail": 0,
      "slow_percent": 0.0,
      "fast_total": 0,
      "fast_avail": 0,
      "fast_percent": 0.0,
      "latest_update": "20260324150039"
    },
    {
      "station_id": "EV002670",
      "name": "서울강북 래미안트리베라115동",
      "address": "서울특별시 강북구 삼양로19길 25",
      "lat": "37.6135227",
      "lng": "127.0210439",
      "total_count": 3,
      "available_count": 3,
      "total_percent": 100.0,
      "slow_total": 3,
      "slow_avail": 3,
      "slow_percent": 100.0,
      "fast_total": 0,
      "fast_avail": 0,
      "fast_percent": 0.0,
      "latest_update": "20260713035053"
    },
    {
      "station_id": "EV002671",
      "name": "서울강북 래미안트리베라121동",
      "address": "서울특별시 강북구 삼양로19길 25",
      "lat": "37.6148202",
      "lng": "127.0202911",
      "total_count": 3,
      "available_count": 3,
      "total_percent": 100.0,
      "slow_total": 3,
      "slow_avail": 3,
      "slow_percent": 100.0,
      "fast_total": 0,
      "fast_avail": 0,
      "fast_percent": 0.0,
      "latest_update": "20260713012124"
    },
    {
      "station_id": "EV006774",
      "name": "서울강북 해모로아파트",
      "address": "서울특별시 강북구 오현로 156",
      "lat": "37.6262741",
      "lng": "127.0369032",
      "total_count": 3,
      "available_count": 2,
      "total_percent": 66.7,
      "slow_total": 3,
      "slow_avail": 2,
      "slow_percent": 66.7,
      "fast_total": 0,
      "fast_avail": 0,
      "fast_percent": 0.0,
      "latest_update": "20260713154403"
    },
    {
      "station_id": "EV010673",
      "name": "서울강북 꿈의숲 롯데캐슬아파트 7(콘센트)",
      "address": "서울특별시 강북구 오현로 56",
      "lat": "37.617501419",
      "lng": "127.03607564",
      "total_count": 3,
      "available_count": 3,
      "total_percent": 100.0,
      "slow_total": 3,
      "slow_avail": 3,
      "slow_percent": 100.0,
      "fast_total": 0,
      "fast_avail": 0,
      "fast_percent": 0.0,
      "latest_update": "20260622094359"
    },
    {
      "station_id": "EV011864",
      "name": "서울강북 번동신원아파트 2",
      "address": "서울특별시 강북구 월계로37길 87-9",
      "lat": "37.6259063",
      "lng": "127.0437416",
      "total_count": 3,
      "available_count": 1,
      "total_percent": 33.3,
      "slow_total": 3,
      "slow_avail": 1,
      "slow_percent": 33.3,
      "fast_total": 0,
      "fast_avail": 0,
      "fast_percent": 0.0,
      "latest_update": "20260713173517"
    },
    {
      "station_id": "EV017735",
      "name": "서울강북 꿈의숲해링턴플레이스3",
      "address": "서울특별시 강북구 오현로 45 (미아동, 꿈의숲 해링턴 플레이스)",
      "lat": "37.6169370",
      "lng": "127.0346104",
      "total_count": 3,
      "available_count": 2,
      "total_percent": 66.7,
      "slow_total": 3,
      "slow_avail": 2,
      "slow_percent": 66.7,
      "fast_total": 0,
      "fast_avail": 0,
      "fast_percent": 0.0,
      "latest_update": "20260713174323"
    },
    {
      "station_id": "EV017737",
      "name": "서울강북 꿈의숲해링턴플레이스5",
      "address": "서울특별시 강북구 오현로 45 (미아동, 꿈의숲 해링턴 플레이스)",
      "lat": "37.6169370",
      "lng": "127.0346104",
      "total_count": 3,
      "available_count": 3,
      "total_percent": 100.0,
      "slow_total": 3,
      "slow_avail": 3,
      "slow_percent": 100.0,
      "fast_total": 0,
      "fast_avail": 0,
      "fast_percent": 0.0,
      "latest_update": "20260711205344"
    },
    {
      "station_id": "EV017738",
      "name": "서울강북 꿈의숲해링턴플레이스6",
      "address": "서울특별시 강북구 오현로 45 (미아동, 꿈의숲 해링턴 플레이스)",
      "lat": "37.6169370",
      "lng": "127.0346104",
      "total_count": 3,
      "available_count": 3,
      "total_percent": 100.0,
      "slow_total": 3,
      "slow_avail": 3,
      "slow_percent": 100.0,
      "fast_total": 0,
      "fast_avail": 0,
      "fast_percent": 0.0,
      "latest_update": "20260710145705"
    },
    {
      "station_id": "EV017739",
      "name": "서울강북 꿈의숲해링턴플레이스7",
      "address": "서울특별시 강북구 오현로 45 (미아동, 꿈의숲 해링턴 플레이스)",
      "lat": "37.6169370",
      "lng": "127.0346104",
      "total_count": 3,
      "available_count": 3,
      "total_percent": 100.0,
      "slow_total": 3,
      "slow_avail": 3,
      "slow_percent": 100.0,
      "fast_total": 0,
      "fast_avail": 0,
      "fast_percent": 0.0,
      "latest_update": "20260713012124"
    },
    {
      "station_id": "EV017741",
      "name": "서울강북 꿈의숲해링턴플레이스9",
      "address": "서울특별시 강북구 오현로 45 (미아동, 꿈의숲 해링턴 플레이스)",
      "lat": "37.6169370",
      "lng": "127.0346104",
      "total_count": 3,
      "available_count": 3,
      "total_percent": 100.0,
      "slow_total": 3,
      "slow_avail": 3,
      "slow_percent": 100.0,
      "fast_total": 0,
      "fast_avail": 0,
      "fast_percent": 0.0,
      "latest_update": "20260713102851"
    },
    {
      "station_id": "EV017742",
      "name": "서울강북 꿈의숲해링턴플레이스10",
      "address": "서울특별시 강북구 오현로 45 (미아동, 꿈의숲 해링턴 플레이스)",
      "lat": "37.6169370",
      "lng": "127.0346104",
      "total_count": 3,
      "available_count": 3,
      "total_percent": 100.0,
      "slow_total": 3,
      "slow_avail": 3,
      "slow_percent": 100.0,
      "fast_total": 0,
      "fast_avail": 0,
      "fast_percent": 0.0,
      "latest_update": "20260713001850"
    },
    {
      "station_id": "EV017746",
      "name": "서울강북 꿈의숲해링턴플레이스14",
      "address": "서울특별시 강북구 오현로 45 (미아동, 꿈의숲 해링턴 플레이스)",
      "lat": "37.6169370",
      "lng": "127.0346104",
      "total_count": 3,
      "available_count": 3,
      "total_percent": 100.0,
      "slow_total": 3,
      "slow_avail": 3,
      "slow_percent": 100.0,
      "fast_total": 0,
      "fast_avail": 0,
      "fast_percent": 0.0,
      "latest_update": "20260713094022"
    },
    {
      "station_id": "HY001051",
      "name": "강북 수유삼성래미안",
      "address": "서울특별시 강북구 한천로159길 8",
      "lat": "37.6442916",
      "lng": "127.0195626",
      "total_count": 3,
      "available_count": 3,
      "total_percent": 100.0,
      "slow_total": 3,
      "slow_avail": 3,
      "slow_percent": 100.0,
      "fast_total": 0,
      "fast_avail": 0,
      "fast_percent": 0.0,
      "latest_update": "20260713064805"
    },
    {
      "station_id": "KE000125",
      "name": "서울강북래미안트리베라217동",
      "address": "서울특별시 강북구 삼양로27길 19",
      "lat": "37.6175119",
      "lng": "127.0208266",
      "total_count": 3,
      "available_count": 3,
      "total_percent": 100.0,
      "slow_total": 3,
      "slow_avail": 3,
      "slow_percent": 100.0,
      "fast_total": 0,
      "fast_avail": 0,
      "fast_percent": 0.0,
      "latest_update": "20260713072210"
    },
    {
      "station_id": "KE000171",
      "name": "서울강북한솔솔파크103동",
      "address": "서울특별시 강북구 오현로 180",
      "lat": "37.6273652",
      "lng": "127.0391705",
      "total_count": 3,
      "available_count": 3,
      "total_percent": 100.0,
      "slow_total": 3,
      "slow_avail": 3,
      "slow_percent": 100.0,
      "fast_total": 0,
      "fast_avail": 0,
      "fast_percent": 0.0,
      "latest_update": "20260713130810"
    },
    {
      "station_id": "KL002089",
      "name": "현대성우아파트",
      "address": "서울특별시 강북구 삼양로24길 19",
      "lat": "37.6172672",
      "lng": "127.0223046",
      "total_count": 3,
      "available_count": 3,
      "total_percent": 100.0,
      "slow_total": 3,
      "slow_avail": 3,
      "slow_percent": 100.0,
      "fast_total": 0,
      "fast_avail": 0,
      "fast_percent": 0.0,
      "latest_update": "20260713024002"
    },
    {
      "station_id": "KL200156",
      "name": "서울시보조금_SK북한산시티",
      "address": "서울특별시 강북구 솔샘로 174",
      "lat": "37.6176384",
      "lng": "127.0105997",
      "total_count": 3,
      "available_count": 3,
      "total_percent": 100.0,
      "slow_total": 3,
      "slow_avail": 3,
      "slow_percent": 100.0,
      "fast_total": 0,
      "fast_avail": 0,
      "fast_percent": 0.0,
      "latest_update": "20260713142312"
    },
    {
      "station_id": "KL200305",
      "name": "현대성우아파트입주자대표회의",
      "address": "서울특별시 강북구 삼양로24길 19",
      "lat": "37.6174497",
      "lng": "127.0219965",
      "total_count": 3,
      "available_count": 3,
      "total_percent": 100.0,
      "slow_total": 3,
      "slow_avail": 3,
      "slow_percent": 100.0,
      "fast_total": 0,
      "fast_avail": 0,
      "fast_percent": 0.0,
      "latest_update": "20260712173227"
    },
    {
      "station_id": "KP000834",
      "name": "미아동부센트레빌",
      "address": "서울특별시 강북구 미아동 숭인로7가길 37",
      "lat": "37.6138964632",
      "lng": "127.0262223901",
      "total_count": 3,
      "available_count": 0,
      "total_percent": 0.0,
      "slow_total": 2,
      "slow_avail": 0,
      "slow_percent": 0.0,
      "fast_total": 1,
      "fast_avail": 0,
      "fast_percent": 0.0,
      "latest_update": "20260324153346"
    },
    {
      "station_id": "LU001772",
      "name": "칸타빌수유팰리스",
      "address": "서울특별시 강북구 한천로148길 12-13",
      "lat": "37.642179",
      "lng": "127.025494",
      "total_count": 3,
      "available_count": 1,
      "total_percent": 33.3,
      "slow_total": 3,
      "slow_avail": 1,
      "slow_percent": 33.3,
      "fast_total": 0,
      "fast_avail": 0,
      "fast_percent": 0.0,
      "latest_update": "20260713160012"
    },
    {
      "station_id": "LU002805",
      "name": "번동주공4단지아파트",
      "address": "서울특별시 강북구 오현로 207",
      "lat": "37.630894",
      "lng": "127.038680",
      "total_count": 3,
      "available_count": 2,
      "total_percent": 66.7,
      "slow_total": 3,
      "slow_avail": 2,
      "slow_percent": 66.7,
      "fast_total": 0,
      "fast_avail": 0,
      "fast_percent": 0.0,
      "latest_update": "20260713173952"
    },
    {
      "station_id": "PA110006",
      "name": "영훈국제중학교",
      "address": "서울특별시 강북구 도봉로13가길 19",
      "lat": "37.614681874",
      "lng": "127.02809331",
      "total_count": 3,
      "available_count": 3,
      "total_percent": 100.0,
      "slow_total": 3,
      "slow_avail": 3,
      "slow_percent": 100.0,
      "fast_total": 0,
      "fast_avail": 0,
      "fast_percent": 0.0,
      "latest_update": "20260713095639"
    },
    {
      "station_id": "PI708618",
      "name": "수유역 두산위브아파트2단지",
      "address": "서울특별시 강북구 덕릉로41길 12",
      "lat": "37.635734323",
      "lng": "127.03102017",
      "total_count": 3,
      "available_count": 3,
      "total_percent": 100.0,
      "slow_total": 3,
      "slow_avail": 3,
      "slow_percent": 100.0,
      "fast_total": 0,
      "fast_avail": 0,
      "fast_percent": 0.0,
      "latest_update": "20260704055513"
    },
    {
      "station_id": "PI710783",
      "name": "현대성우아파트",
      "address": "서울특별시 강북구 삼양로24길 19",
      "lat": "37.6174497",
      "lng": "127.0219965",
      "total_count": 3,
      "available_count": 3,
      "total_percent": 100.0,
      "slow_total": 3,
      "slow_avail": 3,
      "slow_percent": 100.0,
      "fast_total": 0,
      "fast_avail": 0,
      "fast_percent": 0.0,
      "latest_update": "20260712232519"
    },
    {
      "station_id": "PIH00119",
      "name": "미아신구아파트",
      "address": "서울특별시 강북구 오패산로60길 17-7",
      "lat": "37.626806200",
      "lng": "127.03043490",
      "total_count": 3,
      "available_count": 2,
      "total_percent": 66.7,
      "slow_total": 3,
      "slow_avail": 2,
      "slow_percent": 66.7,
      "fast_total": 0,
      "fast_avail": 0,
      "fast_percent": 0.0,
      "latest_update": "20260713094228"
    },
    {
      "station_id": "PIH00450",
      "name": "경남아너스빌아파트",
      "address": "서울특별시 강북구 오패산로30길 30",
      "lat": "37.6163556",
      "lng": "127.0356712",
      "total_count": 3,
      "available_count": 3,
      "total_percent": 100.0,
      "slow_total": 3,
      "slow_avail": 3,
      "slow_percent": 100.0,
      "fast_total": 0,
      "fast_avail": 0,
      "fast_percent": 0.0,
      "latest_update": "20260713085214"
    },
    {
      "station_id": "PL001064",
      "name": "경남아너스빌",
      "address": "서울 강북구 오패산로30길 30",
      "lat": "37.6163556",
      "lng": "127.0356712",
      "total_count": 3,
      "available_count": 3,
      "total_percent": 100.0,
      "slow_total": 3,
      "slow_avail": 3,
      "slow_percent": 100.0,
      "fast_total": 0,
      "fast_avail": 0,
      "fast_percent": 0.0,
      "latest_update": "20260712170615"
    },
    {
      "station_id": "PL033768",
      "name": "성원아파트",
      "address": "서울 강북구 삼양로 658",
      "lat": "37.6621060",
      "lng": "127.0138758",
      "total_count": 3,
      "available_count": 3,
      "total_percent": 100.0,
      "slow_total": 3,
      "slow_avail": 3,
      "slow_percent": 100.0,
      "fast_total": 0,
      "fast_avail": 0,
      "fast_percent": 0.0,
      "latest_update": "20260713112301"
    },
    {
      "station_id": "PW012681",
      "name": "벽산라이브파크아파트입주자대표회의",
      "address": "서울특별시 강북구 솔샘로 159",
      "lat": "37.621823274",
      "lng": "127.01240745",
      "total_count": 3,
      "available_count": 2,
      "total_percent": 66.7,
      "slow_total": 3,
      "slow_avail": 2,
      "slow_percent": 66.7,
      "fast_total": 0,
      "fast_avail": 0,
      "fast_percent": 0.0,
      "latest_update": "20260712210612"
    },
    {
      "station_id": "RE000010",
      "name": "SK북한산시티 아파트",
      "address": "서울특별시 강북구 솔샘로 174",
      "lat": "37.618",
      "lng": "127.011",
      "total_count": 3,
      "available_count": 3,
      "total_percent": 100.0,
      "slow_total": 3,
      "slow_avail": 3,
      "slow_percent": 100.0,
      "fast_total": 0,
      "fast_avail": 0,
      "fast_percent": 0.0,
      "latest_update": "20260710142202"
    },
    {
      "station_id": "ST113009",
      "name": "강북웰빙스포츠센터",
      "address": "서울특별시 강북구 오현로31길 51",
      "lat": "37.6304527",
      "lng": "127.0377894",
      "total_count": 3,
      "available_count": 1,
      "total_percent": 33.3,
      "slow_total": 3,
      "slow_avail": 1,
      "slow_percent": 33.3,
      "fast_total": 0,
      "fast_avail": 0,
      "fast_percent": 0.0,
      "latest_update": "20260713171149"
    },
    {
      "station_id": "BNBN0486",
      "name": "서울 아동청소년예술교육센터",
      "address": "서울특별시 강북구 솔샘로48길 14",
      "lat": "37.619369",
      "lng": "127.017871",
      "total_count": 2,
      "available_count": 2,
      "total_percent": 100.0,
      "slow_total": 0,
      "slow_avail": 0,
      "slow_percent": 0.0,
      "fast_total": 2,
      "fast_avail": 2,
      "fast_percent": 100.0,
      "latest_update": "20260713161816"
    },
    {
      "station_id": "BT000089",
      "name": "번동햇살 공영주차장",
      "address": "서울특별시 강북구 오현로21길 84",
      "lat": "37.625084",
      "lng": "127.033404",
      "total_count": 2,
      "available_count": 1,
      "total_percent": 50.0,
      "slow_total": 0,
      "slow_avail": 0,
      "slow_percent": 0.0,
      "fast_total": 2,
      "fast_avail": 1,
      "fast_percent": 50.0,
      "latest_update": "20260712165810"
    },
    {
      "station_id": "BT000092",
      "name": "삼양마을공원 공영주차장",
      "address": "서울특별시 강북구 삼양로47길 15",
      "lat": "37.622739",
      "lng": "127.018403",
      "total_count": 2,
      "available_count": 0,
      "total_percent": 0.0,
      "slow_total": 0,
      "slow_avail": 0,
      "slow_percent": 0.0,
      "fast_total": 2,
      "fast_avail": 0,
      "fast_percent": 0.0,
      "latest_update": "20260713105310"
    },
    {
      "station_id": "BT000097",
      "name": "수유일공원공영주차장",
      "address": "서울특별시 강북구 삼양로79길 5",
      "lat": "37.630562",
      "lng": "127.017241",
      "total_count": 2,
      "available_count": 1,
      "total_percent": 50.0,
      "slow_total": 0,
      "slow_avail": 0,
      "slow_percent": 0.0,
      "fast_total": 2,
      "fast_avail": 1,
      "fast_percent": 50.0,
      "latest_update": "20260710172001"
    },
    {
      "station_id": "BT000100",
      "name": "오패산 공영주차장",
      "address": "서울특별시 강북구 도봉로34길 54",
      "lat": "37.622049",
      "lng": "127.031160",
      "total_count": 2,
      "available_count": 2,
      "total_percent": 100.0,
      "slow_total": 0,
      "slow_avail": 0,
      "slow_percent": 0.0,
      "fast_total": 2,
      "fast_avail": 2,
      "fast_percent": 100.0,
      "latest_update": "20260712201500"
    },
    {
      "station_id": "BT000101",
      "name": "우이동 공영주차장",
      "address": "서울특별시 강북구 삼양로155길 33",
      "lat": "37.656710",
      "lng": "127.011552",
      "total_count": 2,
      "available_count": 1,
      "total_percent": 50.0,
      "slow_total": 0,
      "slow_avail": 0,
      "slow_percent": 0.0,
      "fast_total": 2,
      "fast_avail": 1,
      "fast_percent": 50.0,
      "latest_update": "20260712113500"
    },
    {
      "station_id": "CU200019",
      "name": "강북구청",
      "address": "서울특별시 강북구 도봉로89길 13",
      "lat": "37.6391656",
      "lng": "127.025425",
      "total_count": 2,
      "available_count": 0,
      "total_percent": 0.0,
      "slow_total": 2,
      "slow_avail": 0,
      "slow_percent": 0.0,
      "fast_total": 0,
      "fast_avail": 0,
      "fast_percent": 0.0,
      "latest_update": "20260324151401"
    },
    {
      "station_id": "CV001069",
      "name": "구세군길 공영주차장",
      "address": "서울특별시 강북구 인수봉로20가길 21",
      "lat": "37.625838",
      "lng": "127.0135921",
      "total_count": 2,
      "available_count": 2,
      "total_percent": 100.0,
      "slow_total": 0,
      "slow_avail": 0,
      "slow_percent": 0.0,
      "fast_total": 2,
      "fast_avail": 2,
      "fast_percent": 100.0,
      "latest_update": "20260712202520"
    },
    {
      "station_id": "CV001295",
      "name": "오동골프클럽",
      "address": "서울특별시 강북구 오현로 117",
      "lat": "37.623129",
      "lng": "127.037439",
      "total_count": 2,
      "available_count": 2,
      "total_percent": 100.0,
      "slow_total": 0,
      "slow_avail": 0,
      "slow_percent": 0.0,
      "fast_total": 2,
      "fast_avail": 2,
      "fast_percent": 100.0,
      "latest_update": "20260713164522"
    },
    {
      "station_id": "CV001362",
      "name": "강북문화예술회관 지하주차장",
      "address": "서울특별시 강북구 삼각산로 85",
      "lat": "37.640747",
      "lng": "127.0128485",
      "total_count": 2,
      "available_count": 2,
      "total_percent": 100.0,
      "slow_total": 0,
      "slow_avail": 0,
      "slow_percent": 0.0,
      "fast_total": 2,
      "fast_avail": 2,
      "fast_percent": 100.0,
      "latest_update": "20260713164524"
    },
    {
      "station_id": "CV001714",
      "name": "삼각산동주민센터",
      "address": "서울특별시 강북구 삼양로19길 34",
      "lat": "37.615717",
      "lng": "127.0208728",
      "total_count": 2,
      "available_count": 2,
      "total_percent": 100.0,
      "slow_total": 0,
      "slow_avail": 0,
      "slow_percent": 0.0,
      "fast_total": 2,
      "fast_avail": 2,
      "fast_percent": 100.0,
      "latest_update": "20260713164523"
    },
    {
      "station_id": "CV002462",
      "name": "아우디_강북 전시장(고진모터스)",
      "address": "서울특별시 강북구 도봉로 94",
      "lat": "37.617566",
      "lng": "127.030374",
      "total_count": 2,
      "available_count": 2,
      "total_percent": 100.0,
      "slow_total": 0,
      "slow_avail": 0,
      "slow_percent": 0.0,
      "fast_total": 2,
      "fast_avail": 2,
      "fast_percent": 100.0,
      "latest_update": "20260712161521"
    },
    {
      "station_id": "CV004303",
      "name": "티스테이션 올마이티 강북점",
      "address": "서울특별시 강북구 도봉로 398",
      "lat": "37.641912",
      "lng": "127.030128",
      "total_count": 2,
      "available_count": 2,
      "total_percent": 100.0,
      "slow_total": 0,
      "slow_avail": 0,
      "slow_percent": 0.0,
      "fast_total": 2,
      "fast_avail": 2,
      "fast_percent": 100.0,
      "latest_update": "20260713171047"
    },
    {
      "station_id": "EV002672",
      "name": "서울강북 래미안트리베라105동",
      "address": "서울특별시 강북구 삼양로19길 25",
      "lat": "37.615252421934",
      "lng": "127.0219505506",
      "total_count": 2,
      "available_count": 2,
      "total_percent": 100.0,
      "slow_total": 2,
      "slow_avail": 2,
      "slow_percent": 100.0,
      "fast_total": 0,
      "fast_avail": 0,
      "fast_percent": 0.0,
      "latest_update": "20260713060812"
    },
    {
      "station_id": "EV004819",
      "name": "서울강북 오동공원현대홈타운",
      "address": "서울특별시 강북구 오현로31길 89",
      "lat": "37.6317188",
      "lng": "127.0355846",
      "total_count": 2,
      "available_count": 2,
      "total_percent": 100.0,
      "slow_total": 2,
      "slow_avail": 2,
      "slow_percent": 100.0,
      "fast_total": 0,
      "fast_avail": 0,
      "fast_percent": 0.0,
      "latest_update": "20260713145936"
    },
    {
      "station_id": "EV008508",
      "name": "서울강북 꿈의숲롯데캐슬1",
      "address": "서울특별시 강북구 오현로 56",
      "lat": "37.6184116",
      "lng": "127.0364759",
      "total_count": 2,
      "available_count": 1,
      "total_percent": 50.0,
      "slow_total": 2,
      "slow_avail": 1,
      "slow_percent": 50.0,
      "fast_total": 0,
      "fast_avail": 0,
      "fast_percent": 0.0,
      "latest_update": "20260713172709"
    },
    {
      "station_id": "EV008510",
      "name": "서울강북 꿈의숲롯데캐슬3",
      "address": "서울특별시 강북구 오현로 56",
      "lat": "37.617472113",
      "lng": "127.03615492",
      "total_count": 2,
      "available_count": 2,
      "total_percent": 100.0,
      "slow_total": 2,
      "slow_avail": 2,
      "slow_percent": 100.0,
      "fast_total": 0,
      "fast_avail": 0,
      "fast_percent": 0.0,
      "latest_update": "20260713144123"
    },
    {
      "station_id": "EV019311",
      "name": "서울강북 미아요진아파트 1",
      "address": "서울 강북구 도봉로76길 56",
      "lat": "37.6336810",
      "lng": "127.0266157",
      "total_count": 2,
      "available_count": 1,
      "total_percent": 50.0,
      "slow_total": 2,
      "slow_avail": 1,
      "slow_percent": 50.0,
      "fast_total": 0,
      "fast_avail": 0,
      "fast_percent": 0.0,
      "latest_update": "20260713141106"
    },
    {
      "station_id": "EV020644",
      "name": "서울강북 번동신원아파트 3",
      "address": "서울특별시 강북구 월계로37길 87-9",
      "lat": "37.6257970",
      "lng": "127.0434089",
      "total_count": 2,
      "available_count": 1,
      "total_percent": 50.0,
      "slow_total": 2,
      "slow_avail": 1,
      "slow_percent": 50.0,
      "fast_total": 0,
      "fast_avail": 0,
      "fast_percent": 0.0,
      "latest_update": "20260713163034"
    },
    {
      "station_id": "JA110154",
      "name": "수유현대아파트",
      "address": "서울특별시 강북구 한천로 1131",
      "lat": "37.6454359",
      "lng": "127.0186245",
      "total_count": 2,
      "available_count": 1,
      "total_percent": 50.0,
      "slow_total": 2,
      "slow_avail": 1,
      "slow_percent": 50.0,
      "fast_total": 0,
      "fast_avail": 0,
      "fast_percent": 0.0,
      "latest_update": "20260713173514"
    },
    {
      "station_id": "KE000126",
      "name": "서울강북래미안트리베라206동",
      "address": "서울특별시 강북구 삼양로27길 19",
      "lat": "37.6175119",
      "lng": "127.0208266",
      "total_count": 2,
      "available_count": 2,
      "total_percent": 100.0,
      "slow_total": 2,
      "slow_avail": 2,
      "slow_percent": 100.0,
      "fast_total": 0,
      "fast_avail": 0,
      "fast_percent": 0.0,
      "latest_update": "20260712172609"
    },
    {
      "station_id": "KE000676",
      "name": "서울강북번동주공1단지1",
      "address": "서울특별시 강북구 한천로105길 23",
      "lat": "37.62522",
      "lng": "127.0474499",
      "total_count": 2,
      "available_count": 2,
      "total_percent": 100.0,
      "slow_total": 2,
      "slow_avail": 2,
      "slow_percent": 100.0,
      "fast_total": 0,
      "fast_avail": 0,
      "fast_percent": 0.0,
      "latest_update": "20260713170409"
    },
    {
      "station_id": "KE000677",
      "name": "서울강북번동주공1단지2",
      "address": "서울특별시 강북구 한천로105길 23",
      "lat": "37.6251699",
      "lng": "127.046486",
      "total_count": 2,
      "available_count": 1,
      "total_percent": 50.0,
      "slow_total": 2,
      "slow_avail": 1,
      "slow_percent": 50.0,
      "fast_total": 0,
      "fast_avail": 0,
      "fast_percent": 0.0,
      "latest_update": "20260713162409"
    },
    {
      "station_id": "KE000701",
      "name": "서울강북미아SH빌",
      "address": "서울특별시 강북구 삼양로 246-14",
      "lat": "37.6254293",
      "lng": "127.0192252",
      "total_count": 2,
      "available_count": 2,
      "total_percent": 100.0,
      "slow_total": 2,
      "slow_avail": 2,
      "slow_percent": 100.0,
      "fast_total": 0,
      "fast_avail": 0,
      "fast_percent": 0.0,
      "latest_update": "20260713023409"
    },
    {
      "station_id": "KP001016",
      "name": "래미안미아1차 아파트",
      "address": "서울특별시 강북구 미아동 삼양로 256",
      "lat": "37.6262846426",
      "lng": "127.0188997476",
      "total_count": 2,
      "available_count": 2,
      "total_percent": 100.0,
      "slow_total": 1,
      "slow_avail": 1,
      "slow_percent": 100.0,
      "fast_total": 1,
      "fast_avail": 1,
      "fast_percent": 100.0,
      "latest_update": "20260713073022"
    },
    {
      "station_id": "KP002880",
      "name": "효성네오인텔리안",
      "address": "서울특별시 강북구 도봉로 352",
      "lat": "37.6387220620",
      "lng": "127.027067263",
      "total_count": 2,
      "available_count": 0,
      "total_percent": 0.0,
      "slow_total": 2,
      "slow_avail": 0,
      "slow_percent": 0.0,
      "fast_total": 0,
      "fast_avail": 0,
      "fast_percent": 0.0,
      "latest_update": "20260324153346"
    },
    {
      "station_id": "KP003019",
      "name": "미아한일유앤아이APT",
      "address": "서울특별시 강북구 미아동 1355",
      "lat": "37.614026",
      "lng": "127.0365",
      "total_count": 2,
      "available_count": 2,
      "total_percent": 100.0,
      "slow_total": 2,
      "slow_avail": 2,
      "slow_percent": 100.0,
      "fast_total": 0,
      "fast_avail": 0,
      "fast_percent": 0.0,
      "latest_update": "20260519112050"
    },
    {
      "station_id": "KP004143",
      "name": "북서울꿈의숲",
      "address": "서울특별시 강북구 월계로 173",
      "lat": "37.620215070",
      "lng": "127.04437126",
      "total_count": 2,
      "available_count": 2,
      "total_percent": 100.0,
      "slow_total": 0,
      "slow_avail": 0,
      "slow_percent": 0.0,
      "fast_total": 2,
      "fast_avail": 2,
      "fast_percent": 100.0,
      "latest_update": "20260713172018"
    },
    {
      "station_id": "PI000257",
      "name": "서울시 세종문화회관 (꿈의숲아트센터)",
      "address": "서울특별시 강북구 월계로 173",
      "lat": "37.621540",
      "lng": "127.038459",
      "total_count": 2,
      "available_count": 1,
      "total_percent": 50.0,
      "slow_total": 2,
      "slow_avail": 1,
      "slow_percent": 50.0,
      "fast_total": 0,
      "fast_avail": 0,
      "fast_percent": 0.0,
      "latest_update": "20260713172112"
    },
    {
      "station_id": "PI000483",
      "name": "서울시 강북구 미아동주민센터",
      "address": "서울특별시 강북구 솔매로49길 14",
      "lat": "37.6270904",
      "lng": "127.0269746",
      "total_count": 2,
      "available_count": 1,
      "total_percent": 50.0,
      "slow_total": 2,
      "slow_avail": 1,
      "slow_percent": 50.0,
      "fast_total": 0,
      "fast_avail": 0,
      "fast_percent": 0.0,
      "latest_update": "20260713173606"
    },
    {
      "station_id": "PI202283",
      "name": "삼각산아이원아파트",
      "address": "서울특별시 강북구 삼양로19길 113 (미아동, 삼각산아이원아파트) 101동~122동",
      "lat": "37.615462535",
      "lng": "127.01822988",
      "total_count": 2,
      "available_count": 2,
      "total_percent": 100.0,
      "slow_total": 2,
      "slow_avail": 2,
      "slow_percent": 100.0,
      "fast_total": 0,
      "fast_avail": 0,
      "fast_percent": 0.0,
      "latest_update": "20260712022111"
    },
    {
      "station_id": "PI717719",
      "name": "삼각산아이원",
      "address": "서울특별시 강북구 미아동 1357 삼각산아이원아파트",
      "lat": "37.617379322",
      "lng": "127.01864660",
      "total_count": 2,
      "available_count": 1,
      "total_percent": 50.0,
      "slow_total": 2,
      "slow_avail": 1,
      "slow_percent": 50.0,
      "fast_total": 0,
      "fast_avail": 0,
      "fast_percent": 0.0,
      "latest_update": "20260713123547"
    },
    {
      "station_id": "PI768138",
      "name": "번동주공4단지",
      "address": "서울특별시 강북구 오현로 207",
      "lat": "37.6308936",
      "lng": "127.0386803",
      "total_count": 2,
      "available_count": 2,
      "total_percent": 100.0,
      "slow_total": 2,
      "slow_avail": 2,
      "slow_percent": 100.0,
      "fast_total": 0,
      "fast_avail": 0,
      "fast_percent": 0.0,
      "latest_update": "20260713072049"
    },
    {
      "station_id": "PI805081",
      "name": "서울 강북구 성암여자중학교",
      "address": "서울특별시 강북구 도봉로29길 52",
      "lat": "37.6204100",
      "lng": "127.0239000",
      "total_count": 2,
      "available_count": 2,
      "total_percent": 100.0,
      "slow_total": 2,
      "slow_avail": 2,
      "slow_percent": 100.0,
      "fast_total": 0,
      "fast_avail": 0,
      "fast_percent": 0.0,
      "latest_update": "20260709103805"
    },
    {
      "station_id": "PIH00911",
      "name": "퍼스트뷰아파트",
      "address": "서울특별시 강북구 삼양로130길 9-21",
      "lat": "37.647559686",
      "lng": "127.01522008",
      "total_count": 2,
      "available_count": 2,
      "total_percent": 100.0,
      "slow_total": 2,
      "slow_avail": 2,
      "slow_percent": 100.0,
      "fast_total": 0,
      "fast_avail": 0,
      "fast_percent": 0.0,
      "latest_update": "20260710111712"
    },
    {
      "station_id": "PIH01542",
      "name": "성신여자대학교운정그린캠퍼스",
      "address": "서울특별시 강북구 도봉로76가길 55",
      "lat": "37.632037998",
      "lng": "127.02712420",
      "total_count": 2,
      "available_count": 1,
      "total_percent": 50.0,
      "slow_total": 2,
      "slow_avail": 1,
      "slow_percent": 50.0,
      "fast_total": 0,
      "fast_avail": 0,
      "fast_percent": 0.0,
      "latest_update": "20260713152715"
    },
    {
      "station_id": "PIH02032",
      "name": "가든타워빌딩",
      "address": "서울특별시 강북구 도봉로 328",
      "lat": "37.6371277",
      "lng": "127.0251913",
      "total_count": 2,
      "available_count": 2,
      "total_percent": 100.0,
      "slow_total": 2,
      "slow_avail": 2,
      "slow_percent": 100.0,
      "fast_total": 0,
      "fast_avail": 0,
      "fast_percent": 0.0,
      "latest_update": "20260704194216"
    },
    {
      "station_id": "PL005477",
      "name": "한국마사회강북지사",
      "address": "서울특별시 강북구 도봉로 302",
      "lat": "37.6353409",
      "lng": "127.0237011",
      "total_count": 2,
      "available_count": 2,
      "total_percent": 100.0,
      "slow_total": 2,
      "slow_avail": 2,
      "slow_percent": 100.0,
      "fast_total": 0,
      "fast_avail": 0,
      "fast_percent": 0.0,
      "latest_update": "20260712181218"
    },
    {
      "station_id": "PL030698",
      "name": "미아신구아파트",
      "address": "서울 강북구 오패산로60길 17-7",
      "lat": "37.6268268",
      "lng": "127.0304742",
      "total_count": 2,
      "available_count": 2,
      "total_percent": 100.0,
      "slow_total": 2,
      "slow_avail": 2,
      "slow_percent": 100.0,
      "fast_total": 0,
      "fast_avail": 0,
      "fast_percent": 0.0,
      "latest_update": "20260617221125"
    },
    {
      "station_id": "PW014902",
      "name": "수유역푸르지오시티관리단(SP)",
      "address": "서울특별시 강북구 도봉로 290",
      "lat": "37.634203429",
      "lng": "127.02377379",
      "total_count": 2,
      "available_count": 2,
      "total_percent": 100.0,
      "slow_total": 2,
      "slow_avail": 2,
      "slow_percent": 100.0,
      "fast_total": 0,
      "fast_avail": 0,
      "fast_percent": 0.0,
      "latest_update": "20260711110631"
    },
    {
      "station_id": "SE000048",
      "name": "미아동 축산농협 전기차 충전소",
      "address": "서울특별시 강북구 도봉로 136",
      "lat": "37.621138865",
      "lng": "127.02896387",
      "total_count": 2,
      "available_count": 1,
      "total_percent": 50.0,
      "slow_total": 2,
      "slow_avail": 1,
      "slow_percent": 50.0,
      "fast_total": 0,
      "fast_avail": 0,
      "fast_percent": 0.0,
      "latest_update": "20260713165121"
    },
    {
      "station_id": "SE000085",
      "name": "미아동공영주차장",
      "address": "서울특별시 강북구 도봉로61길 46",
      "lat": "37.628560203",
      "lng": "127.02234348",
      "total_count": 2,
      "available_count": 2,
      "total_percent": 100.0,
      "slow_total": 0,
      "slow_avail": 0,
      "slow_percent": 0.0,
      "fast_total": 2,
      "fast_avail": 2,
      "fast_percent": 100.0,
      "latest_update": "20260713111221"
    },
    {
      "station_id": "ST113002",
      "name": "금풍운수(운수사 전용)",
      "address": "서울특별시 강북구 솔샘로67길 33",
      "lat": "37.6186655",
      "lng": "127.0280959",
      "total_count": 2,
      "available_count": 1,
      "total_percent": 50.0,
      "slow_total": 0,
      "slow_avail": 0,
      "slow_percent": 0.0,
      "fast_total": 2,
      "fast_avail": 1,
      "fast_percent": 50.0,
      "latest_update": "20260713174137"
    },
    {
      "station_id": "ST113010",
      "name": "강북구보건소주차장",
      "address": "서울특별시 강북구 한천로 897",
      "lat": "37.6322918",
      "lng": "127.0388914",
      "total_count": 2,
      "available_count": 1,
      "total_percent": 50.0,
      "slow_total": 0,
      "slow_avail": 0,
      "slow_percent": 0.0,
      "fast_total": 2,
      "fast_avail": 1,
      "fast_percent": 50.0,
      "latest_update": "20260713174447"
    },
    {
      "station_id": "ST601497",
      "name": "빨래골 노상공영주차장",
      "address": "서울특별시 강북구 수유동 472-563",
      "lat": "37.6318124",
      "lng": "127.0181318",
      "total_count": 2,
      "available_count": 2,
      "total_percent": 100.0,
      "slow_total": 0,
      "slow_avail": 0,
      "slow_percent": 0.0,
      "fast_total": 2,
      "fast_avail": 2,
      "fast_percent": 100.0,
      "latest_update": "20260713152623"
    },
    {
      "station_id": "SZBA0054",
      "name": "(23년) 복지운수",
      "address": "서울특별시 강북구 한천로109길 57-50",
      "lat": "37.627501",
      "lng": "127.042268",
      "total_count": 2,
      "available_count": 2,
      "total_percent": 100.0,
      "slow_total": 0,
      "slow_avail": 0,
      "slow_percent": 0.0,
      "fast_total": 2,
      "fast_avail": 2,
      "fast_percent": 100.0,
      "latest_update": "20260713154204"
    },
    {
      "station_id": "SZBA0111",
      "name": "(25년) 드림운수",
      "address": "서울특별시 강북구 월계로37길 33",
      "lat": "37.623961",
      "lng": "127.045737",
      "total_count": 2,
      "available_count": 2,
      "total_percent": 100.0,
      "slow_total": 0,
      "slow_avail": 0,
      "slow_percent": 0.0,
      "fast_total": 2,
      "fast_avail": 2,
      "fast_percent": 100.0,
      "latest_update": "20260713143213"
    },
    {
      "station_id": "TDA00030",
      "name": "교보생명 번동사옥",
      "address": "서울특별시 강북구 도봉로 348",
      "lat": "37.638318",
      "lng": "127.026548",
      "total_count": 2,
      "available_count": 2,
      "total_percent": 100.0,
      "slow_total": 2,
      "slow_avail": 2,
      "slow_percent": 100.0,
      "fast_total": 0,
      "fast_avail": 0,
      "fast_percent": 0.0,
      "latest_update": "20260713113003"
    },
    {
      "station_id": "UN000071",
      "name": "수유동 대광맨션",
      "address": "서울특별시 강북구 노해로9길 69",
      "lat": "37.63786",
      "lng": "127.0180254",
      "total_count": 2,
      "available_count": 2,
      "total_percent": 100.0,
      "slow_total": 2,
      "slow_avail": 2,
      "slow_percent": 100.0,
      "fast_total": 0,
      "fast_avail": 0,
      "fast_percent": 0.0,
      "latest_update": "20260713035852"
    },
    {
      "station_id": "ME20A198",
      "name": "오동골프클럽",
      "address": "서울특별시 강북구 오현로 117",
      "lat": "37.623253",
      "lng": "127.037312",
      "total_count": 1,
      "available_count": 1,
      "total_percent": 100.0,
      "slow_total": 0,
      "slow_avail": 0,
      "slow_percent": 0.0,
      "fast_total": 1,
      "fast_avail": 1,
      "fast_percent": 100.0,
      "latest_update": "20260713174653"
    },
    {
      "station_id": "ME21B164",
      "name": "번동 햇살 공영주차장",
      "address": "서울특별시 강북구 오현로21길 84",
      "lat": "37.624958",
      "lng": "127.0332077",
      "total_count": 1,
      "available_count": 1,
      "total_percent": 100.0,
      "slow_total": 0,
      "slow_avail": 0,
      "slow_percent": 0.0,
      "fast_total": 1,
      "fast_avail": 1,
      "fast_percent": 100.0,
      "latest_update": "20260713173245"
    },
    {
      "station_id": "BT000021",
      "name": "가오리 공영주차장",
      "address": "서울특별시 강북구 삼양로107길 30",
      "lat": "37.641577",
      "lng": "127.014969",
      "total_count": 1,
      "available_count": 0,
      "total_percent": 0.0,
      "slow_total": 0,
      "slow_avail": 0,
      "slow_percent": 0.0,
      "fast_total": 1,
      "fast_avail": 0,
      "fast_percent": 0.0,
      "latest_update": "20260703173810"
    },
    {
      "station_id": "BT000083",
      "name": "냉천길 공영주차장",
      "address": "서울특별시 강북구 삼양로 230-12",
      "lat": "37.623979",
      "lng": "127.019532",
      "total_count": 1,
      "available_count": 0,
      "total_percent": 0.0,
      "slow_total": 0,
      "slow_avail": 0,
      "slow_percent": 0.0,
      "fast_total": 1,
      "fast_avail": 0,
      "fast_percent": 0.0,
      "latest_update": "20260713145810"
    },
    {
      "station_id": "BT000093",
      "name": "송중동 공영주차장",
      "address": "서울특별시 강북구 월계로7길 36",
      "lat": "37.611612",
      "lng": "127.033636",
      "total_count": 1,
      "available_count": 1,
      "total_percent": 100.0,
      "slow_total": 0,
      "slow_avail": 0,
      "slow_percent": 0.0,
      "fast_total": 1,
      "fast_avail": 1,
      "fast_percent": 100.0,
      "latest_update": "20260713152001"
    },
    {
      "station_id": "BT000094",
      "name": "송천동 공영주차장",
      "address": "서울특별시 강북구 숭인로7나길 23",
      "lat": "37.614562",
      "lng": "127.025134",
      "total_count": 1,
      "available_count": 0,
      "total_percent": 0.0,
      "slow_total": 0,
      "slow_avail": 0,
      "slow_percent": 0.0,
      "fast_total": 1,
      "fast_avail": 0,
      "fast_percent": 0.0,
      "latest_update": "20260324150017"
    },
    {
      "station_id": "BT000095",
      "name": "수유2동 공영주차장",
      "address": "서울특별시 강북구 한천로160길 40",
      "lat": "37.646014",
      "lng": "127.021870",
      "total_count": 1,
      "available_count": 0,
      "total_percent": 0.0,
      "slow_total": 0,
      "slow_avail": 0,
      "slow_percent": 0.0,
      "fast_total": 1,
      "fast_avail": 0,
      "fast_percent": 0.0,
      "latest_update": "20260415135310"
    },
    {
      "station_id": "BT000096",
      "name": "수유마을시장공영주차장",
      "address": "서울특별시 강북구 도봉로69길 29",
      "lat": "37.630574",
      "lng": "127.021873",
      "total_count": 1,
      "available_count": 1,
      "total_percent": 100.0,
      "slow_total": 0,
      "slow_avail": 0,
      "slow_percent": 0.0,
      "fast_total": 1,
      "fast_avail": 1,
      "fast_percent": 100.0,
      "latest_update": "20260712153500"
    },
    {
      "station_id": "BT000102",
      "name": "인수동공영주차장",
      "address": "서울특별시 강북구 삼양로92길 34",
      "lat": "37.636224",
      "lng": "127.018436",
      "total_count": 1,
      "available_count": 0,
      "total_percent": 0.0,
      "slow_total": 0,
      "slow_avail": 0,
      "slow_percent": 0.0,
      "fast_total": 1,
      "fast_avail": 0,
      "fast_percent": 0.0,
      "latest_update": "20260713162310"
    },
    {
      "station_id": "CU200021",
      "name": "강북장애인복지관",
      "address": "서울특별시 강북구 오현로 189",
      "lat": "37.6287737",
      "lng": "127.039016",
      "total_count": 1,
      "available_count": 1,
      "total_percent": 100.0,
      "slow_total": 1,
      "slow_avail": 1,
      "slow_percent": 100.0,
      "fast_total": 0,
      "fast_avail": 0,
      "fast_percent": 0.0,
      "latest_update": "20260702121011"
    },
    {
      "station_id": "EV013490",
      "name": "서울강북 국민은행 강북종합금융센터",
      "address": "서울특별시 강북구 도봉로 391",
      "lat": "37.6419510",
      "lng": "127.0292933",
      "total_count": 1,
      "available_count": 0,
      "total_percent": 0.0,
      "slow_total": 1,
      "slow_avail": 0,
      "slow_percent": 0.0,
      "fast_total": 0,
      "fast_avail": 0,
      "fast_percent": 0.0,
      "latest_update": "20260713173718"
    },
    {
      "station_id": "EV016641",
      "name": "서울강북 포르텔오피스텔",
      "address": "서울특별시 강북구 한천로 1003 (번동)",
      "lat": "37.6377910",
      "lng": "127.0294579",
      "total_count": 1,
      "available_count": 1,
      "total_percent": 100.0,
      "slow_total": 1,
      "slow_avail": 1,
      "slow_percent": 100.0,
      "fast_total": 0,
      "fast_avail": 0,
      "fast_percent": 0.0,
      "latest_update": "20260711044133"
    },
    {
      "station_id": "HY001052",
      "name": "강북 미아에스에이치빌",
      "address": "서울특별시 강북구 삼양로 246-14",
      "lat": "37.6254214",
      "lng": "127.0191972",
      "total_count": 1,
      "available_count": 1,
      "total_percent": 100.0,
      "slow_total": 1,
      "slow_avail": 1,
      "slow_percent": 100.0,
      "fast_total": 0,
      "fast_avail": 0,
      "fast_percent": 0.0,
      "latest_update": "20260711203204"
    },
    {
      "station_id": "IN120029",
      "name": "삼성화재수유사옥",
      "address": "서울특별시 강북구 도봉로 314",
      "lat": "37.6361",
      "lng": "127.0242",
      "total_count": 1,
      "available_count": 1,
      "total_percent": 100.0,
      "slow_total": 1,
      "slow_avail": 1,
      "slow_percent": 100.0,
      "fast_total": 0,
      "fast_avail": 0,
      "fast_percent": 0.0,
      "latest_update": "20260615122836"
    },
    {
      "station_id": "KE000646",
      "name": "서울강북농협장학관",
      "address": "서울특별시 강북구 삼양로173길 7",
      "lat": "37.662534",
      "lng": "127.012263",
      "total_count": 1,
      "available_count": 1,
      "total_percent": 100.0,
      "slow_total": 1,
      "slow_avail": 1,
      "slow_percent": 100.0,
      "fast_total": 0,
      "fast_avail": 0,
      "fast_percent": 0.0,
      "latest_update": "20260622135614"
    },
    {
      "station_id": "KL002296",
      "name": "한산 에버아트  ",
      "address": "서울특별시 강북구 삼양로173가길 18",
      "lat": "37.66274",
      "lng": "127.01153",
      "total_count": 1,
      "available_count": 1,
      "total_percent": 100.0,
      "slow_total": 1,
      "slow_avail": 1,
      "slow_percent": 100.0,
      "fast_total": 0,
      "fast_avail": 0,
      "fast_percent": 0.0,
      "latest_update": "20260712022201"
    },
    {
      "station_id": "KP002383",
      "name": "해모로아파트",
      "address": "서울특별시 강북구 번동 오현로 156",
      "lat": "37.6262731779",
      "lng": "127.0369023061",
      "total_count": 1,
      "available_count": 0,
      "total_percent": 0.0,
      "slow_total": 0,
      "slow_avail": 0,
      "slow_percent": 0.0,
      "fast_total": 1,
      "fast_avail": 0,
      "fast_percent": 0.0,
      "latest_update": "20260713160022"
    },
    {
      "station_id": "KP003500",
      "name": "강북성북지사",
      "address": "서울특별시 강북구 도봉로 242",
      "lat": "37.630923",
      "lng": "127.024819",
      "total_count": 1,
      "available_count": 1,
      "total_percent": 100.0,
      "slow_total": 1,
      "slow_avail": 1,
      "slow_percent": 100.0,
      "fast_total": 0,
      "fast_avail": 0,
      "fast_percent": 0.0,
      "latest_update": "20260708053007"
    },
    {
      "station_id": "KP003815",
      "name": "강북문화예술회관",
      "address": "서울특별시 강북구 삼각산로 85",
      "lat": "37.640790901",
      "lng": "127.01342761",
      "total_count": 1,
      "available_count": 1,
      "total_percent": 100.0,
      "slow_total": 0,
      "slow_avail": 0,
      "slow_percent": 0.0,
      "fast_total": 1,
      "fast_avail": 1,
      "fast_percent": 100.0,
      "latest_update": "20260713160011"
    },
    {
      "station_id": "LU002721",
      "name": "운산산업",
      "address": "서울특별시 강북구 도봉로 260",
      "lat": "37.631707",
      "lng": "127.024423",
      "total_count": 1,
      "available_count": 0,
      "total_percent": 0.0,
      "slow_total": 1,
      "slow_avail": 0,
      "slow_percent": 0.0,
      "fast_total": 0,
      "fast_avail": 0,
      "fast_percent": 0.0,
      "latest_update": "20260713135043"
    },
    {
      "station_id": "MO910212",
      "name": "래미안 트리베라 아파트",
      "address": "서울특별시 강북구 삼양로19길 25",
      "lat": "37.6416",
      "lng": "127.0167",
      "total_count": 1,
      "available_count": 1,
      "total_percent": 100.0,
      "slow_total": 1,
      "slow_avail": 1,
      "slow_percent": 100.0,
      "fast_total": 0,
      "fast_avail": 0,
      "fast_percent": 0.0,
      "latest_update": "20260712030004"
    },
    {
      "station_id": "PI000461",
      "name": "서울시 번2동 주민센터",
      "address": "서울특별시 강북구 한천로 897",
      "lat": "37.6318802215",
      "lng": "127.0390621041",
      "total_count": 1,
      "available_count": 1,
      "total_percent": 100.0,
      "slow_total": 1,
      "slow_avail": 1,
      "slow_percent": 100.0,
      "fast_total": 0,
      "fast_avail": 0,
      "fast_percent": 0.0,
      "latest_update": "20260710013606"
    },
    {
      "station_id": "PI000462",
      "name": "서울시 인수동 주민센터",
      "address": "서울특별시 강북구 인수봉로 255",
      "lat": "37.6414871101",
      "lng": "127.0105961671",
      "total_count": 1,
      "available_count": 1,
      "total_percent": 100.0,
      "slow_total": 1,
      "slow_avail": 1,
      "slow_percent": 100.0,
      "fast_total": 0,
      "fast_avail": 0,
      "fast_percent": 0.0,
      "latest_update": "20260713004903"
    },
    {
      "station_id": "PI000484",
      "name": "서울시 번3동 주민센터",
      "address": "서울특별시 강북구 한천로105길 21 ",
      "lat": "37.6258661084",
      "lng": "127.0465898131",
      "total_count": 1,
      "available_count": 1,
      "total_percent": 100.0,
      "slow_total": 1,
      "slow_avail": 1,
      "slow_percent": 100.0,
      "fast_total": 0,
      "fast_avail": 0,
      "fast_percent": 0.0,
      "latest_update": "20260713165107"
    },
    {
      "station_id": "PI000486",
      "name": "서울시 삼양동 주민센터",
      "address": "서울특별시 강북구 솔매로 69",
      "lat": "37.625051769",
      "lng": "127.01977247",
      "total_count": 1,
      "available_count": 1,
      "total_percent": 100.0,
      "slow_total": 1,
      "slow_avail": 1,
      "slow_percent": 100.0,
      "fast_total": 0,
      "fast_avail": 0,
      "fast_percent": 0.0,
      "latest_update": "20260709163607"
    },
    {
      "station_id": "PI000488",
      "name": "서울시 송중동 주민센터",
      "address": "서울특별시 강북구 오패산로 162 ",
      "lat": "37.6161217853",
      "lng": "127.0337802291",
      "total_count": 1,
      "available_count": 1,
      "total_percent": 100.0,
      "slow_total": 1,
      "slow_avail": 1,
      "slow_percent": 100.0,
      "fast_total": 0,
      "fast_avail": 0,
      "fast_percent": 0.0,
      "latest_update": "20260713091120"
    },
    {
      "station_id": "PI000490",
      "name": "서울시 수유1동 주민센터",
      "address": "서울특별시 강북구 삼양로 299 ",
      "lat": "37.6300509733",
      "lng": "127.0175593905",
      "total_count": 1,
      "available_count": 1,
      "total_percent": 100.0,
      "slow_total": 1,
      "slow_avail": 1,
      "slow_percent": 100.0,
      "fast_total": 0,
      "fast_avail": 0,
      "fast_percent": 0.0,
      "latest_update": "20260707024110"
    },
    {
      "station_id": "PI000493",
      "name": "서울시 우이동 주민센터",
      "address": "서울특별시 강북구 삼양로139길 49 ",
      "lat": "37.6479344301",
      "lng": "127.0118707273",
      "total_count": 1,
      "available_count": 1,
      "total_percent": 100.0,
      "slow_total": 1,
      "slow_avail": 1,
      "slow_percent": 100.0,
      "fast_total": 0,
      "fast_avail": 0,
      "fast_percent": 0.0,
      "latest_update": "20260713174605"
    },
    {
      "station_id": "PI000599",
      "name": "서울시 수유2동 주민센터",
      "address": "서울특별시 강북구 한천로 1117",
      "lat": "37.6446429584",
      "lng": "127.0198879162",
      "total_count": 1,
      "available_count": 1,
      "total_percent": 100.0,
      "slow_total": 1,
      "slow_avail": 1,
      "slow_percent": 100.0,
      "fast_total": 0,
      "fast_avail": 0,
      "fast_percent": 0.0,
      "latest_update": "20260709224739"
    },
    {
      "station_id": "PI000733",
      "name": "서울시 강북구 강북소방서",
      "address": "서울특별시 강북구 한천로 911",
      "lat": "37.6330517921",
      "lng": "127.0381790480",
      "total_count": 1,
      "available_count": 1,
      "total_percent": 100.0,
      "slow_total": 1,
      "slow_avail": 1,
      "slow_percent": 100.0,
      "fast_total": 0,
      "fast_avail": 0,
      "fast_percent": 0.0,
      "latest_update": "20260702235606"
    },
    {
      "station_id": "PI000849",
      "name": "서울시 강북구 번1동주민센터",
      "address": "서울특별시 강북구 한천로 996",
      "lat": "37.6377607536",
      "lng": "127.0305814216",
      "total_count": 1,
      "available_count": 1,
      "total_percent": 100.0,
      "slow_total": 1,
      "slow_avail": 1,
      "slow_percent": 100.0,
      "fast_total": 0,
      "fast_avail": 0,
      "fast_percent": 0.0,
      "latest_update": "20260713134608"
    },
    {
      "station_id": "PI204099",
      "name": "서울시 강북구 송천동주민센터",
      "address": "서울특별시 강북구 솔샘로 284",
      "lat": "37.618297483",
      "lng": "127.02385095",
      "total_count": 1,
      "available_count": 1,
      "total_percent": 100.0,
      "slow_total": 1,
      "slow_avail": 1,
      "slow_percent": 100.0,
      "fast_total": 0,
      "fast_avail": 0,
      "fast_percent": 0.0,
      "latest_update": "20260713165131"
    },
    {
      "station_id": "PI204316",
      "name": "서울시 강북구 수유3동주민센터",
      "address": "서울특별시 강북구 노해로 36",
      "lat": "37.638714697",
      "lng": "127.02314641",
      "total_count": 1,
      "available_count": 1,
      "total_percent": 100.0,
      "slow_total": 1,
      "slow_avail": 1,
      "slow_percent": 100.0,
      "fast_total": 0,
      "fast_avail": 0,
      "fast_percent": 0.0,
      "latest_update": "20260712061649"
    },
    {
      "station_id": "PIH00190",
      "name": "해피캐슬주택",
      "address": "서울특별시 강북구 노해로33나길 14",
      "lat": "37.647358400",
      "lng": "127.02241180",
      "total_count": 1,
      "available_count": 1,
      "total_percent": 100.0,
      "slow_total": 1,
      "slow_avail": 1,
      "slow_percent": 100.0,
      "fast_total": 0,
      "fast_avail": 0,
      "fast_percent": 0.0,
      "latest_update": "20260629215444"
    },
    {
      "station_id": "PIH01831",
      "name": "파인힐하우스",
      "address": "서울특별시 강북구 삼양로149길 27",
      "lat": "37.6551486",
      "lng": "127.0097948",
      "total_count": 1,
      "available_count": 1,
      "total_percent": 100.0,
      "slow_total": 1,
      "slow_avail": 1,
      "slow_percent": 100.0,
      "fast_total": 0,
      "fast_avail": 0,
      "fast_percent": 0.0,
      "latest_update": "20260712221807"
    },
    {
      "station_id": "PIS00027",
      "name": "서울 강북구 삼성화재수유사옥",
      "address": "서울특별시 강북구 도봉로 314",
      "lat": "37.6361000",
      "lng": "127.0242000",
      "total_count": 1,
      "available_count": 1,
      "total_percent": 100.0,
      "slow_total": 1,
      "slow_avail": 1,
      "slow_percent": 100.0,
      "fast_total": 0,
      "fast_avail": 0,
      "fast_percent": 0.0,
      "latest_update": "20260710202331"
    },
    {
      "station_id": "SE000047",
      "name": "미아동 도봉세무서 앞 전기차 충전소",
      "address": "서울특별시 강북구 도봉로 117",
      "lat": "37.6193641",
      "lng": "127.0280457",
      "total_count": 1,
      "available_count": 1,
      "total_percent": 100.0,
      "slow_total": 1,
      "slow_avail": 1,
      "slow_percent": 100.0,
      "fast_total": 0,
      "fast_avail": 0,
      "fast_percent": 0.0,
      "latest_update": "20260713174321"
    },
    {
      "station_id": "SE000050",
      "name": "수유동 가오천 공영주차장 전기차 충전소",
      "address": "서울특별시 강북구 한천로150길 20",
      "lat": "37.643511505",
      "lng": "127.02376610",
      "total_count": 1,
      "available_count": 1,
      "total_percent": 100.0,
      "slow_total": 1,
      "slow_avail": 1,
      "slow_percent": 100.0,
      "fast_total": 0,
      "fast_avail": 0,
      "fast_percent": 0.0,
      "latest_update": "20260713151821"
    },
    {
      "station_id": "SE000053",
      "name": "으뜸공원 공영주차장 전기차 충전소",
      "address": "서울특별시 강북구 솔샘로67길 33",
      "lat": "37.618846064",
      "lng": "127.02808514",
      "total_count": 1,
      "available_count": 0,
      "total_percent": 0.0,
      "slow_total": 1,
      "slow_avail": 0,
      "slow_percent": 0.0,
      "fast_total": 0,
      "fast_avail": 0,
      "fast_percent": 0.0,
      "latest_update": "20260713171221"
    },
    {
      "station_id": "SE000221",
      "name": "번동햇살 공영주차장",
      "address": "서울특별시 강북구 오현로21길 84",
      "lat": "37.625100413",
      "lng": "127.03340594",
      "total_count": 1,
      "available_count": 1,
      "total_percent": 100.0,
      "slow_total": 0,
      "slow_avail": 0,
      "slow_percent": 0.0,
      "fast_total": 1,
      "fast_avail": 1,
      "fast_percent": 100.0,
      "latest_update": "20260713123521"
    },