{
  "district": "강동구",
  "zscode": "11740",
  "summary": {
    "total_count": 2966,
    "available_count": 2300,
    "total_percent": 77.5,
    "slow_total": 2804,
    "slow_avail": 2171,
    "slow_percent": 77.4,
    "fast_total": 162,
    "fast_avail": 129,
    "fast_percent": 79.6,
    "station_count": 462
  },
  "stations": [
    {
      "station_id": "NT102885",
      "name": "강동 고덕아르테온1",
      "address": "서울특별시 강동구 고덕로 360",
      "lat": "37.554755",
      "lng": "127.168144",
      "total_count": 98,
      "available_count": 83,
      "total_percent": 84.7,
      "slow_total": 98,
      "slow_avail": 83,
      "slow_percent": 84.7,
      "fast_total": 0,
      "fast_avail": 0,
      "fast_percent": 0.0,
      "latest_update": "20260713195950"
    },
    {
      "station_id": "LU101683",
      "name": "고덕그라시움",
      "address": "서울특별시 강동구 고덕로 333",
      "lat": "37.5561771",
      "lng": "127.1591766",
      "total_count": 96,
      "available_count": 62,
      "total_percent": 64.6,
      "slow_total": 96,
      "slow_avail": 62,
      "slow_percent": 64.6,
      "fast_total": 0,
      "fast_avail": 0,
      "fast_percent": 0.0,
      "latest_update": "20260713201157"
    },
    {
      "station_id": "PI200872",
      "name": "서울시 강동구 강동롯데캐슬",
      "address": "서울특별시 강동구 고덕로 131",
      "lat": "37.556594383",
      "lng": "127.14294293",
      "total_count": 86,
      "available_count": 65,
      "total_percent": 75.6,
      "slow_total": 86,
      "slow_avail": 65,
      "slow_percent": 75.6,
      "fast_total": 0,
      "fast_avail": 0,
      "fast_percent": 0.0,
      "latest_update": "20260713200828"
    },
    {
      "station_id": "PIH00213",
      "name": "고덕자이아파트",
      "address": "서울특별시 강동구 상일로 55",
      "lat": "37.552426694",
      "lng": "127.17052832",
      "total_count": 83,
      "available_count": 75,
      "total_percent": 90.4,
      "slow_total": 83,
      "slow_avail": 75,
      "slow_percent": 90.4,
      "fast_total": 0,
      "fast_avail": 0,
      "fast_percent": 0.0,
      "latest_update": "20260713200947"
    },
    {
      "station_id": "NT102886",
      "name": "강동 고덕아르테온2",
      "address": "서울특별시 강동구 고덕로 360",
      "lat": "37.555271",
      "lng": "127.169316",
      "total_count": 77,
      "available_count": 69,
      "total_percent": 89.6,
      "slow_total": 77,
      "slow_avail": 69,
      "slow_percent": 89.6,
      "fast_total": 0,
      "fast_avail": 0,
      "fast_percent": 0.0,
      "latest_update": "20260713195450"
    },
    {
      "station_id": "SF001218",
      "name": "고덕 롯데 캐슬 베네루체",
      "address": "서울특별시 강동구 상암로79길 88",
      "lat": "37.550204717",
      "lng": "127.16605923",
      "total_count": 70,
      "available_count": 68,
      "total_percent": 97.1,
      "slow_total": 70,
      "slow_avail": 68,
      "slow_percent": 97.1,
      "fast_total": 0,
      "fast_avail": 0,
      "fast_percent": 0.0,
      "latest_update": "20260713172215"
    },
    {
      "station_id": "SF001219",
      "name": "래미안솔베뉴아파트",
      "address": "서울특별시 강동구 양재대로 1650",
      "lat": "37.554389878",
      "lng": "127.14591808",
      "total_count": 70,
      "available_count": 69,
      "total_percent": 98.6,
      "slow_total": 70,
      "slow_avail": 69,
      "slow_percent": 98.6,
      "fast_total": 0,
      "fast_avail": 0,
      "fast_percent": 0.0,
      "latest_update": "20260713175929"
    },
    {
      "station_id": "SF001438",
      "name": "선사현대아파트",
      "address": "서울특별시 강동구 상암로 11",
      "lat": "37.5534475",
      "lng": "127.12566",
      "total_count": 70,
      "available_count": 70,
      "total_percent": 100.0,
      "slow_total": 70,
      "slow_avail": 70,
      "slow_percent": 100.0,
      "fast_total": 0,
      "fast_avail": 0,
      "fast_percent": 0.0,
      "latest_update": "20260713092947"
    },
    {
      "station_id": "PIH00134",
      "name": "강동현대홈타운아파트",
      "address": "서울특별시 강동구 고덕로27길 36",
      "lat": "37.555809500",
      "lng": "127.13846520",
      "total_count": 56,
      "available_count": 55,
      "total_percent": 98.2,
      "slow_total": 56,
      "slow_avail": 55,
      "slow_percent": 98.2,
      "fast_total": 0,
      "fast_avail": 0,
      "fast_percent": 0.0,
      "latest_update": "20260713183721"
    },
    {
      "station_id": "PWE05812",
      "name": "고덕그라시움아파트1블럭(101-139동)",
      "address": "서울특별시 강동구 고덕로 333",
      "lat": "37.55738",
      "lng": "127.16399",
      "total_count": 51,
      "available_count": 43,
      "total_percent": 84.3,
      "slow_total": 51,
      "slow_avail": 43,
      "slow_percent": 84.3,
      "fast_total": 0,
      "fast_avail": 0,
      "fast_percent": 0.0,
      "latest_update": "20260713200510"
    },
    {
      "station_id": "LU001732",
      "name": "선사현대아파트",
      "address": "서울특별시 강동구 상암로 11",
      "lat": "37.553447",
      "lng": "127.12566",
      "total_count": 50,
      "available_count": 46,
      "total_percent": 92.0,
      "slow_total": 50,
      "slow_avail": 46,
      "slow_percent": 92.0,
      "fast_total": 0,
      "fast_avail": 0,
      "fast_percent": 0.0,
      "latest_update": "20260713192338"
    },
    {
      "station_id": "PI707758",
      "name": "고덕센트럴아이파크",
      "address": "서울특별시 강동구 고덕로80길 99",
      "lat": "37.5507927",
      "lng": "127.1664048",
      "total_count": 48,
      "available_count": 37,
      "total_percent": 77.1,
      "slow_total": 48,
      "slow_avail": 37,
      "slow_percent": 77.1,
      "fast_total": 0,
      "fast_avail": 0,
      "fast_percent": 0.0,
      "latest_update": "20260713200015"
    },
    {
      "station_id": "HM000455",
      "name": "프라이어팰리스",
      "address": "서울특별시 강동구 고덕로 130",
      "lat": "37.5544898",
      "lng": "127.1398256",
      "total_count": 41,
      "available_count": 27,
      "total_percent": 65.9,
      "slow_total": 41,
      "slow_avail": 27,
      "slow_percent": 65.9,
      "fast_total": 0,
      "fast_avail": 0,
      "fast_percent": 0.0,
      "latest_update": "20260713195606"
    },
    {
      "station_id": "SF001388",
      "name": "강동 현대 홈타운",
      "address": "서울특별시 강동구 고덕로27길 36",
      "lat": "37.5568885",
      "lng": "127.1384371",
      "total_count": 41,
      "available_count": 41,
      "total_percent": 100.0,
      "slow_total": 41,
      "slow_avail": 41,
      "slow_percent": 100.0,
      "fast_total": 0,
      "fast_avail": 0,
      "fast_percent": 0.0,
      "latest_update": "20260711131610"
    },
    {
      "station_id": "NT102586",
      "name": "강동 고덕리엔파크3단지",
      "address": "서울특별시 강동구 상일로 74",
      "lat": "37.55136",
      "lng": "127.17478",
      "total_count": 40,
      "available_count": 25,
      "total_percent": 62.5,
      "slow_total": 40,
      "slow_avail": 25,
      "slow_percent": 62.5,
      "fast_total": 0,
      "fast_avail": 0,
      "fast_percent": 0.0,
      "latest_update": "20260713200950"
    },
    {
      "station_id": "PC001220",
      "name": "강동아이파크더리버 판매동",
      "address": "서울특별시 강동구 고덕비즈밸리로 51",
      "lat": "37.5662435",
      "lng": "127.15756",
      "total_count": 40,
      "available_count": 29,
      "total_percent": 72.5,
      "slow_total": 39,
      "slow_avail": 29,
      "slow_percent": 74.4,
      "fast_total": 1,
      "fast_avail": 0,
      "fast_percent": 0.0,
      "latest_update": "20260713201037"
    },
    {
      "station_id": "PIH00248",
      "name": "고덕센트럴푸르지오아파트",
      "address": "서울특별시 강동구 고덕로 399",
      "lat": "37.5576095",
      "lng": "127.1699516",
      "total_count": 33,
      "available_count": 23,
      "total_percent": 69.7,
      "slow_total": 33,
      "slow_avail": 23,
      "slow_percent": 69.7,
      "fast_total": 0,
      "fast_avail": 0,
      "fast_percent": 0.0,
      "latest_update": "20260713200943"
    },
    {
      "station_id": "PWE00564",
      "name": "둔촌푸르지오아파트",
      "address": "서울특별시 강동구 명일로 172",
      "lat": "37.53414",
      "lng": "127.14507",
      "total_count": 32,
      "available_count": 31,
      "total_percent": 96.9,
      "slow_total": 32,
      "slow_avail": 31,
      "slow_percent": 96.9,
      "fast_total": 0,
      "fast_avail": 0,
      "fast_percent": 0.0,
      "latest_update": "20260713195610"
    },
    {
      "station_id": "SF002062",
      "name": "선사현대아파트 (2)",
      "address": "서울특별시 강동구 상암로 11",
      "lat": "37.553447487",
      "lng": "127.12566001",
      "total_count": 31,
      "available_count": 30,
      "total_percent": 96.8,
      "slow_total": 31,
      "slow_avail": 30,
      "slow_percent": 96.8,
      "fast_total": 0,
      "fast_avail": 0,
      "fast_percent": 0.0,
      "latest_update": "20260713193425"
    },
    {
      "station_id": "CO000019",
      "name": "한전KDN 서울",
      "address": "서울특별시 강동구 고덕비즈밸리로2가길 50",
      "lat": "37.554922",
      "lng": "127.1356797",
      "total_count": 26,
      "available_count": 21,
      "total_percent": 80.8,
      "slow_total": 18,
      "slow_avail": 16,
      "slow_percent": 88.9,
      "fast_total": 8,
      "fast_avail": 5,
      "fast_percent": 62.5,
      "latest_update": "20260713181200"
    },
    {
      "station_id": "HM110250",
      "name": "천호2동주민센터",
      "address": "서울특별시 강동구 올림픽로80길 60",
      "lat": "37.5424086",
      "lng": "127.1283202",
      "total_count": 24,
      "available_count": 18,
      "total_percent": 75.0,
      "slow_total": 22,
      "slow_avail": 17,
      "slow_percent": 77.3,
      "fast_total": 2,
      "fast_avail": 1,
      "fast_percent": 50.0,
      "latest_update": "20260713193820"
    },
    {
      "station_id": "LU100308",
      "name": "강동리버스트6단지",
      "address": "서울특별시 강동구 아리수로93가길 77",
      "lat": "37.5697361",
      "lng": "127.1715778",
      "total_count": 23,
      "available_count": 20,
      "total_percent": 87.0,
      "slow_total": 23,
      "slow_avail": 20,
      "slow_percent": 87.0,
      "fast_total": 0,
      "fast_avail": 0,
      "fast_percent": 0.0,
      "latest_update": "20260713192557"
    },
    {
      "station_id": "PL033100",
      "name": "래미안 솔베뉴",
      "address": "서울 강동구 양재대로 1650",
      "lat": "37.5543789",
      "lng": "127.1459442",
      "total_count": 22,
      "available_count": 11,
      "total_percent": 50.0,
      "slow_total": 22,
      "slow_avail": 11,
      "slow_percent": 50.0,
      "fast_total": 0,
      "fast_avail": 0,
      "fast_percent": 0.0,
      "latest_update": "20260713200825"
    },
    {
      "station_id": "CV002673",
      "name": "천호역공영주차장",
      "address": "서울특별시 강동구 천호대로 997",
      "lat": "37.538494",
      "lng": "127.125109",
      "total_count": 21,
      "available_count": 12,
      "total_percent": 57.1,
      "slow_total": 19,
      "slow_avail": 11,
      "slow_percent": 57.9,
      "fast_total": 2,
      "fast_avail": 1,
      "fast_percent": 50.0,
      "latest_update": "20260713195536"
    },
    {
      "station_id": "PI808443",
      "name": "서울 강동구 삼성아파트",
      "address": "서울특별시 강동구 풍성로 128",
      "lat": "37.5299440",
      "lng": "127.1259811",
      "total_count": 21,
      "available_count": 13,
      "total_percent": 61.9,
      "slow_total": 21,
      "slow_avail": 13,
      "slow_percent": 61.9,
      "fast_total": 0,
      "fast_avail": 0,
      "fast_percent": 0.0,
      "latest_update": "20260713194334"
    },
    {
      "station_id": "LU001639",
      "name": "GS강동자이",
      "address": "서울특별시 강동구 천호대로 1239",
      "lat": "37.53772",
      "lng": "127.14918",
      "total_count": 20,
      "available_count": 17,
      "total_percent": 85.0,
      "slow_total": 20,
      "slow_avail": 17,
      "slow_percent": 85.0,
      "fast_total": 0,
      "fast_avail": 0,
      "fast_percent": 0.0,
      "latest_update": "20260713193519"
    },
    {
      "station_id": "LU101684",
      "name": "고덕그라시움 (126동134동)",
      "address": "서울특별시 강동구 고덕로 333",
      "lat": "37.5561771",
      "lng": "127.1591766",
      "total_count": 20,
      "available_count": 13,
      "total_percent": 65.0,
      "slow_total": 20,
      "slow_avail": 13,
      "slow_percent": 65.0,
      "fast_total": 0,
      "fast_avail": 0,
      "fast_percent": 0.0,
      "latest_update": "20260713200527"
    },
    {
      "station_id": "NT100279",
      "name": "강동 선사현대아파트",
      "address": "서울특별시 강동구 상암로 11",
      "lat": "37.5500039",
      "lng": "127.125321",
      "total_count": 20,
      "available_count": 8,
      "total_percent": 40.0,
      "slow_total": 20,
      "slow_avail": 8,
      "slow_percent": 40.0,
      "fast_total": 0,
      "fast_avail": 0,
      "fast_percent": 0.0,
      "latest_update": "20260713200150"
    },
    {
      "station_id": "PL032803",
      "name": "힐스테이트 천호역 젠트리스",
      "address": "서울 강동구 천호대로 1024",
      "lat": "37.5373739",
      "lng": "127.1257289",
      "total_count": 20,
      "available_count": 12,
      "total_percent": 60.0,
      "slow_total": 20,
      "slow_avail": 12,
      "slow_percent": 60.0,
      "fast_total": 0,
      "fast_avail": 0,
      "fast_percent": 0.0,
      "latest_update": "20260713195323"
    },
    {
      "station_id": "SZBA0018",
      "name": "(22년) 신명운수(버스전용)",
      "address": "서울특별시 강동구 아리수로 426",
      "lat": "37.5631193",
      "lng": "127.175043",
      "total_count": 20,
      "available_count": 20,
      "total_percent": 100.0,
      "slow_total": 0,
      "slow_avail": 0,
      "slow_percent": 0.0,
      "fast_total": 20,
      "fast_avail": 20,
      "fast_percent": 100.0,
      "latest_update": "20260713200507"
    },
    {
      "station_id": "PL033655",
      "name": "둔촌푸르지오아파트",
      "address": "서울 강동구 명일로 172",
      "lat": "37.5341382",
      "lng": "127.1450708",
      "total_count": 19,
      "available_count": 19,
      "total_percent": 100.0,
      "slow_total": 19,
      "slow_avail": 19,
      "slow_percent": 100.0,
      "fast_total": 0,
      "fast_avail": 0,
      "fast_percent": 0.0,
      "latest_update": "20260627122351"
    },
    {
      "station_id": "PWE05813",
      "name": "고덕그라시움아파트2블럭(140-153동)",
      "address": "서울특별시 강동구 고덕로 333",
      "lat": "37.55777",
      "lng": "127.166596",
      "total_count": 19,
      "available_count": 19,
      "total_percent": 100.0,
      "slow_total": 19,
      "slow_avail": 19,
      "slow_percent": 100.0,
      "fast_total": 0,
      "fast_avail": 0,
      "fast_percent": 0.0,
      "latest_update": "20260713044311"
    },
    {
      "station_id": "PC001221",
      "name": "강동아이파크더리버 업무동",
      "address": "서울특별시 강동구 고덕비즈밸리로 51",
      "lat": "37.566261526",
      "lng": "127.15753105",
      "total_count": 18,
      "available_count": 10,
      "total_percent": 55.6,
      "slow_total": 17,
      "slow_avail": 9,
      "slow_percent": 52.9,
      "fast_total": 1,
      "fast_avail": 1,
      "fast_percent": 100.0,
      "latest_update": "20260713193423"
    },
    {
      "station_id": "PL000746",
      "name": "명일지에스아파트",
      "address": "서울특별시 강동구 상암로51길 54",
      "lat": "37.5493634",
      "lng": "127.1465279",
      "total_count": 18,
      "available_count": 14,
      "total_percent": 77.8,
      "slow_total": 18,
      "slow_avail": 14,
      "slow_percent": 77.8,
      "fast_total": 0,
      "fast_avail": 0,
      "fast_percent": 0.0,
      "latest_update": "20260713180203"
    },
    {
      "station_id": "KL002047",
      "name": "고덕그라시움아파트",
      "address": "서울특별시 강동구 고덕로 333",
      "lat": "37.557472",
      "lng": "127.1622105",
      "total_count": 16,
      "available_count": 14,
      "total_percent": 87.5,
      "slow_total": 16,
      "slow_avail": 14,
      "slow_percent": 87.5,
      "fast_total": 0,
      "fast_avail": 0,
      "fast_percent": 0.0,
      "latest_update": "20260713200301"
    },
    {
      "station_id": "LU001236",
      "name": "강일리버파크10단지",
      "address": "서울특별시 강동구 고덕로97길 20",
      "lat": "37.559208",
      "lng": "127.179998",
      "total_count": 16,
      "available_count": 13,
      "total_percent": 81.2,
      "slow_total": 16,
      "slow_avail": 13,
      "slow_percent": 81.2,
      "fast_total": 0,
      "fast_avail": 0,
      "fast_percent": 0.0,
      "latest_update": "20260713184730"
    },
    {
      "station_id": "PL031171",
      "name": "서울 중앙보훈병원",
      "address": "서울 강동구 진황도로61길 53",
      "lat": "37.5284638",
      "lng": "127.1479256",
      "total_count": 16,
      "available_count": 15,
      "total_percent": 93.8,
      "slow_total": 14,
      "slow_avail": 13,
      "slow_percent": 92.9,
      "fast_total": 2,
      "fast_avail": 2,
      "fast_percent": 100.0,
      "latest_update": "20260713175055"
    },
    {
      "station_id": "JA110104",
      "name": "(출입제한)삼성엔지니어링 글로벌 엔지니어센터 지하 2층",
      "address": "서울특별시 강동구 상일로6길 26",
      "lat": "37.5489911",
      "lng": "127.1755223",
      "total_count": 15,
      "available_count": 14,
      "total_percent": 93.3,
      "slow_total": 11,
      "slow_avail": 10,
      "slow_percent": 90.9,
      "fast_total": 4,
      "fast_avail": 4,
      "fast_percent": 100.0,
      "latest_update": "20260713200710"
    },
    {
      "station_id": "JA110105",
      "name": "(출입제한)삼성엔지니어링 글로벌 엔지니어센터 지하 3층",
      "address": "서울특별시 강동구 상일로6길 26",
      "lat": "37.5490626",
      "lng": "127.1759242",
      "total_count": 15,
      "available_count": 12,
      "total_percent": 80.0,
      "slow_total": 15,
      "slow_avail": 12,
      "slow_percent": 80.0,
      "fast_total": 0,
      "fast_avail": 0,
      "fast_percent": 0.0,
      "latest_update": "20260713192808"
    },
    {
      "station_id": "PWE01147",
      "name": "성내동신일유토빌아파트",
      "address": "서울특별시 강동구 양재대로81길 16",
      "lat": "37.523135344",
      "lng": "127.13337379",
      "total_count": 15,
      "available_count": 15,
      "total_percent": 100.0,
      "slow_total": 15,
      "slow_avail": 15,
      "slow_percent": 100.0,
      "fast_total": 0,
      "fast_avail": 0,
      "fast_percent": 0.0,
      "latest_update": "20260712084810"
    },
    {
      "station_id": "HY000406",
      "name": "강동 현대홈타운",
      "address": "서울특별시 강동구 고덕로27길 36",
      "lat": "37.556566",
      "lng": "127.138856",
      "total_count": 14,
      "available_count": 9,
      "total_percent": 64.3,
      "slow_total": 14,
      "slow_avail": 9,
      "slow_percent": 64.3,
      "fast_total": 0,
      "fast_avail": 0,
      "fast_percent": 0.0,
      "latest_update": "20260713200304"
    },
    {
      "station_id": "HY001378",
      "name": "강동 강일리버파크6단지",
      "address": "서울특별시 강동구 아리수로94길 19",
      "lat": "37.5637808",
      "lng": "127.1764946",
      "total_count": 13,
      "available_count": 12,
      "total_percent": 92.3,
      "slow_total": 13,
      "slow_avail": 12,
      "slow_percent": 92.3,
      "fast_total": 0,
      "fast_avail": 0,
      "fast_percent": 0.0,
      "latest_update": "20260713151205"
    },
    {
      "station_id": "HY001696",
      "name": "강동 고덕자이",
      "address": "서울특별시 강동구 상일로 55",
      "lat": "37.5533182",
      "lng": "127.1687882",
      "total_count": 13,
      "available_count": 8,
      "total_percent": 61.5,
      "slow_total": 13,
      "slow_avail": 8,
      "slow_percent": 61.5,
      "fast_total": 0,
      "fast_avail": 0,
      "fast_percent": 0.0,
      "latest_update": "20260713200104"
    },
    {
      "station_id": "NT101537",
      "name": "홈플러스 강동점 (천호복합상업시설)",
      "address": "서울특별시 강동구 양재대로 1571",
      "lat": "37.54571",
      "lng": "127.14225",
      "total_count": 13,
      "available_count": 9,
      "total_percent": 69.2,
      "slow_total": 11,
      "slow_avail": 7,
      "slow_percent": 63.6,
      "fast_total": 2,
      "fast_avail": 2,
      "fast_percent": 100.0,
      "latest_update": "20260713200050"
    },
    {
      "station_id": "NT101586",
      "name": "강동역 신동아파밀리에",
      "address": "서울특별시 강동구 천호대로 1089",
      "lat": "37.5366",
      "lng": "127.13311",
      "total_count": 13,
      "available_count": 12,
      "total_percent": 92.3,
      "slow_total": 13,
      "slow_avail": 12,
      "slow_percent": 92.3,
      "fast_total": 0,
      "fast_avail": 0,
      "fast_percent": 0.0,
      "latest_update": "20260713180250"
    },
    {
      "station_id": "PI204180",
      "name": "서울시 강동구 강일리버파크7단지",
      "address": "서울특별시 강동구 아리수로98길 25",
      "lat": "37.5652906",
      "lng": "127.1782119",
      "total_count": 13,
      "available_count": 10,
      "total_percent": 76.9,
      "slow_total": 13,
      "slow_avail": 10,
      "slow_percent": 76.9,
      "fast_total": 0,
      "fast_avail": 0,
      "fast_percent": 0.0,
      "latest_update": "20260713185137"
    },
    {
      "station_id": "EV006067",
      "name": "서울강동 강일리버파크4단지아파트",
      "address": "서울특별시 강동구 아리수로97길 19",
      "lat": "37.5669952",
      "lng": "127.1767913",
      "total_count": 12,
      "available_count": 3,
      "total_percent": 25.0,
      "slow_total": 12,
      "slow_avail": 3,
      "slow_percent": 25.0,
      "fast_total": 0,
      "fast_avail": 0,
      "fast_percent": 0.0,
      "latest_update": "20260713194848"
    },
    {
      "station_id": "EV011750",
      "name": "서울강동 강동리엔파크14단지아파트",
      "address": "서울특별시 강동구 고덕로98길 160",
      "lat": "37.551090043",
      "lng": "127.18083713",
      "total_count": 12,
      "available_count": 9,
      "total_percent": 75.0,
      "slow_total": 12,
      "slow_avail": 9,
      "slow_percent": 75.0,
      "fast_total": 0,
      "fast_avail": 0,
      "fast_percent": 0.0,
      "latest_update": "20260713194446"
    },
    {
      "station_id": "LU002998",
      "name": "고덕리엔파크2단지아파트",
      "address": "서울특별시 강동구 고덕로 427",
      "lat": "37.558797",
      "lng": "127.173182",
      "total_count": 12,
      "available_count": 7,
      "total_percent": 58.3,
      "slow_total": 12,
      "slow_avail": 7,
      "slow_percent": 58.3,
      "fast_total": 0,
      "fast_avail": 0,
      "fast_percent": 0.0,
      "latest_update": "20260713183532"
    },
    {
      "station_id": "PC000718",
      "name": "강일리버파크9단지아파트(강동)",
      "address": "서울특별시 강동구 고덕로97길 29",
      "lat": "37.558354",
      "lng": "127.1778326",
      "total_count": 12,
      "available_count": 10,
      "total_percent": 83.3,
      "slow_total": 11,
      "slow_avail": 9,
      "slow_percent": 81.8,
      "fast_total": 1,
      "fast_avail": 1,
      "fast_percent": 100.0,
      "latest_update": "20260713182835"
    },
    {
      "station_id": "PI715314",
      "name": "강일리버파크6단지",
      "address": "서울특별시 강동구 아리수로94길 19",
      "lat": "37.562733",
      "lng": "127.1772602",
      "total_count": 12,
      "available_count": 9,
      "total_percent": 75.0,
      "slow_total": 12,
      "slow_avail": 9,
      "slow_percent": 75.0,
      "fast_total": 0,
      "fast_avail": 0,
      "fast_percent": 0.0,
      "latest_update": "20260713201050"
    },
    {
      "station_id": "PI772795",
      "name": "성내올림픽파크한양수자인아파트",
      "address": "서울특별시 강동구 성내로 80",
      "lat": "37.5271796",
      "lng": "127.1279653",
      "total_count": 12,
      "available_count": 3,
      "total_percent": 25.0,
      "slow_total": 12,
      "slow_avail": 3,
      "slow_percent": 25.0,
      "fast_total": 0,
      "fast_avail": 0,
      "fast_percent": 0.0,
      "latest_update": "20260713201009"
    },
    {
      "station_id": "PI796282",
      "name": "서울 강동구 길동현대아파트",
      "address": "서울특별시 강동구 천호대로 1231",
      "lat": "37.5363853",
      "lng": "127.147066",
      "total_count": 12,
      "available_count": 10,
      "total_percent": 83.3,
      "slow_total": 12,
      "slow_avail": 10,
      "slow_percent": 83.3,
      "fast_total": 0,
      "fast_avail": 0,
      "fast_percent": 0.0,
      "latest_update": "20260713175306"
    },
    {
      "station_id": "PIH00012",
      "name": "도림시티빌아파트",
      "address": "서울특별시 강동구 명일로 238",
      "lat": "37.539818900",
      "lng": "127.14695380",
      "total_count": 12,
      "available_count": 11,
      "total_percent": 91.7,
      "slow_total": 12,
      "slow_avail": 11,
      "slow_percent": 91.7,
      "fast_total": 0,
      "fast_avail": 0,
      "fast_percent": 0.0,
      "latest_update": "20260713155726"
    },
    {
      "station_id": "SF000200",
      "name": "강일리버파크 1단지 지하주차장",
      "address": "서울특별시 강동구 아리수로93가길 25",
      "lat": "37.567623",
      "lng": "127.171875",
      "total_count": 12,
      "available_count": 10,
      "total_percent": 83.3,
      "slow_total": 12,
      "slow_avail": 10,
      "slow_percent": 83.3,
      "fast_total": 0,
      "fast_avail": 0,
      "fast_percent": 0.0,
      "latest_update": "20260713200443"
    },
    {
      "station_id": "LU101061",
      "name": "천호동아하이빌아파트",
      "address": "서울특별시 강동구 구천면로 278",
      "lat": "37.54464714",
      "lng": "127.13388148",
      "total_count": 11,
      "available_count": 10,
      "total_percent": 90.9,
      "slow_total": 11,
      "slow_avail": 10,
      "slow_percent": 90.9,
      "fast_total": 0,
      "fast_avail": 0,
      "fast_percent": 0.0,
      "latest_update": "20260713143043"
    },
    {
      "station_id": "LU101477",
      "name": " 천호동아하이빌",
      "address": "서울특별시 강동구 구천면로 278",
      "lat": "37.5446471",
      "lng": "127.1338815",
      "total_count": 11,
      "available_count": 10,
      "total_percent": 90.9,
      "slow_total": 11,
      "slow_avail": 10,
      "slow_percent": 90.9,
      "fast_total": 0,
      "fast_avail": 0,
      "fast_percent": 0.0,
      "latest_update": "20260713191355"
    },
    {
      "station_id": "PWE01132",
      "name": "명일서희스타힐스오피스텔",
      "address": "서울특별시 강동구 동남로 881",
      "lat": "37.55229",
      "lng": "127.15",
      "total_count": 11,
      "available_count": 10,
      "total_percent": 90.9,
      "slow_total": 11,
      "slow_avail": 10,
      "slow_percent": 90.9,
      "fast_total": 0,
      "fast_avail": 0,
      "fast_percent": 0.0,
      "latest_update": "20260713201012"
    },
    {
      "station_id": "BNBN0904",
      "name": "서울 둔촌주공",
      "address": "서울특별시 강동구 양재대로84길 63",
      "lat": "37.524521",
      "lng": "127.136390",
      "total_count": 10,
      "available_count": 10,
      "total_percent": 100.0,
      "slow_total": 0,
      "slow_avail": 0,
      "slow_percent": 0.0,
      "fast_total": 10,
      "fast_avail": 10,
      "fast_percent": 100.0,
      "latest_update": "20260713025238"
    },
    {
      "station_id": "EC000217",
      "name": "래미안솔베뉴 110동 B3",
      "address": "서울특별시 강동구 양재대로 1650",
      "lat": "37.5527946",
      "lng": "127.1444182",
      "total_count": 10,
      "available_count": 9,
      "total_percent": 90.0,
      "slow_total": 10,
      "slow_avail": 9,
      "slow_percent": 90.0,
      "fast_total": 0,
      "fast_avail": 0,
      "fast_percent": 0.0,
      "latest_update": "20260713164201"
    },
    {
      "station_id": "EV006692",
      "name": "서울강동 대우한강베네시티",
      "address": "서울특별시 강동구 올림픽로 664",
      "lat": "37.5405554",
      "lng": "127.1249758",
      "total_count": 10,
      "available_count": 10,
      "total_percent": 100.0,
      "slow_total": 10,
      "slow_avail": 10,
      "slow_percent": 100.0,
      "fast_total": 0,
      "fast_avail": 0,
      "fast_percent": 0.0,
      "latest_update": "20260713181140"
    },
    {
      "station_id": "EV011948",
      "name": "서울강동 강일리버파크3단지 1",
      "address": "서울특별시 강동구 아리수로93길 40 (강일동, 강일리버파크3단지아파트) ",
      "lat": "37.5655171",
      "lng": "127.1751066",
      "total_count": 10,
      "available_count": 9,
      "total_percent": 90.0,
      "slow_total": 10,
      "slow_avail": 9,
      "slow_percent": 90.0,
      "fast_total": 0,
      "fast_avail": 0,
      "fast_percent": 0.0,
      "latest_update": "20260713183557"
    },
    {
      "station_id": "LU003214",
      "name": "명일신동아아파트",
      "address": "서울특별시 강동구 고덕로 240",
      "lat": "37.553824",
      "lng": "127.151914",
      "total_count": 10,
      "available_count": 7,
      "total_percent": 70.0,
      "slow_total": 10,
      "slow_avail": 7,
      "slow_percent": 70.0,
      "fast_total": 0,
      "fast_avail": 0,
      "fast_percent": 0.0,
      "latest_update": "20260713200241"
    },
    {
      "station_id": "LU101641",
      "name": "고덕롯데캐슬베네루체",
      "address": "서울특별시 강동구 상암로79길 88",
      "lat": "37.5502047",
      "lng": "127.1660592",
      "total_count": 10,
      "available_count": 2,
      "total_percent": 20.0,
      "slow_total": 10,
      "slow_avail": 2,
      "slow_percent": 20.0,
      "fast_total": 0,
      "fast_avail": 0,
      "fast_percent": 0.0,
      "latest_update": "20260713201159"
    },
    {
      "station_id": "PC000416",
      "name": "강동경희대학교병원",
      "address": "서울특별시 강동구 동남로 892",
      "lat": "37.5535168",
      "lng": "127.1576435",
      "total_count": 10,
      "available_count": 9,
      "total_percent": 90.0,
      "slow_total": 9,
      "slow_avail": 8,
      "slow_percent": 88.9,
      "fast_total": 1,
      "fast_avail": 1,
      "fast_percent": 100.0,
      "latest_update": "20260713183415"
    },
    {
      "station_id": "PC001244",
      "name": "강동U1센터",
      "address": "서울특별시 강동구 고덕비즈밸리로 26",
      "lat": "37.565205742",
      "lng": "127.16047274",
      "total_count": 10,
      "available_count": 9,
      "total_percent": 90.0,
      "slow_total": 9,
      "slow_avail": 8,
      "slow_percent": 88.9,
      "fast_total": 1,
      "fast_avail": 1,
      "fast_percent": 100.0,
      "latest_update": "20260713194018"
    },
    {
      "station_id": "PI707040",
      "name": "선사현대아파트",
      "address": "서울특별시 강동구 상암로 11",
      "lat": "37.5523954",
      "lng": "127.1258164",
      "total_count": 10,
      "available_count": 6,
      "total_percent": 60.0,
      "slow_total": 10,
      "slow_avail": 6,
      "slow_percent": 60.0,
      "fast_total": 0,
      "fast_avail": 0,
      "fast_percent": 0.0,
      "latest_update": "20260713193033"
    },
    {
      "station_id": "PIH00014",
      "name": "유원아파트",
      "address": "서울특별시 강동구 상암로12길 24",
      "lat": "37.548706300",
      "lng": "127.12781650",
      "total_count": 10,
      "available_count": 9,
      "total_percent": 90.0,
      "slow_total": 10,
      "slow_avail": 9,
      "slow_percent": 90.0,
      "fast_total": 0,
      "fast_avail": 0,
      "fast_percent": 0.0,
      "latest_update": "20260713131231"
    },
    {
      "station_id": "PL033125",
      "name": "둔촌신성미소지움1차",
      "address": "서울 강동구 명일로 104",
      "lat": "37.5283138",
      "lng": "127.1425257",
      "total_count": 10,
      "available_count": 7,
      "total_percent": 70.0,
      "slow_total": 10,
      "slow_avail": 7,
      "slow_percent": 70.0,
      "fast_total": 0,
      "fast_avail": 0,
      "fast_percent": 0.0,
      "latest_update": "20260713193159"
    },
    {
      "station_id": "PW014938",
      "name": "고덕리엔파크3단지아파트입주자대표회의",
      "address": "서울특별시 강동구 상일로 74",
      "lat": "37.551368374",
      "lng": "127.17478552",
      "total_count": 10,
      "available_count": 10,
      "total_percent": 100.0,
      "slow_total": 10,
      "slow_avail": 10,
      "slow_percent": 100.0,
      "fast_total": 0,
      "fast_avail": 0,
      "fast_percent": 0.0,
      "latest_update": "20260712190839"
    },
    {
      "station_id": "EV007705",
      "name": "서울강동 삼성광나루아파트",
      "address": "서울특별시 강동구 상암로3길 77",
      "lat": "37.5541715",
      "lng": "127.1272373",
      "total_count": 9,
      "available_count": 7,
      "total_percent": 77.8,
      "slow_total": 9,
      "slow_avail": 7,
      "slow_percent": 77.8,
      "fast_total": 0,
      "fast_avail": 0,
      "fast_percent": 0.0,
      "latest_update": "20260713172708"
    },
    {
      "station_id": "PI700597",
      "name": "강동롯데캐슬퍼스트아파트",
      "address": "서울특별시 강동구 고덕로 131",
      "lat": "37.557063870",
      "lng": "127.14399919",
      "total_count": 9,
      "available_count": 7,
      "total_percent": 77.8,
      "slow_total": 5,
      "slow_avail": 3,
      "slow_percent": 60.0,
      "fast_total": 4,
      "fast_avail": 4,
      "fast_percent": 100.0,
      "latest_update": "20260713175502"
    },
    {
      "station_id": "NT102839",
      "name": "강동 이스트센트럴타워",
      "address": "서울특별시 강동구 천호대로 1077",
      "lat": "37.53725",
      "lng": "127.13143",
      "total_count": 8,
      "available_count": 7,
      "total_percent": 87.5,
      "slow_total": 8,
      "slow_avail": 7,
      "slow_percent": 87.5,
      "fast_total": 0,
      "fast_avail": 0,
      "fast_percent": 0.0,
      "latest_update": "20260713190850"
    },
    {
      "station_id": "PI200708",
      "name": "서울시 강동구 강동리버스트6단지",
      "address": "서울특별시 강동구 아리수로93가길 77",
      "lat": "37.5697361",
      "lng": "127.1715778",
      "total_count": 8,
      "available_count": 8,
      "total_percent": 100.0,
      "slow_total": 6,
      "slow_avail": 6,
      "slow_percent": 100.0,
      "fast_total": 2,
      "fast_avail": 2,
      "fast_percent": 100.0,
      "latest_update": "20260713090141"
    },
    {
      "station_id": "PIH00146",
      "name": "삼익아파트",
      "address": "서울특별시 강동구 상암로12길 13",
      "lat": "37.548818000",
      "lng": "127.12848300",
      "total_count": 8,
      "available_count": 7,
      "total_percent": 87.5,
      "slow_total": 8,
      "slow_avail": 7,
      "slow_percent": 87.5,
      "fast_total": 0,
      "fast_avail": 0,
      "fast_percent": 0.0,
      "latest_update": "20260711214721"
    },
    {
      "station_id": "PIH00148",
      "name": "신성둔촌미소지움아파트",
      "address": "서울특별시 강동구 진황도로 212",
      "lat": "37.527237",
      "lng": "127.1436489",
      "total_count": 8,
      "available_count": 5,
      "total_percent": 62.5,
      "slow_total": 8,
      "slow_avail": 5,
      "slow_percent": 62.5,
      "fast_total": 0,
      "fast_avail": 0,
      "fast_percent": 0.0,
      "latest_update": "20260713194726"
    },
    {
      "station_id": "PK000289",
      "name": "강동공영차고지",
      "address": "서울특별시 강동구 아리수로 426 (강일동)",
      "lat": "37.5639200",
      "lng": "127.1749500",
      "total_count": 8,
      "available_count": 5,
      "total_percent": 62.5,
      "slow_total": 0,
      "slow_avail": 0,
      "slow_percent": 0.0,
      "fast_total": 8,
      "fast_avail": 5,
      "fast_percent": 62.5,
      "latest_update": "20260713201216"
    },
    {
      "station_id": "PW013500",
      "name": "둔촌신동아아파트관리사무소",
      "address": "서울특별시 강동구 양재대로96길 79",
      "lat": "37.5290429",
      "lng": "127.1414901",
      "total_count": 8,
      "available_count": 8,
      "total_percent": 100.0,
      "slow_total": 8,
      "slow_avail": 8,
      "slow_percent": 100.0,
      "fast_total": 0,
      "fast_avail": 0,
      "fast_percent": 0.0,
      "latest_update": "20260713120324"
    },
    {
      "station_id": "SBSB0047",
      "name": "726타워점",
      "address": "서울특별시 강동구 고덕로 425",
      "lat": "37.557581",
      "lng": "127.172937",
      "total_count": 8,
      "available_count": 8,
      "total_percent": 100.0,
      "slow_total": 8,
      "slow_avail": 8,
      "slow_percent": 100.0,
      "fast_total": 0,
      "fast_avail": 0,
      "fast_percent": 0.0,
      "latest_update": "20260713030047"
    },
    {
      "station_id": "LU003312",
      "name": "성안마을청구아파트",
      "address": "서울특별시 강동구 풍성로 114-1",
      "lat": "37.531754",
      "lng": "127.124",
      "total_count": 7,
      "available_count": 4,
      "total_percent": 57.1,
      "slow_total": 7,
      "slow_avail": 4,
      "slow_percent": 57.1,
      "fast_total": 0,
      "fast_avail": 0,
      "fast_percent": 0.0,
      "latest_update": "20260713183517"
    },
    {
      "station_id": "LU004119",
      "name": "둔촌프라자",
      "address": "서울특별시 강동구 천호대로 1240",
      "lat": "37.535916",
      "lng": "127.147983",
      "total_count": 7,
      "available_count": 3,
      "total_percent": 42.9,
      "slow_total": 7,
      "slow_avail": 3,
      "slow_percent": 42.9,
      "fast_total": 0,
      "fast_avail": 0,
      "fast_percent": 0.0,
      "latest_update": "20260713193600"
    },
    {
      "station_id": "PI708827",
      "name": "강일리버파크2단지",
      "address": "서울특별시 강동구 아리수로97길 68",
      "lat": "37.5687308",
      "lng": "127.1766546",
      "total_count": 7,
      "available_count": 5,
      "total_percent": 71.4,
      "slow_total": 7,
      "slow_avail": 5,
      "slow_percent": 71.4,
      "fast_total": 0,
      "fast_avail": 0,
      "fast_percent": 0.0,
      "latest_update": "20260713195517"
    },
    {
      "station_id": "PI809605",
      "name": "서울 강동구 강동리엔파크11단지",
      "address": "서울특별시 강동구 고덕로98길 101",
      "lat": "37.5542780",
      "lng": "127.1805327",
      "total_count": 7,
      "available_count": 5,
      "total_percent": 71.4,
      "slow_total": 7,
      "slow_avail": 5,
      "slow_percent": 71.4,
      "fast_total": 0,
      "fast_avail": 0,
      "fast_percent": 0.0,
      "latest_update": "20260713190433"
    },
    {
      "station_id": "CV003195",
      "name": "고덕자이아파트118동 지하3층",
      "address": "서울특별시 강동구 상일로 55",
      "lat": "37.5513996",
      "lng": "127.1713297",
      "total_count": 6,
      "available_count": 4,
      "total_percent": 66.7,
      "slow_total": 6,
      "slow_avail": 4,
      "slow_percent": 66.7,
      "fast_total": 0,
      "fast_avail": 0,
      "fast_percent": 0.0,
      "latest_update": "20260713201045"
    },
    {
      "station_id": "CV003196",
      "name": "고덕자이아파트117동 지하3층",
      "address": "서울특별시 강동구 상일로 55",
      "lat": "37.5514762",
      "lng": "127.1706537",
      "total_count": 6,
      "available_count": 5,
      "total_percent": 83.3,
      "slow_total": 6,
      "slow_avail": 5,
      "slow_percent": 83.3,
      "fast_total": 0,
      "fast_avail": 0,
      "fast_percent": 0.0,
      "latest_update": "20260713195046"
    },
    {
      "station_id": "CV003197",
      "name": "고덕자이아파트114동 지하3층",
      "address": "서울특별시 강동구 상일로 55",
      "lat": "37.5520716",
      "lng": "127.1712438",
      "total_count": 6,
      "available_count": 2,
      "total_percent": 33.3,
      "slow_total": 6,
      "slow_avail": 2,
      "slow_percent": 33.3,
      "fast_total": 0,
      "fast_avail": 0,
      "fast_percent": 0.0,
      "latest_update": "20260713201045"
    },
    {
      "station_id": "CV003198",
      "name": "고덕자이아파트111동 지하3층",
      "address": "서울특별시 강동구 상일로 55",
      "lat": "37.5525394",
      "lng": "127.1718339",
      "total_count": 6,
      "available_count": 4,
      "total_percent": 66.7,
      "slow_total": 6,
      "slow_avail": 4,
      "slow_percent": 66.7,
      "fast_total": 0,
      "fast_avail": 0,
      "fast_percent": 0.0,
      "latest_update": "20260713201045"
    },
    {
      "station_id": "CV003201",
      "name": "고덕자이아파트105동 지하3층",
      "address": "서울특별시 강동구 상일로 55",
      "lat": "37.5531178",
      "lng": "127.1719198",
      "total_count": 6,
      "available_count": 4,
      "total_percent": 66.7,
      "slow_total": 6,
      "slow_avail": 4,
      "slow_percent": 66.7,
      "fast_total": 0,
      "fast_avail": 0,
      "fast_percent": 0.0,
      "latest_update": "20260713200543"
    },
    {
      "station_id": "EV011494",
      "name": "서울강동 둔촌현대4차아파트",
      "address": "서울특별시 강동구 진황도로61길 7",
      "lat": "37.529401708",
      "lng": "127.14382517",
      "total_count": 6,
      "available_count": 4,
      "total_percent": 66.7,
      "slow_total": 6,
      "slow_avail": 4,
      "slow_percent": 66.7,
      "fast_total": 0,
      "fast_avail": 0,
      "fast_percent": 0.0,
      "latest_update": "20260713164038"
    },
    {
      "station_id": "EV011949",
      "name": "서울강동 강일리버파크3단지 2",
      "address": "서울특별시 강동구 아리수로93길 40 (강일동, 강일리버파크3단지아파트) ",
      "lat": "37.5655171",
      "lng": "127.1751066",
      "total_count": 6,
      "available_count": 2,
      "total_percent": 33.3,
      "slow_total": 6,
      "slow_avail": 2,
      "slow_percent": 33.3,
      "fast_total": 0,
      "fast_avail": 0,
      "fast_percent": 0.0,
      "latest_update": "20260713194645"
    },
    {
      "station_id": "EV013428",
      "name": "서울강동 강일리버파크5단지아파트 2",
      "address": "서울특별시 강동구 아리수로97길 20",
      "lat": "37.5685143",
      "lng": "127.1781372",
      "total_count": 6,
      "available_count": 6,
      "total_percent": 100.0,
      "slow_total": 6,
      "slow_avail": 6,
      "slow_percent": 100.0,
      "fast_total": 0,
      "fast_avail": 0,
      "fast_percent": 0.0,
      "latest_update": "20260713120550"
    },
    {
      "station_id": "EV013489",
      "name": "서울강동 강동리엔파크14단지",
      "address": "서울특별시 강동구 고덕로98길 160",
      "lat": "37.5510900",
      "lng": "127.1808371",
      "total_count": 6,
      "available_count": 3,
      "total_percent": 50.0,
      "slow_total": 5,
      "slow_avail": 2,
      "slow_percent": 40.0,
      "fast_total": 1,
      "fast_avail": 1,
      "fast_percent": 100.0,
      "latest_update": "20260713194244"
    },
    {
      "station_id": "EV015261",
      "name": "서울강동 고덕롯데캐슬베네루체 16",
      "address": "서울특별시 강동구 상암로79길 88 (상일동, 고덕 롯데캐슬 베네루체)",
      "lat": "37.5502047",
      "lng": "127.1660592",
      "total_count": 6,
      "available_count": 4,
      "total_percent": 66.7,
      "slow_total": 6,
      "slow_avail": 4,
      "slow_percent": 66.7,
      "fast_total": 0,
      "fast_avail": 0,
      "fast_percent": 0.0,
      "latest_update": "20260713190820"
    },
    {
      "station_id": "EV015568",
      "name": "서울강동 천호역한강푸르지오시티 1",
      "address": "서울특별시 강동구 구천면로 192 (천호동)",
      "lat": "37.5403575",
      "lng": "127.1258172",
      "total_count": 6,
      "available_count": 3,
      "total_percent": 50.0,
      "slow_total": 6,
      "slow_avail": 3,
      "slow_percent": 50.0,
      "fast_total": 0,
      "fast_avail": 0,
      "fast_percent": 0.0,
      "latest_update": "20260713201104"
    },
    {
      "station_id": "HY001732",
      "name": "강동 강변그대가리버뷰",
      "address": "서울특별시 강동구 올림픽로89길 58",
      "lat": "37.5482658",
      "lng": "127.1235878",
      "total_count": 6,
      "available_count": 5,
      "total_percent": 83.3,
      "slow_total": 6,
      "slow_avail": 5,
      "slow_percent": 83.3,
      "fast_total": 0,
      "fast_avail": 0,
      "fast_percent": 0.0,
      "latest_update": "20260713184604"
    },
    {
      "station_id": "JA110133",
      "name": "서울 힐데스하임 천호 아파트",
      "address": "서울특별시 강동구 올림픽로78길 30",
      "lat": "37.5419497",
      "lng": "127.1261995",
      "total_count": 6,
      "available_count": 5,
      "total_percent": 83.3,
      "slow_total": 4,
      "slow_avail": 3,
      "slow_percent": 75.0,
      "fast_total": 2,
      "fast_avail": 2,
      "fast_percent": 100.0,
      "latest_update": "20260713185610"
    },
    {
      "station_id": "LU003944",
      "name": "힐스테이트강동리버뷰",
      "address": "서울특별시 강동구 올림픽로91길 30",
      "lat": "37.548934",
      "lng": "127.125137",
      "total_count": 6,
      "available_count": 5,
      "total_percent": 83.3,
      "slow_total": 6,
      "slow_avail": 5,
      "slow_percent": 83.3,
      "fast_total": 0,
      "fast_avail": 0,
      "fast_percent": 0.0,
      "latest_update": "20260713200834"
    },
    {
      "station_id": "PI719648",
      "name": "천호역효성해링턴타워",
      "address": "서울특별시 강동구 올림픽로 610",
      "lat": "37.5357932",
      "lng": "127.1229724",
      "total_count": 6,
      "available_count": 2,
      "total_percent": 33.3,
      "slow_total": 6,
      "slow_avail": 2,
      "slow_percent": 33.3,
      "fast_total": 0,
      "fast_avail": 0,
      "fast_percent": 0.0,
      "latest_update": "20260713200920"
    },
    {
      "station_id": "PI762555",
      "name": "명일한양아파트",
      "address": "서울특별시 강동구 동남로71길 19",
      "lat": "37.5510445",
      "lng": "127.1547206",
      "total_count": 6,
      "available_count": 1,
      "total_percent": 16.7,
      "slow_total": 6,
      "slow_avail": 1,
      "slow_percent": 16.7,
      "fast_total": 0,
      "fast_avail": 0,
      "fast_percent": 0.0,
      "latest_update": "20260713182529"
    },
    {
      "station_id": "PI785158",
      "name": "서울 천호동 중앙하이츠아파트",
      "address": "서울특별시 강동구 구천면로41길 79",
      "lat": "37.5474066",
      "lng": "127.1299635",
      "total_count": 6,
      "available_count": 4,
      "total_percent": 66.7,
      "slow_total": 6,
      "slow_avail": 4,
      "slow_percent": 66.7,
      "fast_total": 0,
      "fast_avail": 0,
      "fast_percent": 0.0,
      "latest_update": "20260713201303"
    },
    {
      "station_id": "PI800105",
      "name": "성내코오롱아파트",
      "address": "서울특별시 강동구 천호대로168길 35",
      "lat": "37.5341382",
      "lng": "127.1319637",
      "total_count": 6,
      "available_count": 5,
      "total_percent": 83.3,
      "slow_total": 6,
      "slow_avail": 5,
      "slow_percent": 83.3,
      "fast_total": 0,
      "fast_avail": 0,
      "fast_percent": 0.0,
      "latest_update": "20260713185727"
    },
    {
      "station_id": "ST117401",
      "name": "이마트 명일점",
      "address": "서울특별시 강동구 고덕로 276",
      "lat": "37.554442",
      "lng": "127.155497",
      "total_count": 6,
      "available_count": 5,
      "total_percent": 83.3,
      "slow_total": 0,
      "slow_avail": 0,
      "slow_percent": 0.0,
      "fast_total": 6,
      "fast_avail": 5,
      "fast_percent": 83.3,
      "latest_update": "20260713192132"
    },
    {
      "station_id": "CV003199",
      "name": "고덕자이아파트110동 지하3층",
      "address": "서울특별시 강동구 상일로 55",
      "lat": "37.55272",
      "lng": "127.1696707",
      "total_count": 5,
      "available_count": 5,
      "total_percent": 100.0,
      "slow_total": 5,
      "slow_avail": 5,
      "slow_percent": 100.0,
      "fast_total": 0,
      "fast_avail": 0,
      "fast_percent": 0.0,
      "latest_update": "20260713195540"
    },
    {
      "station_id": "CV003200",
      "name": "고덕자이아파트108동 지하3층",
      "address": "서울특별시 강동구 상일로 55",
      "lat": "37.55272",
      "lng": "127.1696707",
      "total_count": 5,
      "available_count": 2,
      "total_percent": 40.0,
      "slow_total": 5,
      "slow_avail": 2,
      "slow_percent": 40.0,
      "fast_total": 0,
      "fast_avail": 0,
      "fast_percent": 0.0,
      "latest_update": "20260713201045"
    },
    {
      "station_id": "CV003202",
      "name": "고덕자이아파트103동 지하3층",
      "address": "서울특별시 강동구 상일로 55",
      "lat": "37.5531348",
      "lng": "127.1706645",
      "total_count": 5,
      "available_count": 5,
      "total_percent": 100.0,
      "slow_total": 5,
      "slow_avail": 5,
      "slow_percent": 100.0,
      "fast_total": 0,
      "fast_avail": 0,
      "fast_percent": 0.0,
      "latest_update": "20260713201045"
    },
    {
      "station_id": "EC003207",
      "name": "래미안솔베뉴 110동 B3 B116",
      "address": "서울특별시 강동구 양재대로 1650",
      "lat": "37.5527946",
      "lng": "127.1444182",
      "total_count": 5,
      "available_count": 4,
      "total_percent": 80.0,
      "slow_total": 5,
      "slow_avail": 4,
      "slow_percent": 80.0,
      "fast_total": 0,
      "fast_avail": 0,
      "fast_percent": 0.0,
      "latest_update": "20260713174401"
    },
    {
      "station_id": "EC003208",
      "name": "래미안솔베뉴 106동 B2",
      "address": "서울특별시 강동구 양재대로 1650",
      "lat": "37.5531364",
      "lng": "127.1451629",
      "total_count": 5,
      "available_count": 5,
      "total_percent": 100.0,
      "slow_total": 5,
      "slow_avail": 5,
      "slow_percent": 100.0,
      "fast_total": 0,
      "fast_avail": 0,
      "fast_percent": 0.0,
      "latest_update": "20260713083401"
    },
    {
      "station_id": "EC003258",
      "name": "SK허브진 101동 지하3층",
      "address": "서울특별시 강동구 천호대로 1092",
      "lat": "37.535247",
      "lng": "127.1326699",
      "total_count": 5,
      "available_count": 4,
      "total_percent": 80.0,
      "slow_total": 5,
      "slow_avail": 4,
      "slow_percent": 80.0,
      "fast_total": 0,
      "fast_avail": 0,
      "fast_percent": 0.0,
      "latest_update": "20260713193801"
    },
    {
      "station_id": "EC110109",
      "name": "뉴코아팩토리아울렛 천호점",
      "address": "서울특별시 강동구 구천면로 189",
      "lat": "37.541008488",
      "lng": "127.12587933",
      "total_count": 5,
      "available_count": 5,
      "total_percent": 100.0,
      "slow_total": 5,
      "slow_avail": 5,
      "slow_percent": 100.0,
      "fast_total": 0,
      "fast_avail": 0,
      "fast_percent": 0.0,
      "latest_update": "20260706134402"
    },
    {
      "station_id": "EP020200",
      "name": "강동구 천호역마에스트로아파트",
      "address": "서울특별시 강동구 천호동 334-2",
      "lat": "37.54313054",
      "lng": "127.12469774",
      "total_count": 5,
      "available_count": 0,
      "total_percent": 0.0,
      "slow_total": 5,
      "slow_avail": 0,
      "slow_percent": 0.0,
      "fast_total": 0,
      "fast_avail": 0,
      "fast_percent": 0.0,
      "latest_update": ""
    },
    {
      "station_id": "EP220078",
      "name": "선사현대아파트1(102동)",
      "address": "서울특별시 강동구 상암로 11",
      "lat": "37.551225340",
      "lng": "127.12635090",
      "total_count": 5,
      "available_count": 0,
      "total_percent": 0.0,
      "slow_total": 5,
      "slow_avail": 0,
      "slow_percent": 0.0,
      "fast_total": 0,
      "fast_avail": 0,
      "fast_percent": 0.0,
      "latest_update": ""
    },
    {
      "station_id": "EP220079",
      "name": "선사현대아파트2(101동)",
      "address": "서울특별시 강동구 상암로 11",
      "lat": "37.551927850",
      "lng": "127.12660105",
      "total_count": 5,
      "available_count": 0,
      "total_percent": 0.0,
      "slow_total": 5,
      "slow_avail": 0,
      "slow_percent": 0.0,
      "fast_total": 0,
      "fast_avail": 0,
      "fast_percent": 0.0,
      "latest_update": ""
    },
    {
      "station_id": "EV003319",
      "name": "서울강동구_래미안솔베뉴",
      "address": "서울특별시 강동구 양재대로 1650",
      "lat": "37.5543899",
      "lng": "127.145918",
      "total_count": 5,
      "available_count": 3,
      "total_percent": 60.0,
      "slow_total": 5,
      "slow_avail": 3,
      "slow_percent": 60.0,
      "fast_total": 0,
      "fast_avail": 0,
      "fast_percent": 0.0,
      "latest_update": "20260713194645"
    },
    {
      "station_id": "EV003852",
      "name": "서울강동 고덕아이파크",
      "address": "서울특별시 강동구 동남로79길 26",
      "lat": "37.5591839",
      "lng": "127.1537442",
      "total_count": 5,
      "available_count": 0,
      "total_percent": 0.0,
      "slow_total": 5,
      "slow_avail": 0,
      "slow_percent": 0.0,
      "fast_total": 0,
      "fast_avail": 0,
      "fast_percent": 0.0,
      "latest_update": "20260713194645"
    },
    {
      "station_id": "EV012438",
      "name": "서울강동 고덕우성아파트 1",
      "address": "서울특별시 강동구 고덕로62길 76",
      "lat": "37.550474086",
      "lng": "127.15217405",
      "total_count": 5,
      "available_count": 0,
      "total_percent": 0.0,
      "slow_total": 5,
      "slow_avail": 0,
      "slow_percent": 0.0,
      "fast_total": 0,
      "fast_avail": 0,
      "fast_percent": 0.0,
      "latest_update": "20260713192632"
    },
    {
      "station_id": "EV014051",
      "name": "서울강동 대명벨리온 1",
      "address": "서울특별시 강동구 고덕로 266",
      "lat": "37.5545697",
      "lng": "127.1551814",
      "total_count": 5,
      "available_count": 4,
      "total_percent": 80.0,
      "slow_total": 5,
      "slow_avail": 4,
      "slow_percent": 80.0,
      "fast_total": 0,
      "fast_avail": 0,
      "fast_percent": 0.0,
      "latest_update": "20260713173515"
    },
    {
      "station_id": "EV014763",
      "name": "서울강동 강동상떼빌",
      "address": "서울특별시 강동구 천호대로 1065",
      "lat": "37.5370372",
      "lng": "127.1304649",
      "total_count": 5,
      "available_count": 5,
      "total_percent": 100.0,
      "slow_total": 5,
      "slow_avail": 5,
      "slow_percent": 100.0,
      "fast_total": 0,
      "fast_avail": 0,
      "fast_percent": 0.0,
      "latest_update": "20260711061633"
    },
    {
      "station_id": "EV016137",
      "name": "서울강동 한강현대아파트 3",
      "address": "서울특별시 강동구 올림픽로104길 42",
      "lat": "37.5554708",
      "lng": "127.1316805",
      "total_count": 5,
      "available_count": 4,
      "total_percent": 80.0,
      "slow_total": 5,
      "slow_avail": 4,
      "slow_percent": 80.0,
      "fast_total": 0,
      "fast_avail": 0,
      "fast_percent": 0.0,
      "latest_update": "20260713193438"
    },
    {
      "station_id": "EV017483",
      "name": "서울강동 명일삼환아파트",
      "address": "서울특별시 강동구 고덕로62길 29",
      "lat": "37.5543173",
      "lng": "127.1542273",
      "total_count": 5,
      "available_count": 4,
      "total_percent": 80.0,
      "slow_total": 5,
      "slow_avail": 4,
      "slow_percent": 80.0,
      "fast_total": 0,
      "fast_avail": 0,
      "fast_percent": 0.0,
      "latest_update": "20260713192432"
    },
    {
      "station_id": "EV017648",
      "name": "서울구로 항동하버라인11단지아파트",
      "address": "서울특별시 구로구 연동로 191-5",
      "lat": "37.4780433",
      "lng": "126.8223333",
      "total_count": 5,
      "available_count": 5,
      "total_percent": 100.0,
      "slow_total": 5,
      "slow_avail": 5,
      "slow_percent": 100.0,
      "fast_total": 0,
      "fast_avail": 0,
      "fast_percent": 0.0,
      "latest_update": "20260706211914"
    },
    {
      "station_id": "HE240195",
      "name": "천호역공영주차장",
      "address": "서울특별시 강동구 천호대로 1015",
      "lat": "37.537810560",
      "lng": "127.12532691",
      "total_count": 5,
      "available_count": 3,
      "total_percent": 60.0,
      "slow_total": 5,
      "slow_avail": 3,
      "slow_percent": 60.0,
      "fast_total": 0,
      "fast_avail": 0,
      "fast_percent": 0.0,
      "latest_update": "20260713200600"
    },
    {
      "station_id": "HE240354",
      "name": "천호e-편한세상아파트",
      "address": "서울특별시 강동구 올림픽로81길 15",
      "lat": "37.54471",
      "lng": "127.124",
      "total_count": 5,
      "available_count": 5,
      "total_percent": 100.0,
      "slow_total": 5,
      "slow_avail": 5,
      "slow_percent": 100.0,
      "fast_total": 0,
      "fast_avail": 0,
      "fast_percent": 0.0,
      "latest_update": "20260713082500"
    },
    {
      "station_id": "KP001265",
      "name": "성내삼성 아파트",
      "address": "서울특별시 강동구 성내동 풍성로 128 ",
      "lat": "37.5299423276",
      "lng": "127.1259823751",
      "total_count": 5,
      "available_count": 5,
      "total_percent": 100.0,
      "slow_total": 5,
      "slow_avail": 5,
      "slow_percent": 100.0,
      "fast_total": 0,
      "fast_avail": 0,
      "fast_percent": 0.0,
      "latest_update": "20260713002020"
    },
    {
      "station_id": "KP004045",
      "name": "힐스테이트암사",
      "address": "서울특별시 강동구 암사동 675",
      "lat": "37.54882027091",
      "lng": "127.1253702418",
      "total_count": 5,
      "available_count": 4,
      "total_percent": 80.0,
      "slow_total": 5,
      "slow_avail": 4,
      "slow_percent": 80.0,
      "fast_total": 0,
      "fast_avail": 0,
      "fast_percent": 0.0,
      "latest_update": "20260713162021"
    },
    {
      "station_id": "LU001344",
      "name": "오륜교회",
      "address": "서울특별시 강동구 강동대로 235",
      "lat": "37.522741",
      "lng": "127.132395",
      "total_count": 5,
      "available_count": 5,
      "total_percent": 100.0,
      "slow_total": 5,
      "slow_avail": 5,
      "slow_percent": 100.0,
      "fast_total": 0,
      "fast_avail": 0,
      "fast_percent": 0.0,
      "latest_update": "20260713065838"
    },
    {
      "station_id": "LU003030",
      "name": "강동명일중앙하이츠",
      "address": "서울특별시 강동구 구천면로 557",
      "lat": "37.551126",
      "lng": "127.159671",
      "total_count": 5,
      "available_count": 4,
      "total_percent": 80.0,
      "slow_total": 5,
      "slow_avail": 4,
      "slow_percent": 80.0,
      "fast_total": 0,
      "fast_avail": 0,
      "fast_percent": 0.0,
      "latest_update": "20260713195405"
    },
    {
      "station_id": "NT101439",
      "name": "강동 암사한솔아파트",
      "address": "서울특별시 강동구 암사19길 25",
      "lat": "37.5523454",
      "lng": "127.1409716",
      "total_count": 5,
      "available_count": 3,
      "total_percent": 60.0,
      "slow_total": 5,
      "slow_avail": 3,
      "slow_percent": 60.0,
      "fast_total": 0,
      "fast_avail": 0,
      "fast_percent": 0.0,
      "latest_update": "20260713003450"
    },
    {
      "station_id": "PI200724",
      "name": "서울시 강동구 둔촌하이츠",
      "address": "서울특별시 강동구 명일로 113",
      "lat": "37.52919773",
      "lng": "127.1421795",
      "total_count": 5,
      "available_count": 5,
      "total_percent": 100.0,
      "slow_total": 5,
      "slow_avail": 5,
      "slow_percent": 100.0,
      "fast_total": 0,
      "fast_avail": 0,
      "fast_percent": 0.0,
      "latest_update": "20260712211221"
    },
    {
      "station_id": "PI200733",
      "name": "서울시 강동구 천호현대타워",
      "address": "서울특별시 강동구 천호대로 1095",
      "lat": "37.53594221",
      "lng": "127.1336623",
      "total_count": 5,
      "available_count": 4,
      "total_percent": 80.0,
      "slow_total": 5,
      "slow_avail": 4,
      "slow_percent": 80.0,
      "fast_total": 0,
      "fast_avail": 0,
      "fast_percent": 0.0,
      "latest_update": "20260713193613"
    },
    {
      "station_id": "PIH00247",
      "name": "강동이루미아파트",
      "address": "서울특별시 강동구 양재대로123길 30",
      "lat": "37.543846100",
      "lng": "127.14042660",
      "total_count": 5,
      "available_count": 5,
      "total_percent": 100.0,
      "slow_total": 5,
      "slow_avail": 5,
      "slow_percent": 100.0,
      "fast_total": 0,
      "fast_avail": 0,
      "fast_percent": 0.0,
      "latest_update": "20260711103717"
    },
    {
      "station_id": "PW011116",
      "name": "강일리버파크4단지아파트",
      "address": "서울특별시 강동구 아리수로97길 19",
      "lat": "37.5669947",
      "lng": "127.1767904",
      "total_count": 5,
      "available_count": 5,
      "total_percent": 100.0,
      "slow_total": 5,
      "slow_avail": 5,
      "slow_percent": 100.0,
      "fast_total": 0,
      "fast_avail": 0,
      "fast_percent": 0.0,
      "latest_update": "20260711051407"
    },
    {
      "station_id": "PW012748",
      "name": "이(E)편한세상강동에코포레아파트입주자대표회의",
      "address": "서울특별시 강동구 천중로 253",
      "lat": "37.540909324",
      "lng": "127.14794618",
      "total_count": 5,
      "available_count": 4,
      "total_percent": 80.0,
      "slow_total": 5,
      "slow_avail": 4,
      "slow_percent": 80.0,
      "fast_total": 0,
      "fast_avail": 0,
      "fast_percent": 0.0,
      "latest_update": "20260713103913"
    },
    {
      "station_id": "PW012809",
      "name": "강일리버파크2단지입주자대표회의",
      "address": "서울특별시 강동구 아리수로97길 68",
      "lat": "37.568730756",
      "lng": "127.17665461",
      "total_count": 5,
      "available_count": 3,
      "total_percent": 60.0,
      "slow_total": 5,
      "slow_avail": 3,
      "slow_percent": 60.0,
      "fast_total": 0,
      "fast_avail": 0,
      "fast_percent": 0.0,
      "latest_update": "20260713174514"
    },
    {
      "station_id": "PW012811",
      "name": "고덕현대아파트입주자대표회의",
      "address": "서울특별시 강동구 고덕로61길 35",
      "lat": "37.556453026",
      "lng": "127.15279113",
      "total_count": 5,
      "available_count": 3,
      "total_percent": 60.0,
      "slow_total": 5,
      "slow_avail": 3,
      "slow_percent": 60.0,
      "fast_total": 0,
      "fast_avail": 0,
      "fast_percent": 0.0,
      "latest_update": "20260713190914"
    },
    {
      "station_id": "PW013319",
      "name": "이(E)편한세상 강동에코포레아파트 입주자대표회의",
      "address": "서울특별시 강동구 천중로 253",
      "lat": "37.5409093",
      "lng": "127.1479462",
      "total_count": 5,
      "available_count": 3,
      "total_percent": 60.0,
      "slow_total": 5,
      "slow_avail": 3,
      "slow_percent": 60.0,
      "fast_total": 0,
      "fast_avail": 0,
      "fast_percent": 0.0,
      "latest_update": "20260713184614"
    },
    {
      "station_id": "PW015417",
      "name": "신성통상 (주)(SP)",
      "address": "서울특별시 강동구 풍성로63길 84",
      "lat": "37.531720690",
      "lng": "127.14031591",
      "total_count": 5,
      "available_count": 5,
      "total_percent": 100.0,
      "slow_total": 5,
      "slow_avail": 5,
      "slow_percent": 100.0,
      "fast_total": 0,
      "fast_avail": 0,
      "fast_percent": 0.0,
      "latest_update": "20260713170014"
    },
    {
      "station_id": "SF000918",
      "name": "천호중앙하이츠아파트",
      "address": "서울특별시 강동구 구천면로41길 79",
      "lat": "37.547406594",
      "lng": "127.12996346",
      "total_count": 5,
      "available_count": 5,
      "total_percent": 100.0,
      "slow_total": 5,
      "slow_avail": 5,
      "slow_percent": 100.0,
      "fast_total": 0,
      "fast_avail": 0,
      "fast_percent": 0.0,
      "latest_update": "20260707170015"
    },
    {
      "station_id": "SGSEC001",
      "name": "삼성엔지니어링 주식회사",
      "address": "서울특별시 강동구 상일로6길 26",
      "lat": "37.548817662",
      "lng": "127.17532456",
      "total_count": 5,
      "available_count": 5,
      "total_percent": 100.0,
      "slow_total": 2,
      "slow_avail": 2,
      "slow_percent": 100.0,
      "fast_total": 3,
      "fast_avail": 3,
      "fast_percent": 100.0,
      "latest_update": "20260519112807"
    },
    {
      "station_id": "CGA00037",
      "name": "천호 두산위브센티움(B5F)",
      "address": "서울특별시 강동구 올림픽로70길 61",
      "lat": "37.5394018",
      "lng": "127.1269895",
      "total_count": 4,
      "available_count": 1,
      "total_percent": 25.0,
      "slow_total": 4,
      "slow_avail": 1,
      "slow_percent": 25.0,
      "fast_total": 0,
      "fast_avail": 0,
      "fast_percent": 0.0,
      "latest_update": "20260713200023"
    },
    {
      "station_id": "CGA00063",
      "name": "서울교통공사 고덕차량기지",
      "address": "서울특별시 강동구 아리수로87길 32",
      "lat": "37.566631458",
      "lng": "127.16755516",
      "total_count": 4,
      "available_count": 3,
      "total_percent": 75.0,
      "slow_total": 4,
      "slow_avail": 3,
      "slow_percent": 75.0,
      "fast_total": 0,
      "fast_avail": 0,
      "fast_percent": 0.0,
      "latest_update": "20260713194507"
    },
    {
      "station_id": "CV001844",
      "name": "한국종합기술",
      "address": "서울특별시 강동구 상일로6길 21",
      "lat": "37.550013",
      "lng": "127.1746038",
      "total_count": 4,
      "available_count": 3,
      "total_percent": 75.0,
      "slow_total": 4,
      "slow_avail": 3,
      "slow_percent": 75.0,
      "fast_total": 0,
      "fast_avail": 0,
      "fast_percent": 0.0,
      "latest_update": "20260713180525"
    },
    {
      "station_id": "CV004073",
      "name": "채비스테이 둔촌",
      "address": "서울특별시 강동구 양재대로 1414",
      "lat": "37.53214",
      "lng": "127.13825",
      "total_count": 4,
      "available_count": 3,
      "total_percent": 75.0,
      "slow_total": 0,
      "slow_avail": 0,
      "slow_percent": 0.0,
      "fast_total": 4,
      "fast_avail": 3,
      "fast_percent": 75.0,
      "latest_update": "20260713200547"
    },
    {
      "station_id": "EC000218",
      "name": "강동역신동아파밀리에",
      "address": "서울특별시 강동구 천호대로 1089",
      "lat": "37.5359912",
      "lng": "127.1329390",
      "total_count": 4,
      "available_count": 1,
      "total_percent": 25.0,
      "slow_total": 4,
      "slow_avail": 1,
      "slow_percent": 25.0,
      "fast_total": 0,
      "fast_avail": 0,
      "fast_percent": 0.0,
      "latest_update": "20260713185001"
    },
    {
      "station_id": "EC110026",
      "name": "둔촌한솔솔파크 101동",
      "address": "서울특별시 강동구 천호대로198길 36",
      "lat": "37.53451",
      "lng": "127.1482607",
      "total_count": 4,
      "available_count": 4,
      "total_percent": 100.0,
      "slow_total": 4,
      "slow_avail": 4,
      "slow_percent": 100.0,
      "fast_total": 0,
      "fast_avail": 0,
      "fast_percent": 0.0,
      "latest_update": "20260713182802"
    },
    {
      "station_id": "ER110136",
      "name": "고덕리엔파크1단지",
      "address": "서울특별시 강동구 상일로 152",
      "lat": "37.5616429",
      "lng": "127.1714804",
      "total_count": 4,
      "available_count": 2,
      "total_percent": 50.0,
      "slow_total": 4,
      "slow_avail": 2,
      "slow_percent": 50.0,
      "fast_total": 0,
      "fast_avail": 0,
      "fast_percent": 0.0,
      "latest_update": "20260713194315"
    },
    {
      "station_id": "EV002134",
      "name": "서울강동 강일리버파크9단지907동",
      "address": "서울특별시 강동구 고덕로97길 29",
      "lat": "37.5594741",
      "lng": "127.1785801",
      "total_count": 4,
      "available_count": 1,
      "total_percent": 25.0,
      "slow_total": 4,
      "slow_avail": 1,
      "slow_percent": 25.0,
      "fast_total": 0,
      "fast_avail": 0,
      "fast_percent": 0.0,
      "latest_update": "20260713195653"
    },
    {
      "station_id": "EV005099",
      "name": "서울강동 고덕숲아이파크1(B3)",
      "address": "서울특별시 강동구 고덕로80길 134",
      "lat": "37.552583489",
      "lng": "127.16480233",
      "total_count": 4,
      "available_count": 3,
      "total_percent": 75.0,
      "slow_total": 4,
      "slow_avail": 3,
      "slow_percent": 75.0,
      "fast_total": 0,
      "fast_avail": 0,
      "fast_percent": 0.0,
      "latest_update": "20260713194802"
    },
    {
      "station_id": "EV005101",
      "name": "서울강동 고덕숲아이파크3(B2)",
      "address": "서울특별시 강동구 고덕로80길 134",
      "lat": "37.5517185",
      "lng": "127.16299886",
      "total_count": 4,
      "available_count": 1,
      "total_percent": 25.0,
      "slow_total": 4,
      "slow_avail": 1,
      "slow_percent": 25.0,
      "fast_total": 0,
      "fast_avail": 0,
      "fast_percent": 0.0,
      "latest_update": "20260713193840"
    },
    {
      "station_id": "EV011805",
      "name": "서울강동 다성이즈빌아파트",
      "address": "서울특별시 강동구 천호동 320 다성이즈빌",
      "lat": "37.547633303",
      "lng": "127.12339607",
      "total_count": 4,
      "available_count": 4,
      "total_percent": 100.0,
      "slow_total": 4,
      "slow_avail": 4,
      "slow_percent": 100.0,
      "fast_total": 0,
      "fast_avail": 0,
      "fast_percent": 0.0,
      "latest_update": "20260713070447"
    },
    {
      "station_id": "EV012083",
      "name": "서울강동 농협경제지주 서울지역본부",
      "address": "서울특별시 강동구 올림픽로 528 (성내동) ",
      "lat": "37.5294051",
      "lng": "127.1203999",
      "total_count": 4,
      "available_count": 4,
      "total_percent": 100.0,
      "slow_total": 2,
      "slow_avail": 2,
      "slow_percent": 100.0,
      "fast_total": 2,
      "fast_avail": 2,
      "fast_percent": 100.0,
      "latest_update": "20260713194244"
    },
    {
      "station_id": "EV013427",
      "name": "서울강동 강일리버파크5단지아파트 1",
      "address": "서울특별시 강동구 아리수로97길 20",
      "lat": "37.5683776",
      "lng": "127.1774751",
      "total_count": 4,
      "available_count": 4,
      "total_percent": 100.0,
      "slow_total": 4,
      "slow_avail": 4,
      "slow_percent": 100.0,
      "fast_total": 0,
      "fast_avail": 0,
      "fast_percent": 0.0,
      "latest_update": "20260713093219"
    },
    {
      "station_id": "EV013430",
      "name": "서울강동 강일리버파크5단지아파트 4",
      "address": "서울특별시 강동구 아리수로97길 20",
      "lat": "37.5669702",
      "lng": "127.1786829",
      "total_count": 4,
      "available_count": 3,
      "total_percent": 75.0,
      "slow_total": 4,
      "slow_avail": 3,
      "slow_percent": 75.0,
      "fast_total": 0,
      "fast_avail": 0,
      "fast_percent": 0.0,
      "latest_update": "20260713193438"
    },
    {
      "station_id": "EV017639",
      "name": "서울강동 강일리버파크11단지관리사무소(임대) 1",
      "address": "서울특별시 강동구 고덕로97길 100",
      "lat": "37.5627350",
      "lng": "127.1799929",
      "total_count": 4,
      "available_count": 4,
      "total_percent": 100.0,
      "slow_total": 4,
      "slow_avail": 4,
      "slow_percent": 100.0,
      "fast_total": 0,
      "fast_avail": 0,
      "fast_percent": 0.0,
      "latest_update": "20260713155412"
    },
    {
      "station_id": "HE240457",
      "name": "삼성광나루아파트",
      "address": "서울특별시 강동구 상암로3길 77",
      "lat": "37.5541715",
      "lng": "127.1272373",
      "total_count": 4,
      "available_count": 3,
      "total_percent": 75.0,
      "slow_total": 4,
      "slow_avail": 3,
      "slow_percent": 75.0,
      "fast_total": 0,
      "fast_avail": 0,
      "fast_percent": 0.0,
      "latest_update": "20260713155100"
    },
    {
      "station_id": "HY001379",
      "name": "강동 둔촌현대3차",
      "address": "서울특별시 강동구 진황도로 211",
      "lat": "37.5274446",
      "lng": "127.1445296",
      "total_count": 4,
      "available_count": 2,
      "total_percent": 50.0,
      "slow_total": 4,
      "slow_avail": 2,
      "slow_percent": 50.0,
      "fast_total": 0,
      "fast_avail": 0,
      "fast_percent": 0.0,
      "latest_update": "20260713190905"
    },
    {
      "station_id": "HY001603",
      "name": "강동 둔촌동아",
      "address": "서울특별시 강동구 동남로49길 60-5",
      "lat": "37.5331696",
      "lng": "127.1458553",
      "total_count": 4,
      "available_count": 3,
      "total_percent": 75.0,
      "slow_total": 4,
      "slow_avail": 3,
      "slow_percent": 75.0,
      "fast_total": 0,
      "fast_avail": 0,
      "fast_percent": 0.0,
      "latest_update": "20260713185806"
    },
    {
      "station_id": "IN120073",
      "name": "이마트명일점",
      "address": "서울특별시 강동구 고덕로 276",
      "lat": "37.5546",
      "lng": "127.1558",
      "total_count": 4,
      "available_count": 0,
      "total_percent": 0.0,
      "slow_total": 4,
      "slow_avail": 0,
      "slow_percent": 0.0,
      "fast_total": 0,
      "fast_avail": 0,
      "fast_percent": 0.0,
      "latest_update": "20260615122839"
    },
    {
      "station_id": "KL002081",
      "name": "강변그대가갤럭시아파트",
      "address": "서울특별시 강동구 올림픽로89길 55",
      "lat": "37.5467441",
      "lng": "127.1229645",
      "total_count": 4,
      "available_count": 2,
      "total_percent": 50.0,
      "slow_total": 4,
      "slow_avail": 2,
      "slow_percent": 50.0,
      "fast_total": 0,
      "fast_avail": 0,
      "fast_percent": 0.0,
      "latest_update": "20260713194602"
    },
    {
      "station_id": "KP000520",
      "name": "강일리버파크7단지 아파트",
      "address": "서울특별시 강동구 아리수로98길 25",
      "lat": "37.56505092294",
      "lng": "127.1788028280",
      "total_count": 4,
      "available_count": 4,
      "total_percent": 100.0,
      "slow_total": 3,
      "slow_avail": 3,
      "slow_percent": 100.0,
      "fast_total": 1,
      "fast_avail": 1,
      "fast_percent": 100.0,
      "latest_update": "20260713045008"
    },
    {
      "station_id": "KP000689",
      "name": "고덕아이파크",
      "address": "서울특별시 강동구 고덕동 동남로79길 26",
      "lat": "37.5591846946",
      "lng": "127.1537423213",
      "total_count": 4,
      "available_count": 0,
      "total_percent": 0.0,
      "slow_total": 3,
      "slow_avail": 0,
      "slow_percent": 0.0,
      "fast_total": 1,
      "fast_avail": 0,
      "fast_percent": 0.0,
      "latest_update": "20260713200006"
    },
    {
      "station_id": "KP002685",
      "name": "둔촌푸르지오아파트",
      "address": "서울특별시 강동구 둔촌동 명일로 172",
      "lat": "37.533875",
      "lng": "127.147529",
      "total_count": 4,
      "available_count": 1,
      "total_percent": 25.0,
      "slow_total": 4,
      "slow_avail": 1,
      "slow_percent": 25.0,
      "fast_total": 0,
      "fast_avail": 0,
      "fast_percent": 0.0,
      "latest_update": "20260713201011"
    },
    {
      "station_id": "KRC10256",
      "name": "강동디아테온",
      "address": "서울특별시 강동구 양재대로 1540",
      "lat": "37.542975",
      "lng": "127.142374",
      "total_count": 4,
      "available_count": 4,
      "total_percent": 100.0,
      "slow_total": 4,
      "slow_avail": 4,
      "slow_percent": 100.0,
      "fast_total": 0,
      "fast_avail": 0,
      "fast_percent": 0.0,
      "latest_update": "20260713175009"
    },
    {
      "station_id": "NT102644",
      "name": "강동 고덕현대아파트",
      "address": "서울특별시 강동구 고덕로61길 35",
      "lat": "37.55645",
      "lng": "127.15279",
      "total_count": 4,
      "available_count": 3,
      "total_percent": 75.0,
      "slow_total": 4,
      "slow_avail": 3,
      "slow_percent": 75.0,
      "fast_total": 0,
      "fast_avail": 0,
      "fast_percent": 0.0,
      "latest_update": "20260713164550"
    },
    {
      "station_id": "PC001485",
      "name": "강동웨딩문화센터",
      "address": "서울특별시 강동구 천호대로 1102",
      "lat": "37.5347808",
      "lng": "127.1336576",
      "total_count": 4,
      "available_count": 4,
      "total_percent": 100.0,
      "slow_total": 4,
      "slow_avail": 4,
      "slow_percent": 100.0,
      "fast_total": 0,
      "fast_avail": 0,
      "fast_percent": 0.0,
      "latest_update": "20260709134358"
    },
    {
      "station_id": "PC001789",
      "name": "고덕그라시움 제1상가(강동)",
      "address": "서울특별시 강동구 고덕로 353",
      "lat": "37.5570439",
      "lng": "127.1644783",
      "total_count": 4,
      "available_count": 4,
      "total_percent": 100.0,
      "slow_total": 4,
      "slow_avail": 4,
      "slow_percent": 100.0,
      "fast_total": 0,
      "fast_avail": 0,
      "fast_percent": 0.0,
      "latest_update": "20260713182501"
    },
    {
      "station_id": "PI200322",
      "name": "서울시 강동구 강변그대가리버뷰",
      "address": "서울특별시 강동구 올림픽로89길 57",
      "lat": "37.54786831",
      "lng": "127.1228531",
      "total_count": 4,
      "available_count": 4,
      "total_percent": 100.0,
      "slow_total": 4,
      "slow_avail": 4,
      "slow_percent": 100.0,
      "fast_total": 0,
      "fast_avail": 0,
      "fast_percent": 0.0,
      "latest_update": "20260712224814"
    },
    {
      "station_id": "PI200965",
      "name": "서울시 강동구 천호3동제2공영주차장",
      "address": "서울특별시 강동구 성안로31마길 1",
      "lat": "37.540523224",
      "lng": "127.13408151",
      "total_count": 4,
      "available_count": 3,
      "total_percent": 75.0,
      "slow_total": 2,
      "slow_avail": 1,
      "slow_percent": 50.0,
      "fast_total": 2,
      "fast_avail": 2,
      "fast_percent": 100.0,
      "latest_update": "20260713195420"
    },
    {
      "station_id": "PI760143",
      "name": "신성통상",
      "address": "서울특별시 강동구 풍성로63길 84",
      "lat": "37.5317207",
      "lng": "127.1403159",
      "total_count": 4,
      "available_count": 4,
      "total_percent": 100.0,
      "slow_total": 4,
      "slow_avail": 4,
      "slow_percent": 100.0,
      "fast_total": 0,
      "fast_avail": 0,
      "fast_percent": 0.0,
      "latest_update": "20260713183525"
    },
    {
      "station_id": "PIH01021",
      "name": "강동타워",
      "address": "서울특별시 강동구 상일로6길 39",
      "lat": "37.549803680",
      "lng": "127.17534769",
      "total_count": 4,
      "available_count": 4,
      "total_percent": 100.0,
      "slow_total": 4,
      "slow_avail": 4,
      "slow_percent": 100.0,
      "fast_total": 0,
      "fast_avail": 0,
      "fast_percent": 0.0,
      "latest_update": "20260713185209"
    },
    {
      "station_id": "PIH01327",
      "name": "금정우리가아파트",
      "address": "서울특별시 강동구 고덕로27길 7",
      "lat": "37.555318876",
      "lng": "127.13752799",
      "total_count": 4,
      "available_count": 4,
      "total_percent": 100.0,
      "slow_total": 4,
      "slow_avail": 4,
      "slow_percent": 100.0,
      "fast_total": 0,
      "fast_avail": 0,
      "fast_percent": 0.0,
      "latest_update": "20260712043718"
    },
    {
      "station_id": "PIS00073",
      "name": "서울 강동구 이마트명일점",
      "address": "서울특별시 강동구 고덕로 276",
      "lat": "37.5546000",
      "lng": "127.1558000",
      "total_count": 4,
      "available_count": 4,
      "total_percent": 100.0,
      "slow_total": 4,
      "slow_avail": 4,
      "slow_percent": 100.0,
      "fast_total": 0,
      "fast_avail": 0,
      "fast_percent": 0.0,
      "latest_update": "20260709193826"
    },
    {
      "station_id": "PL031169",
      "name": "서울 강동경찰서",
      "address": "서울 강동구 성내로 57",
      "lat": "37.5286775",
      "lng": "127.1269574",
      "total_count": 4,
      "available_count": 3,
      "total_percent": 75.0,
      "slow_total": 4,
      "slow_avail": 3,
      "slow_percent": 75.0,
      "fast_total": 0,
      "fast_avail": 0,
      "fast_percent": 0.0,
      "latest_update": "20260713195641"
    },
    {
      "station_id": "PL033310",
      "name": "상일동아아파트",
      "address": "서울 강동구 상암로81길 7",
      "lat": "37.5460718",
      "lng": "127.1674419",
      "total_count": 4,
      "available_count": 4,
      "total_percent": 100.0,
      "slow_total": 4,
      "slow_avail": 4,
      "slow_percent": 100.0,
      "fast_total": 0,
      "fast_avail": 0,
      "fast_percent": 0.0,
      "latest_update": "20260713185844"
    },
    {
      "station_id": "PW015028",
      "name": "성내동 신일유토빌 입주자대표회의",
      "address": "서울특별시 강동구 양재대로81길 16",
      "lat": "37.523135344",
      "lng": "127.13337379",
      "total_count": 4,
      "available_count": 3,
      "total_percent": 75.0,
      "slow_total": 4,
      "slow_avail": 3,
      "slow_percent": 75.0,
      "fast_total": 0,
      "fast_avail": 0,
      "fast_percent": 0.0,
      "latest_update": "20260713163539"
    },
    {
      "station_id": "RE000041",
      "name": "강일리버파크10단지아파트",
      "address": "서울특별시 강동구 고덕로97길 20",
      "lat": "37.559",
      "lng": "127.18",
      "total_count": 4,
      "available_count": 2,
      "total_percent": 50.0,
      "slow_total": 4,
      "slow_avail": 2,
      "slow_percent": 50.0,
      "fast_total": 0,
      "fast_avail": 0,
      "fast_percent": 0.0,
      "latest_update": "20260713160803"
    },
    {
      "station_id": "SE000178",
      "name": "서울특별시 동부기술교육원",
      "address": "서울특별시 강동구 고덕로 183",
      "lat": "37.5558598",
      "lng": "127.144973",
      "total_count": 4,
      "available_count": 4,
      "total_percent": 100.0,
      "slow_total": 0,
      "slow_avail": 0,
      "slow_percent": 0.0,
      "fast_total": 4,
      "fast_avail": 4,
      "fast_percent": 100.0,
      "latest_update": "20260713192221"
    },
    {
      "station_id": "SF002425",
      "name": "온조대왕문화체육관",
      "address": "서울특별시 강동구 고덕로 285",
      "lat": "37.556727200",
      "lng": "127.15745394",
      "total_count": 4,
      "available_count": 4,
      "total_percent": 100.0,
      "slow_total": 4,
      "slow_avail": 4,
      "slow_percent": 100.0,
      "fast_total": 0,
      "fast_avail": 0,
      "fast_percent": 0.0,
      "latest_update": "20260713082454"
    },
    {
      "station_id": "ST117407",
      "name": "번영교통(개방 사용가능시간 확인필)",
      "address": "서울특별시 강동구 아리수로94길 72-38",
      "lat": "37.5611804",
      "lng": "127.1754988",
      "total_count": 4,
      "available_count": 4,
      "total_percent": 100.0,
      "slow_total": 0,
      "slow_avail": 0,
      "slow_percent": 0.0,
      "fast_total": 4,
      "fast_avail": 4,
      "fast_percent": 100.0,
      "latest_update": "20260713194855"
    },
    {
      "station_id": "ALAL0017",
      "name": "세종빌딩",
      "address": "서울특별시 강동구 상일로10길 36",
      "lat": "37.550782",
      "lng": "127.174092",
      "total_count": 3,
      "available_count": 2,
      "total_percent": 66.7,
      "slow_total": 3,
      "slow_avail": 2,
      "slow_percent": 66.7,
      "fast_total": 0,
      "fast_avail": 0,
      "fast_percent": 0.0,
      "latest_update": "20260713194557"
    },
    {
      "station_id": "BPA00011",
      "name": "현대코아아파트상가",
      "address": "서울특별시 강동구 천호대로 1095",
      "lat": "37.53",
      "lng": "127.13",
      "total_count": 3,
      "available_count": 0,
      "total_percent": 0.0,
      "slow_total": 3,
      "slow_avail": 0,
      "slow_percent": 0.0,
      "fast_total": 0,
      "fast_avail": 0,
      "fast_percent": 0.0,
      "latest_update": "20260519111840"
    },
    {
      "station_id": "BT000147",
      "name": "안말공영주차장",
      "address": "서울특별시 강동구 풍성로45길 11",
      "lat": "37.53125722",
      "lng": "127.1299156",
      "total_count": 3,
      "available_count": 1,
      "total_percent": 33.3,
      "slow_total": 1,
      "slow_avail": 0,
      "slow_percent": 0.0,
      "fast_total": 2,
      "fast_avail": 1,
      "fast_percent": 50.0,
      "latest_update": "20260713194607"
    },
    {
      "station_id": "CGA00061",
      "name": "천호 브라운스톤(1F/B6F)",
      "address": "서울특별시 강동구 천호대로 1006",
      "lat": "37.5380514",
      "lng": "127.123789",
      "total_count": 3,
      "available_count": 2,
      "total_percent": 66.7,
      "slow_total": 3,
      "slow_avail": 2,
      "slow_percent": 66.7,
      "fast_total": 0,
      "fast_avail": 0,
      "fast_percent": 0.0,
      "latest_update": "20260713181508"
    },
    {
      "station_id": "CPCT0036",
      "name": "강동비오르",
      "address": "서울특별시 강동구 구천면로 183",
      "lat": "37.5412",
      "lng": "127.1254",
      "total_count": 3,
      "available_count": 1,
      "total_percent": 33.3,
      "slow_total": 3,
      "slow_avail": 1,
      "slow_percent": 33.3,
      "fast_total": 0,
      "fast_avail": 0,
      "fast_percent": 0.0,
      "latest_update": "20260708204310"
    },
    {
      "station_id": "CV000626",
      "name": "강동역두산위브센티움아파트",
      "address": "서울특별시 강동구 성안로 155",
      "lat": "37.537385",
      "lng": "127.1349238",
      "total_count": 3,
      "available_count": 2,
      "total_percent": 66.7,
      "slow_total": 3,
      "slow_avail": 2,
      "slow_percent": 66.7,
      "fast_total": 0,
      "fast_avail": 0,
      "fast_percent": 0.0,
      "latest_update": "20260713172517"
    },
    {
      "station_id": "CV001789",
      "name": "서울천호초등학교",
      "address": "서울특별시 강동구 구천면로 310-11",
      "lat": "37.547466",
      "lng": "127.1356803",
      "total_count": 3,
      "available_count": 0,
      "total_percent": 0.0,
      "slow_total": 3,
      "slow_avail": 0,
      "slow_percent": 0.0,
      "fast_total": 0,
      "fast_avail": 0,
      "fast_percent": 0.0,
      "latest_update": "20260713195028"
    },
    {
      "station_id": "CV003187",
      "name": "고덕자이아파트101동 지하3층",
      "address": "서울특별시 강동구 상일로 55",
      "lat": "37.5532055",
      "lng": "127.1688274",
      "total_count": 3,
      "available_count": 0,
      "total_percent": 0.0,
      "slow_total": 3,
      "slow_avail": 0,
      "slow_percent": 0.0,
      "fast_total": 0,
      "fast_avail": 0,
      "fast_percent": 0.0,
      "latest_update": "20260713201045"
    },
    {
      "station_id": "EC003978",
      "name": "고덕리엔파크1단지 104동 P2",
      "address": "서울특별시 강동구 상일로 152",
      "lat": "37.5621163",
      "lng": "127.1724802",
      "total_count": 3,
      "available_count": 0,
      "total_percent": 0.0,
      "slow_total": 3,
      "slow_avail": 0,
      "slow_percent": 0.0,
      "fast_total": 0,
      "fast_avail": 0,
      "fast_percent": 0.0,
      "latest_update": "20260619121004"
    },
    {
      "station_id": "EC003979",
      "name": "고덕리엔파크1단지 106동 P2",
      "address": "서울특별시 강동구 상일로 152",
      "lat": "37.5610518",
      "lng": "127.1718439",
      "total_count": 3,
      "available_count": 0,
      "total_percent": 0.0,
      "slow_total": 3,
      "slow_avail": 0,
      "slow_percent": 0.0,
      "fast_total": 0,
      "fast_avail": 0,
      "fast_percent": 0.0,
      "latest_update": "20260619123601"
    },
    {
      "station_id": "EV001195",
      "name": "서울강동 고덕숲아이파크아파트 3",
      "address": "서울특별시 강동구 고덕로80길 134",
      "lat": "37.5513536",
      "lng": "127.1615347",
      "total_count": 3,
      "available_count": 3,
      "total_percent": 100.0,
      "slow_total": 3,
      "slow_avail": 3,
      "slow_percent": 100.0,
      "fast_total": 0,
      "fast_avail": 0,
      "fast_percent": 0.0,
      "latest_update": "20260712191738"
    },
    {
      "station_id": "EV002133",
      "name": "서울강동 강일리버파크9단지906동",
      "address": "서울특별시 강동구 고덕로97길 29",
      "lat": "37.5599338",
      "lng": "127.178451",
      "total_count": 3,
      "available_count": 2,
      "total_percent": 66.7,
      "slow_total": 3,
      "slow_avail": 2,
      "slow_percent": 66.7,
      "fast_total": 0,
      "fast_avail": 0,
      "fast_percent": 0.0,
      "latest_update": "20260713164441"
    },
    {
      "station_id": "EV003678",
      "name": "서울강동구_강일리버파크3단지",
      "address": "서울특별시 강동구 아리수로93길 40",
      "lat": "37.5655171",
      "lng": "127.1751066",
      "total_count": 3,
      "available_count": 2,
      "total_percent": 66.7,
      "slow_total": 3,
      "slow_avail": 2,
      "slow_percent": 66.7,
      "fast_total": 0,
      "fast_avail": 0,
      "fast_percent": 0.0,
      "latest_update": "20260713174523"
    },
    {
      "station_id": "EV004025",
      "name": "서울강동 고덕삼환아파트",
      "address": "서울특별시 강동구 고덕로62길 29",
      "lat": "37.5543173",
      "lng": "127.1542273",
      "total_count": 3,
      "available_count": 0,
      "total_percent": 0.0,
      "slow_total": 3,
      "slow_avail": 0,
      "slow_percent": 0.0,
      "fast_total": 0,
      "fast_avail": 0,
      "fast_percent": 0.0,
      "latest_update": "20260713192230"
    },
    {
      "station_id": "EV005812",
      "name": "서울강동 성내동하나플러스2",
      "address": "서울특별시 강동구 양재대로85길 60",
      "lat": "37.5253855",
      "lng": "127.1318773",
      "total_count": 3,
      "available_count": 3,
      "total_percent": 100.0,
      "slow_total": 3,
      "slow_avail": 3,
      "slow_percent": 100.0,
      "fast_total": 0,
      "fast_avail": 0,
      "fast_percent": 0.0,
      "latest_update": "20260710160545"
    },
    {
      "station_id": "EV006338",
      "name": "서울강동 천호삼성아파트 1",
      "address": "서울특별시 강동구 성안로25길 6",
      "lat": "37.5383026",
      "lng": "127.1347907",
      "total_count": 3,
      "available_count": 1,
      "total_percent": 33.3,
      "slow_total": 3,
      "slow_avail": 1,
      "slow_percent": 33.3,
      "fast_total": 0,
      "fast_avail": 0,
      "fast_percent": 0.0,
      "latest_update": "20260713200701"
    },
    {
      "station_id": "EV007791",
      "name": "서울강동 성내현대아파트",
      "address": "서울특별시 강동구 천호옛12길 27",
      "lat": "37.5351543",
      "lng": "127.1271458",
      "total_count": 3,
      "available_count": 1,
      "total_percent": 33.3,
      "slow_total": 3,
      "slow_avail": 1,
      "slow_percent": 33.3,
      "fast_total": 0,
      "fast_avail": 0,
      "fast_percent": 0.0,
      "latest_update": "20260713182347"
    },
    {
      "station_id": "EV010072",
      "name": "서울강동 천호태영아파트1",
      "address": "서울특별시 강동구 천호대로 1055",
      "lat": "37.538381685",
      "lng": "127.13041950",
      "total_count": 3,
      "available_count": 2,
      "total_percent": 66.7,
      "slow_total": 3,
      "slow_avail": 2,
      "slow_percent": 66.7,
      "fast_total": 0,
      "fast_avail": 0,
      "fast_percent": 0.0,
      "latest_update": "20260713191023"
    },
    {
      "station_id": "EV010074",
      "name": "서울강동 천호태영아파트3",
      "address": "서울특별시 강동구 천호대로 1055",
      "lat": "37.537797089",
      "lng": "127.12946240",
      "total_count": 3,
      "available_count": 2,
      "total_percent": 66.7,
      "slow_total": 3,
      "slow_avail": 2,
      "slow_percent": 66.7,
      "fast_total": 0,
      "fast_avail": 0,
      "fast_percent": 0.0,
      "latest_update": "20260712093111"
    },
    {
      "station_id": "EV012439",
      "name": "서울강동 고덕우성아파트 2",
      "address": "서울특별시 강동구 고덕로62길 76",
      "lat": "37.551667890",
      "lng": "127.15218780",
      "total_count": 3,
      "available_count": 0,
      "total_percent": 0.0,
      "slow_total": 3,
      "slow_avail": 0,
      "slow_percent": 0.0,
      "fast_total": 0,
      "fast_avail": 0,
      "fast_percent": 0.0,
      "latest_update": "20260713173315"
    },
    {
      "station_id": "EV013429",
      "name": "서울강동 강일리버파크5단지아파트 3",
      "address": "서울특별시 강동구 아리수로97길 20",
      "lat": "37.5681055",
      "lng": "127.1786969",
      "total_count": 3,
      "available_count": 3,
      "total_percent": 100.0,
      "slow_total": 3,
      "slow_avail": 3,
      "slow_percent": 100.0,
      "fast_total": 0,
      "fast_avail": 0,
      "fast_percent": 0.0,
      "latest_update": "20260713084952"
    },
    {
      "station_id": "EV015044",
      "name": "서울강동 명일삼익아파트",
      "address": "서울특별시 강동구 명일로 376",
      "lat": "37.5523290",
      "lng": "127.1509152",
      "total_count": 3,
      "available_count": 3,
      "total_percent": 100.0,
      "slow_total": 3,
      "slow_avail": 3,
      "slow_percent": 100.0,
      "fast_total": 0,
      "fast_avail": 0,
      "fast_percent": 0.0,
      "latest_update": "20260713142717"
    },
    {
      "station_id": "EV015179",
      "name": "서울강동 고덕효성해링턴타워 1",
      "address": "서울특별시 강동구 고덕로 262 (명일동)",
      "lat": "37.5546677",
      "lng": "127.1546222",
      "total_count": 3,
      "available_count": 2,
      "total_percent": 66.7,
      "slow_total": 3,
      "slow_avail": 2,
      "slow_percent": 66.7,
      "fast_total": 0,
      "fast_avail": 0,
      "fast_percent": 0.0,
      "latest_update": "20260713110316"
    },
    {
      "station_id": "EV015260",
      "name": "서울강동 고덕롯데캐슬베네루체 15",
      "address": "서울특별시 강동구 상암로79길 88 (상일동, 고덕 롯데캐슬 베네루체)",
      "lat": "37.5502047",
      "lng": "127.1660592",
      "total_count": 3,
      "available_count": 2,
      "total_percent": 66.7,
      "slow_total": 3,
      "slow_avail": 2,
      "slow_percent": 66.7,
      "fast_total": 0,
      "fast_avail": 0,
      "fast_percent": 0.0,
      "latest_update": "20260713200500"
    },
    {
      "station_id": "EV016136",
      "name": "서울강동 한강현대아파트 2",
      "address": "서울특별시 강동구 올림픽로104길 42",
      "lat": "37.5554708",
      "lng": "127.1316805",
      "total_count": 3,
      "available_count": 2,
      "total_percent": 66.7,
      "slow_total": 3,
      "slow_avail": 2,
      "slow_percent": 66.7,
      "fast_total": 0,
      "fast_avail": 0,
      "fast_percent": 0.0,
      "latest_update": "20260713173113"
    },
    {
      "station_id": "EV019090",
      "name": "서울강동 천호성원아파트 2",
      "address": "서울 강동구 진황도로31길 26",
      "lat": "37.5389087",
      "lng": "127.1343047",
      "total_count": 3,
      "available_count": 3,
      "total_percent": 100.0,
      "slow_total": 3,
      "slow_avail": 3,
      "slow_percent": 100.0,
      "fast_total": 0,
      "fast_avail": 0,
      "fast_percent": 0.0,
      "latest_update": "20260712124521"
    },
    {
      "station_id": "EV020691",
      "name": "서울강동 강일리버파크9단지 1",
      "address": "서울 강동구 고덕로97길 29",
      "lat": "37.5611850",
      "lng": "127.1792520",
      "total_count": 3,
      "available_count": 3,
      "total_percent": 100.0,
      "slow_total": 3,
      "slow_avail": 3,
      "slow_percent": 100.0,
      "fast_total": 0,
      "fast_avail": 0,
      "fast_percent": 0.0,
      "latest_update": "20260626140021"
    },
    {
      "station_id": "EV020692",
      "name": "서울강동 강일리버파크9단지 2",
      "address": "서울 강동구 고덕로97길 29",
      "lat": "37.5599360",
      "lng": "127.1784907",
      "total_count": 3,
      "available_count": 3,
      "total_percent": 100.0,
      "slow_total": 3,
      "slow_avail": 3,
      "slow_percent": 100.0,
      "fast_total": 0,
      "fast_avail": 0,
      "fast_percent": 0.0,
      "latest_update": "20260706201429"
    },
    {
      "station_id": "EV020693",
      "name": "서울강동 강일리버파크9단지 3",
      "address": "서울 강동구 고덕로97길 29",
      "lat": "37.5585543",
      "lng": "127.1791155",
      "total_count": 3,
      "available_count": 3,
      "total_percent": 100.0,
      "slow_total": 3,
      "slow_avail": 3,
      "slow_percent": 100.0,
      "fast_total": 0,
      "fast_avail": 0,
      "fast_percent": 0.0,
      "latest_update": "20260710155739"
    },
    {
      "station_id": "HM000609",
      "name": "고덕아남아파트",
      "address": "서울특별시 강동구 양재대로 1706",
      "lat": "37.557886835",
      "lng": "127.14497922",
      "total_count": 3,
      "available_count": 2,
      "total_percent": 66.7,
      "slow_total": 3,
      "slow_avail": 2,
      "slow_percent": 66.7,
      "fast_total": 0,
      "fast_avail": 0,
      "fast_percent": 0.0,
      "latest_update": "20260713180009"
    },
    {
      "station_id": "KE000025",
      "name": "서울천호e편한세상102동",
      "address": "서울특별시 강동구 올림픽로81길 15",
      "lat": "37.5439224",
      "lng": "127.1245823",
      "total_count": 3,
      "available_count": 3,
      "total_percent": 100.0,
      "slow_total": 3,
      "slow_avail": 3,
      "slow_percent": 100.0,
      "fast_total": 0,
      "fast_avail": 0,
      "fast_percent": 0.0,
      "latest_update": "20260712201509"
    },
    {
      "station_id": "KE000666",
      "name": "서울강동고덕주공",
      "address": "서울특별시 강동구 상암로 251",
      "lat": "37.5479451",
      "lng": "127.151567",
      "total_count": 3,
      "available_count": 0,
      "total_percent": 0.0,
      "slow_total": 3,
      "slow_avail": 0,
      "slow_percent": 0.0,
      "fast_total": 0,
      "fast_avail": 0,
      "fast_percent": 0.0,
      "latest_update": "20260713193309"
    },
    {
      "station_id": "KE000678",
      "name": "강동아트센터",
      "address": "서울특별시 강동구 동남로 870",
      "lat": "37.551183",
      "lng": "127.1574684",
      "total_count": 3,
      "available_count": 3,
      "total_percent": 100.0,
      "slow_total": 3,
      "slow_avail": 3,
      "slow_percent": 100.0,
      "fast_total": 0,
      "fast_avail": 0,
      "fast_percent": 0.0,
      "latest_update": "20260713132109"
    },
    {
      "station_id": "KL001273",
      "name": "성내2차E-편한세상아파트",
      "address": "서울특별시 강동구 풍성로37길 55",
      "lat": "37.53437",
      "lng": "127.126592",
      "total_count": 3,
      "available_count": 2,
      "total_percent": 66.7,
      "slow_total": 3,
      "slow_avail": 2,
      "slow_percent": 66.7,
      "fast_total": 0,
      "fast_avail": 0,
      "fast_percent": 0.0,
      "latest_update": "20260713183702"
    },
    {
      "station_id": "KL002075",
      "name": "한솔솔파크더리버아파트",
      "address": "서울특별시 강동구 선사로 120",
      "lat": "37.5489223",
      "lng": "127.1233777",
      "total_count": 3,
      "available_count": 1,
      "total_percent": 33.3,
      "slow_total": 3,
      "slow_avail": 1,
      "slow_percent": 33.3,
      "fast_total": 0,
      "fast_avail": 0,
      "fast_percent": 0.0,
      "latest_update": "20260713192102"
    },
    {
      "station_id": "KL200241",
      "name": "성내동코오롱2차아파트",
      "address": "서울특별시 강동구 올림픽로 572",
      "lat": "37.5325528",
      "lng": "127.1218186",
      "total_count": 3,
      "available_count": 3,
      "total_percent": 100.0,
      "slow_total": 3,
      "slow_avail": 3,
      "slow_percent": 100.0,
      "fast_total": 0,
      "fast_avail": 0,
      "fast_percent": 0.0,
      "latest_update": "20260704203101"
    },
    {
      "station_id": "KP000016",
      "name": "강동송파지사",
      "address": "서울특별시 강동구 양재대로 1318",
      "lat": "37.52386992",
      "lng": "127.135443",
      "total_count": 3,
      "available_count": 3,
      "total_percent": 100.0,
      "slow_total": 3,
      "slow_avail": 3,
      "slow_percent": 100.0,
      "fast_total": 0,
      "fast_avail": 0,
      "fast_percent": 0.0,
      "latest_update": "20260710224023"
    },
    {
      "station_id": "KP000226",
      "name": "현대백화점 천호점",
      "address": "서울특별시 강동구 천호대로 1005",
      "lat": "37.53887464166",
      "lng": "127.1244744264",
      "total_count": 3,
      "available_count": 1,
      "total_percent": 33.3,
      "slow_total": 0,
      "slow_avail": 0,
      "slow_percent": 0.0,
      "fast_total": 3,
      "fast_avail": 1,
      "fast_percent": 33.3,
      "latest_update": "20260713142025"
    },
    {
      "station_id": "KP001802",
      "name": "길동삼익파크",
      "address": "서울특별시 강동구 길동 명일로 293 ",
      "lat": "37.5447060359",
      "lng": "127.1463619029",
      "total_count": 3,
      "available_count": 3,
      "total_percent": 100.0,
      "slow_total": 2,
      "slow_avail": 2,
      "slow_percent": 100.0,
      "fast_total": 1,
      "fast_avail": 1,
      "fast_percent": 100.0,
      "latest_update": "20260713184021"
    },
    {
      "station_id": "KP002271",
      "name": "신성둔촌미소지움아파트 입주자대표회의",
      "address": "서울특별시 강동구 둔촌동 명일로 102 ",
      "lat": "37.5276457671",
      "lng": "127.1425454548",
      "total_count": 3,
      "available_count": 2,
      "total_percent": 66.7,
      "slow_total": 3,
      "slow_avail": 2,
      "slow_percent": 66.7,
      "fast_total": 0,
      "fast_avail": 0,
      "fast_percent": 0.0,
      "latest_update": "20260713195011"
    },
    {
      "station_id": "LU001842",
      "name": "호원취업지원센터",
      "address": "서울특별시 강동구 성안로 30",
      "lat": "37.52629",
      "lng": "127.130305",
      "total_count": 3,
      "available_count": 2,
      "total_percent": 66.7,
      "slow_total": 3,
      "slow_avail": 2,
      "slow_percent": 66.7,
      "fast_total": 0,
      "fast_avail": 0,
      "fast_percent": 0.0,
      "latest_update": "20260713195925"
    },
    {
      "station_id": "LU002299",
      "name": "KS한국고용정보",
      "address": "서울특별시 강동구 고덕비즈밸리로 38",
      "lat": "37.5662",
      "lng": "127.1596",
      "total_count": 3,
      "available_count": 3,
      "total_percent": 100.0,
      "slow_total": 3,
      "slow_avail": 3,
      "slow_percent": 100.0,
      "fast_total": 0,
      "fast_avail": 0,
      "fast_percent": 0.0,
      "latest_update": "20260713194544"
    },
    {
      "station_id": "LU003685",
      "name": "암사동동원베네스트",
      "address": "서울특별시 강동구 고덕로 52-11",
      "lat": "37.554076",
      "lng": "127.131134",
      "total_count": 3,
      "available_count": 2,
      "total_percent": 66.7,
      "slow_total": 3,
      "slow_avail": 2,
      "slow_percent": 66.7,
      "fast_total": 0,
      "fast_avail": 0,
      "fast_percent": 0.0,
      "latest_update": "20260713193818"
    },
    {
      "station_id": "LU004060",
      "name": "강일큐브",
      "address": "서울특별시 강동구 아리수로 423",
      "lat": "37.564774",
      "lng": "127.174315",
      "total_count": 3,
      "available_count": 3,
      "total_percent": 100.0,
      "slow_total": 3,
      "slow_avail": 3,
      "slow_percent": 100.0,
      "fast_total": 0,
      "fast_avail": 0,
      "fast_percent": 0.0,
      "latest_update": "20260627123324"
    },
    {
      "station_id": "LU100331",
      "name": "브라운스톤암사아파트",
      "address": "서울특별시 강동구 올림픽로92길 61",
      "lat": "37.548965",
      "lng": "127.12918771",
      "total_count": 3,
      "available_count": 3,
      "total_percent": 100.0,
      "slow_total": 3,
      "slow_avail": 3,
      "slow_percent": 100.0,
      "fast_total": 0,
      "fast_avail": 0,
      "fast_percent": 0.0,
      "latest_update": "20260711120032"
    },
    {
      "station_id": "LU101062",
      "name": "형인허브빌",
      "address": "서울특별시 강동구 상암로49길 13",
      "lat": "37.54702289",
      "lng": "127.14443501",
      "total_count": 3,
      "available_count": 2,
      "total_percent": 66.7,
      "slow_total": 3,
      "slow_avail": 2,
      "slow_percent": 66.7,
      "fast_total": 0,
      "fast_avail": 0,
      "fast_percent": 0.0,
      "latest_update": "20260713193549"
    },
    {
      "station_id": "LU101353",
      "name": "성내동아1차아파트",
      "address": "서울특별시 강동구 풍성로54길 12-11",
      "lat": "37.5288006",
      "lng": "127.1329396",
      "total_count": 3,
      "available_count": 3,
      "total_percent": 100.0,
      "slow_total": 3,
      "slow_avail": 3,
      "slow_percent": 100.0,
      "fast_total": 0,
      "fast_avail": 0,
      "fast_percent": 0.0,
      "latest_update": "20260704200759"
    },
    {
      "station_id": "NT101224",
      "name": "강동 암사e편한세상아파트",
      "address": "서울특별시 강동구 구천면로 365-13",
      "lat": "37.5511368",
      "lng": "127.13926",
      "total_count": 3,
      "available_count": 2,
      "total_percent": 66.7,
      "slow_total": 3,
      "slow_avail": 2,
      "slow_percent": 66.7,
      "fast_total": 0,
      "fast_avail": 0,
      "fast_percent": 0.0,
      "latest_update": "20260713172650"
    },