{
  "district": "중랑구",
  "zscode": "11260",
  "summary": {
    "total_count": 1000,
    "available_count": 733,
    "total_percent": 73.3,
    "slow_total": 906,
    "slow_avail": 664,
    "slow_percent": 73.3,
    "fast_total": 94,
    "fast_avail": 69,
    "fast_percent": 73.4,
    "station_count": 252
  },
  "stations": [
    {
      "station_id": "NT101833",
      "name": "신내 데시앙포레아파트",
      "address": "서울특별시 중랑구 신내역로 165",
      "lat": "37.61658",
      "lng": "127.10963",
      "total_count": 92,
      "available_count": 79,
      "total_percent": 85.9,
      "slow_total": 92,
      "slow_avail": 79,
      "slow_percent": 85.9,
      "fast_total": 0,
      "fast_avail": 0,
      "fast_percent": 0.0,
      "latest_update": "20260714100650"
    },
    {
      "station_id": "LU002295",
      "name": "신내데시앙플렉스",
      "address": "서울특별시 중랑구 신내역로3길 40-36",
      "lat": "37.617604",
      "lng": "127.104063",
      "total_count": 33,
      "available_count": 29,
      "total_percent": 87.9,
      "slow_total": 32,
      "slow_avail": 28,
      "slow_percent": 87.5,
      "fast_total": 1,
      "fast_avail": 1,
      "fast_percent": 100.0,
      "latest_update": "20260714094452"
    },
    {
      "station_id": "HM110345",
      "name": "_세이지움상봉아파트(B2층)",
      "address": "서울특별시 중랑구 봉우재로 101",
      "lat": "37.5925689",
      "lng": "127.0842839",
      "total_count": 28,
      "available_count": 22,
      "total_percent": 78.6,
      "slow_total": 27,
      "slow_avail": 21,
      "slow_percent": 77.8,
      "fast_total": 1,
      "fast_avail": 1,
      "fast_percent": 100.0,
      "latest_update": "20260714071619"
    },
    {
      "station_id": "IN120116",
      "name": "홈플러스상봉점",
      "address": "서울특별시 중랑구 망우로 353",
      "lat": "37.5979",
      "lng": "127.0902",
      "total_count": 22,
      "available_count": 0,
      "total_percent": 0.0,
      "slow_total": 22,
      "slow_avail": 0,
      "slow_percent": 0.0,
      "fast_total": 0,
      "fast_avail": 0,
      "fast_percent": 0.0,
      "latest_update": "20260615122842"
    },
    {
      "station_id": "EV006165",
      "name": "서울중랑 신내대림두산아파트",
      "address": "서울특별시 중랑구 신내로21길 16",
      "lat": "37.6168016",
      "lng": "127.0868849",
      "total_count": 20,
      "available_count": 16,
      "total_percent": 80.0,
      "slow_total": 20,
      "slow_avail": 16,
      "slow_percent": 80.0,
      "fast_total": 0,
      "fast_avail": 0,
      "fast_percent": 0.0,
      "latest_update": "20260714100116"
    },
    {
      "station_id": "NT102008",
      "name": "상봉 프레미어스엠코아파트",
      "address": "서울특별시 중랑구 망우로 353",
      "lat": "37.59833",
      "lng": "127.09162",
      "total_count": 15,
      "available_count": 10,
      "total_percent": 66.7,
      "slow_total": 15,
      "slow_avail": 10,
      "slow_percent": 66.7,
      "fast_total": 0,
      "fast_avail": 0,
      "fast_percent": 0.0,
      "latest_update": "20260714100950"
    },
    {
      "station_id": "IN120059",
      "name": "용마산모아엘가파크포레",
      "address": "서울특별시 중랑구 용마산로84길 9-16",
      "lat": "37.5855",
      "lng": "127.0954",
      "total_count": 12,
      "available_count": 0,
      "total_percent": 0.0,
      "slow_total": 11,
      "slow_avail": 0,
      "slow_percent": 0.0,
      "fast_total": 1,
      "fast_avail": 0,
      "fast_percent": 0.0,
      "latest_update": "20260615122838"
    },
    {
      "station_id": "CGA00180",
      "name": "면목유수지 공영주차장",
      "address": "서울특별시 중랑구 사가정로 33",
      "lat": "37.5792087",
      "lng": "127.0812079",
      "total_count": 10,
      "available_count": 3,
      "total_percent": 30.0,
      "slow_total": 10,
      "slow_avail": 3,
      "slow_percent": 30.0,
      "fast_total": 0,
      "fast_avail": 0,
      "fast_percent": 0.0,
      "latest_update": "20260714084509"
    },
    {
      "station_id": "CV001112",
      "name": "면목유수지 공영주차장",
      "address": "서울특별시 중랑구 사가정로 332",
      "lat": "37.5809128",
      "lng": "127.080373",
      "total_count": 10,
      "available_count": 6,
      "total_percent": 60.0,
      "slow_total": 2,
      "slow_avail": 2,
      "slow_percent": 100.0,
      "fast_total": 8,
      "fast_avail": 4,
      "fast_percent": 50.0,
      "latest_update": "20260714100022"
    },
    {
      "station_id": "EC001022",
      "name": "중화한신아파트",
      "address": "서울특별시 중랑구 동일로 752",
      "lat": "37.5975832",
      "lng": "127.080582",
      "total_count": 10,
      "available_count": 0,
      "total_percent": 0.0,
      "slow_total": 10,
      "slow_avail": 0,
      "slow_percent": 0.0,
      "fast_total": 0,
      "fast_avail": 0,
      "fast_percent": 0.0,
      "latest_update": "20260529144002"
    },
    {
      "station_id": "HE001141",
      "name": "코스트코 상봉점",
      "address": "서울특별시 중랑구 망우로 336",
      "lat": "37.5968",
      "lng": "127.0902",
      "total_count": 10,
      "available_count": 10,
      "total_percent": 100.0,
      "slow_total": 10,
      "slow_avail": 10,
      "slow_percent": 100.0,
      "fast_total": 0,
      "fast_avail": 0,
      "fast_percent": 0.0,
      "latest_update": "20260713215400"
    },
    {
      "station_id": "HE192301",
      "name": "늘푸른동아아파트",
      "address": "서울특별시 중랑구 동일로 476",
      "lat": "37.572713",
      "lng": "127.080685",
      "total_count": 10,
      "available_count": 10,
      "total_percent": 100.0,
      "slow_total": 10,
      "slow_avail": 10,
      "slow_percent": 100.0,
      "fast_total": 0,
      "fast_avail": 0,
      "fast_percent": 0.0,
      "latest_update": "20260714095721"
    },
    {
      "station_id": "NT100593",
      "name": "신내대림두산아파트",
      "address": "서울특별시 중랑구 신내로21길 16",
      "lat": "37.617040296",
      "lng": "127.09001614",
      "total_count": 10,
      "available_count": 9,
      "total_percent": 90.0,
      "slow_total": 10,
      "slow_avail": 9,
      "slow_percent": 90.0,
      "fast_total": 0,
      "fast_avail": 0,
      "fast_percent": 0.0,
      "latest_update": "20260714003750"
    },
    {
      "station_id": "CGA00127",
      "name": "중랑 동부아파트",
      "address": "서울특별시 중랑구 신내로7가길 31",
      "lat": "37.602073131",
      "lng": "127.09342432",
      "total_count": 9,
      "available_count": 4,
      "total_percent": 44.4,
      "slow_total": 9,
      "slow_avail": 4,
      "slow_percent": 44.4,
      "fast_total": 0,
      "fast_avail": 0,
      "fast_percent": 0.0,
      "latest_update": "20260714083011"
    },
    {
      "station_id": "CV001705",
      "name": "홈플러스 신내점",
      "address": "서울특별시 중랑구 신내로 201",
      "lat": "37.6159157",
      "lng": "127.093473",
      "total_count": 9,
      "available_count": 9,
      "total_percent": 100.0,
      "slow_total": 7,
      "slow_avail": 7,
      "slow_percent": 100.0,
      "fast_total": 2,
      "fast_avail": 2,
      "fast_percent": 100.0,
      "latest_update": "20260714101028"
    },
    {
      "station_id": "LU100380",
      "name": "브라운스톤태릉",
      "address": "서울특별시 중랑구 공릉로18길 59",
      "lat": "37.61874142",
      "lng": "127.0824272",
      "total_count": 8,
      "available_count": 7,
      "total_percent": 87.5,
      "slow_total": 8,
      "slow_avail": 7,
      "slow_percent": 87.5,
      "fast_total": 0,
      "fast_avail": 0,
      "fast_percent": 0.0,
      "latest_update": "20260714072954"
    },
    {
      "station_id": "NT100415",
      "name": "신내 대명아파트",
      "address": "서울특별시 중랑구 봉화산로 193",
      "lat": "37.6068291",
      "lng": "127.0943394",
      "total_count": 8,
      "available_count": 4,
      "total_percent": 50.0,
      "slow_total": 8,
      "slow_avail": 4,
      "slow_percent": 50.0,
      "fast_total": 0,
      "fast_avail": 0,
      "fast_percent": 0.0,
      "latest_update": "20260714100950"
    },
    {
      "station_id": "NT102163",
      "name": "중랑 숲리가아파트",
      "address": "서울특별시 중랑구 망우로75길 19",
      "lat": "37.60172",
      "lng": "127.10489",
      "total_count": 8,
      "available_count": 6,
      "total_percent": 75.0,
      "slow_total": 8,
      "slow_avail": 6,
      "slow_percent": 75.0,
      "fast_total": 0,
      "fast_avail": 0,
      "fast_percent": 0.0,
      "latest_update": "20260714091750"
    },
    {
      "station_id": "KP000012",
      "name": "동대문중랑지사",
      "address": "서울특별시 중랑구 동일로 862",
      "lat": "37.60746854",
      "lng": "127.0792448",
      "total_count": 7,
      "available_count": 3,
      "total_percent": 42.9,
      "slow_total": 6,
      "slow_avail": 3,
      "slow_percent": 50.0,
      "fast_total": 1,
      "fast_avail": 0,
      "fast_percent": 0.0,
      "latest_update": "20260708020019"
    },
    {
      "station_id": "LU101287",
      "name": "면목동대원칸타빌아파트",
      "address": "서울특별시 중랑구 용마산로 285",
      "lat": "37.5776001",
      "lng": "127.0899084",
      "total_count": 7,
      "available_count": 7,
      "total_percent": 100.0,
      "slow_total": 7,
      "slow_avail": 7,
      "slow_percent": 100.0,
      "fast_total": 0,
      "fast_avail": 0,
      "fast_percent": 0.0,
      "latest_update": "20260714091449"
    },
    {
      "station_id": "EV001534",
      "name": "신내새한아파트",
      "address": "서울특별시 중랑구 용마산로 616 (신내동, 새한아파트)",
      "lat": "37.6049326",
      "lng": "127.1012258",
      "total_count": 6,
      "available_count": 6,
      "total_percent": 100.0,
      "slow_total": 6,
      "slow_avail": 6,
      "slow_percent": 100.0,
      "fast_total": 0,
      "fast_avail": 0,
      "fast_percent": 0.0,
      "latest_update": "20260714064720"
    },
    {
      "station_id": "EV008072",
      "name": "서울중랑 묵동아이파크2",
      "address": "서울특별시 중랑구 중랑천로 286",
      "lat": "37.6106955",
      "lng": "127.0734802",
      "total_count": 6,
      "available_count": 6,
      "total_percent": 100.0,
      "slow_total": 6,
      "slow_avail": 6,
      "slow_percent": 100.0,
      "fast_total": 0,
      "fast_avail": 0,
      "fast_percent": 0.0,
      "latest_update": "20260714083022"
    },
    {
      "station_id": "EV014901",
      "name": "서울중랑 중화한신아파트 5",
      "address": "서울특별시 중랑구 동일로 752",
      "lat": "37.5970091",
      "lng": "127.0820707",
      "total_count": 6,
      "available_count": 4,
      "total_percent": 66.7,
      "slow_total": 6,
      "slow_avail": 4,
      "slow_percent": 66.7,
      "fast_total": 0,
      "fast_avail": 0,
      "fast_percent": 0.0,
      "latest_update": "20260714085035"
    },
    {
      "station_id": "EV015105",
      "name": "서울중랑 신내SKV1센터 3",
      "address": "서울특별시 중랑구 신내역로 111",
      "lat": "37.6131218",
      "lng": "127.1124419",
      "total_count": 6,
      "available_count": 2,
      "total_percent": 33.3,
      "slow_total": 6,
      "slow_avail": 2,
      "slow_percent": 33.3,
      "fast_total": 0,
      "fast_avail": 0,
      "fast_percent": 0.0,
      "latest_update": "20260714090242"
    },
    {
      "station_id": "EV016336",
      "name": "서울중랑 면목아파트 2",
      "address": "서울특별시 중랑구 용마산로 228 (면목동, 면목임대아파트)",
      "lat": "37.5741661",
      "lng": "127.0883022",
      "total_count": 6,
      "available_count": 6,
      "total_percent": 100.0,
      "slow_total": 6,
      "slow_avail": 6,
      "slow_percent": 100.0,
      "fast_total": 0,
      "fast_avail": 0,
      "fast_percent": 0.0,
      "latest_update": "20260713205534"
    },
    {
      "station_id": "EV017612",
      "name": "서울중랑 신내10단지아파트 3",
      "address": "서울특별시 중랑구 신내로 115 (신내동, 신내10단지신내아파트)",
      "lat": "37.6092975",
      "lng": "127.0949042",
      "total_count": 6,
      "available_count": 6,
      "total_percent": 100.0,
      "slow_total": 6,
      "slow_avail": 6,
      "slow_percent": 100.0,
      "fast_total": 0,
      "fast_avail": 0,
      "fast_percent": 0.0,
      "latest_update": "20260712181654"
    },
    {
      "station_id": "HM000077",
      "name": "면목라온프라이빗",
      "address": "서울특별시 중랑구 동일로91길 23",
      "lat": "37.5828972",
      "lng": "127.078237",
      "total_count": 6,
      "available_count": 5,
      "total_percent": 83.3,
      "slow_total": 6,
      "slow_avail": 5,
      "slow_percent": 83.3,
      "fast_total": 0,
      "fast_avail": 0,
      "fast_percent": 0.0,
      "latest_update": "20260714084601"
    },
    {
      "station_id": "KL001261",
      "name": "신성은하수아파트",
      "address": "서울특별시 중랑구 중랑천로 43",
      "lat": "37.588701",
      "lng": "127.072955",
      "total_count": 6,
      "available_count": 6,
      "total_percent": 100.0,
      "slow_total": 6,
      "slow_avail": 6,
      "slow_percent": 100.0,
      "fast_total": 0,
      "fast_avail": 0,
      "fast_percent": 0.0,
      "latest_update": "20260628214401"
    },
    {
      "station_id": "LU100761",
      "name": "중랑신성은하수아파트",
      "address": "서울특별시 중랑구 중랑천로 43",
      "lat": "37.58928331",
      "lng": "127.07250007",
      "total_count": 6,
      "available_count": 5,
      "total_percent": 83.3,
      "slow_total": 6,
      "slow_avail": 5,
      "slow_percent": 83.3,
      "fast_total": 0,
      "fast_avail": 0,
      "fast_percent": 0.0,
      "latest_update": "20260714082209"
    },
    {
      "station_id": "NT101637",
      "name": "신내 영풍마드레빌",
      "address": "서울특별시 중랑구 용마산로129가길 41",
      "lat": "37.60602",
      "lng": "127.10023",
      "total_count": 6,
      "available_count": 5,
      "total_percent": 83.3,
      "slow_total": 6,
      "slow_avail": 5,
      "slow_percent": 83.3,
      "fast_total": 0,
      "fast_avail": 0,
      "fast_percent": 0.0,
      "latest_update": "20260714070750"
    },
    {
      "station_id": "NT101738",
      "name": "신내 새한아파트",
      "address": "서울특별시 중랑구 용마산로 616",
      "lat": "37.60493",
      "lng": "127.10122",
      "total_count": 6,
      "available_count": 6,
      "total_percent": 100.0,
      "slow_total": 6,
      "slow_avail": 6,
      "slow_percent": 100.0,
      "fast_total": 0,
      "fast_avail": 0,
      "fast_percent": 0.0,
      "latest_update": "20260714051350"
    },
    {
      "station_id": "BNBN0877",
      "name": "중랑구 까치공원 공영주차장",
      "address": "서울특별시 중랑구 사가정로49길 56",
      "lat": "37.5835656",
      "lng": "127.0876489",
      "total_count": 5,
      "available_count": 3,
      "total_percent": 60.0,
      "slow_total": 5,
      "slow_avail": 3,
      "slow_percent": 60.0,
      "fast_total": 0,
      "fast_avail": 0,
      "fast_percent": 0.0,
      "latest_update": "20260714083918"
    },
    {
      "station_id": "CGA00311",
      "name": "중랑 경남아너스빌",
      "address": "서울특별시 중랑구 봉화산로56길 112",
      "lat": "37.6037136",
      "lng": "127.0968200",
      "total_count": 5,
      "available_count": 4,
      "total_percent": 80.0,
      "slow_total": 5,
      "slow_avail": 4,
      "slow_percent": 80.0,
      "fast_total": 0,
      "fast_avail": 0,
      "fast_percent": 0.0,
      "latest_update": "20260714093018"
    },
    {
      "station_id": "EC004897",
      "name": "면목라온프라이빗 B2 46기둥",
      "address": "서울특별시 중랑구 동일로91길 23",
      "lat": "37.5828972",
      "lng": "127.078237",
      "total_count": 5,
      "available_count": 4,
      "total_percent": 80.0,
      "slow_total": 5,
      "slow_avail": 4,
      "slow_percent": 80.0,
      "fast_total": 0,
      "fast_avail": 0,
      "fast_percent": 0.0,
      "latest_update": "20260714083202"
    },
    {
      "station_id": "ER000504",
      "name": "묵동금호어울림아파트",
      "address": "서울 중랑구 공릉로2길 39",
      "lat": "37.6128951",
      "lng": "127.0799352",
      "total_count": 5,
      "available_count": 5,
      "total_percent": 100.0,
      "slow_total": 5,
      "slow_avail": 5,
      "slow_percent": 100.0,
      "fast_total": 0,
      "fast_avail": 0,
      "fast_percent": 0.0,
      "latest_update": "20260714060236"
    },
    {
      "station_id": "EV002392",
      "name": "서울중랑 상봉듀오트리스B동",
      "address": "서울특별시 중랑구 상봉로 131",
      "lat": "37.5972617",
      "lng": "127.0922538",
      "total_count": 5,
      "available_count": 5,
      "total_percent": 100.0,
      "slow_total": 5,
      "slow_avail": 5,
      "slow_percent": 100.0,
      "fast_total": 0,
      "fast_avail": 0,
      "fast_percent": 0.0,
      "latest_update": "20260714093903"
    },
    {
      "station_id": "EV002393",
      "name": "서울중랑 상봉듀오트리스A동",
      "address": "서울특별시 중랑구 상봉로 131",
      "lat": "37.597721",
      "lng": "127.0924469",
      "total_count": 5,
      "available_count": 4,
      "total_percent": 80.0,
      "slow_total": 5,
      "slow_avail": 4,
      "slow_percent": 80.0,
      "fast_total": 0,
      "fast_avail": 0,
      "fast_percent": 0.0,
      "latest_update": "20260714090041"
    },
    {
      "station_id": "EV005128",
      "name": "서울중랑 브라운스톤태릉아파트",
      "address": "서울특별시 중랑구 공릉로18길 59",
      "lat": "37.6186495",
      "lng": "127.0814315",
      "total_count": 5,
      "available_count": 3,
      "total_percent": 60.0,
      "slow_total": 5,
      "slow_avail": 3,
      "slow_percent": 60.0,
      "fast_total": 0,
      "fast_avail": 0,
      "fast_percent": 0.0,
      "latest_update": "20260714075057"
    },
    {
      "station_id": "EV005142",
      "name": "서울중랑 e편한세상아파트",
      "address": "서울특별시 중랑구 숙선옹주로 45",
      "lat": "37.6156214",
      "lng": "127.0827355",
      "total_count": 5,
      "available_count": 4,
      "total_percent": 80.0,
      "slow_total": 5,
      "slow_avail": 4,
      "slow_percent": 80.0,
      "fast_total": 0,
      "fast_avail": 0,
      "fast_percent": 0.0,
      "latest_update": "20260714084633"
    },
    {
      "station_id": "EV007529",
      "name": "서울중랑 면목두산2 3차아파트",
      "address": "서울특별시 중랑구 면목로37길 58",
      "lat": "37.5807751",
      "lng": "127.0836026",
      "total_count": 5,
      "available_count": 2,
      "total_percent": 40.0,
      "slow_total": 5,
      "slow_avail": 2,
      "slow_percent": 40.0,
      "fast_total": 0,
      "fast_avail": 0,
      "fast_percent": 0.0,
      "latest_update": "20260714090846"
    },
    {
      "station_id": "EV007761",
      "name": "서울중랑 면목두산4단지5단지2",
      "address": "서울특별시 중랑구 사가정로42길 90",
      "lat": "37.5779594",
      "lng": "127.0810925",
      "total_count": 5,
      "available_count": 5,
      "total_percent": 100.0,
      "slow_total": 5,
      "slow_avail": 5,
      "slow_percent": 100.0,
      "fast_total": 0,
      "fast_avail": 0,
      "fast_percent": 0.0,
      "latest_update": "20260714094909"
    },
    {
      "station_id": "EV008071",
      "name": "서울중랑 묵동아이파크1",
      "address": "서울특별시 중랑구 중랑천로 286",
      "lat": "37.6106955",
      "lng": "127.0734802",
      "total_count": 5,
      "available_count": 5,
      "total_percent": 100.0,
      "slow_total": 5,
      "slow_avail": 5,
      "slow_percent": 100.0,
      "fast_total": 0,
      "fast_avail": 0,
      "fast_percent": 0.0,
      "latest_update": "20260714071335"
    },
    {
      "station_id": "EV008904",
      "name": "서울중랑 신내벽산아파트1",
      "address": "서울특별시 중랑구 용마산로125길 50",
      "lat": "37.603078177",
      "lng": "127.09981738",
      "total_count": 5,
      "available_count": 3,
      "total_percent": 60.0,
      "slow_total": 5,
      "slow_avail": 3,
      "slow_percent": 60.0,
      "fast_total": 0,
      "fast_avail": 0,
      "fast_percent": 0.0,
      "latest_update": "20260714062910"
    },
    {
      "station_id": "EV011839",
      "name": "서울중랑 신내10단지아파트 1",
      "address": "서울특별시 중랑구 신내로 115",
      "lat": "37.609297527",
      "lng": "127.09490420",
      "total_count": 5,
      "available_count": 5,
      "total_percent": 100.0,
      "slow_total": 5,
      "slow_avail": 5,
      "slow_percent": 100.0,
      "fast_total": 0,
      "fast_avail": 0,
      "fast_percent": 0.0,
      "latest_update": "20260713180940"
    },
    {
      "station_id": "EV014897",
      "name": "서울중랑 중화한신아파트 1",
      "address": "서울특별시 중랑구 동일로 752",
      "lat": "37.5970091",
      "lng": "127.0820707",
      "total_count": 5,
      "available_count": 3,
      "total_percent": 60.0,
      "slow_total": 5,
      "slow_avail": 3,
      "slow_percent": 60.0,
      "fast_total": 0,
      "fast_avail": 0,
      "fast_percent": 0.0,
      "latest_update": "20260714073549"
    },
    {
      "station_id": "EV015103",
      "name": "서울중랑 신내SKV1센터 1",
      "address": "서울특별시 중랑구 신내역로 111",
      "lat": "37.6131218",
      "lng": "127.1124419",
      "total_count": 5,
      "available_count": 0,
      "total_percent": 0.0,
      "slow_total": 5,
      "slow_avail": 0,
      "slow_percent": 0.0,
      "fast_total": 0,
      "fast_avail": 0,
      "fast_percent": 0.0,
      "latest_update": "20260714090443"
    },
    {
      "station_id": "EV015104",
      "name": "서울중랑 신내SKV1센터 2",
      "address": "서울특별시 중랑구 신내역로 111",
      "lat": "37.6131218",
      "lng": "127.1124419",
      "total_count": 5,
      "available_count": 1,
      "total_percent": 20.0,
      "slow_total": 5,
      "slow_avail": 1,
      "slow_percent": 20.0,
      "fast_total": 0,
      "fast_avail": 0,
      "fast_percent": 0.0,
      "latest_update": "20260714095915"
    },
    {
      "station_id": "EV015107",
      "name": "서울중랑 신내SKV1센터 5",
      "address": "서울특별시 중랑구 신내역로 111",
      "lat": "37.6131218",
      "lng": "127.1124419",
      "total_count": 5,
      "available_count": 4,
      "total_percent": 80.0,
      "slow_total": 5,
      "slow_avail": 4,
      "slow_percent": 80.0,
      "fast_total": 0,
      "fast_avail": 0,
      "fast_percent": 0.0,
      "latest_update": "20260713153356"
    },
    {
      "station_id": "EV015108",
      "name": "서울중랑 신내SKV1센터 6",
      "address": "서울특별시 중랑구 신내역로 111",
      "lat": "37.6131218",
      "lng": "127.1124419",
      "total_count": 5,
      "available_count": 5,
      "total_percent": 100.0,
      "slow_total": 5,
      "slow_avail": 5,
      "slow_percent": 100.0,
      "fast_total": 0,
      "fast_avail": 0,
      "fast_percent": 0.0,
      "latest_update": "20260713094021"
    },
    {
      "station_id": "EV017717",
      "name": "서울중랑 신내9단지아파트 2",
      "address": "서울특별시 중랑구 신내로 127 (신내동, 신내9단지신내아파트)",
      "lat": "37.6108674",
      "lng": "127.0956519",
      "total_count": 5,
      "available_count": 4,
      "total_percent": 80.0,
      "slow_total": 5,
      "slow_avail": 4,
      "slow_percent": 80.0,
      "fast_total": 0,
      "fast_avail": 0,
      "fast_percent": 0.0,
      "latest_update": "20260714031927"
    },
    {
      "station_id": "EV018565",
      "name": "서울중랑 용마한신2차아파트 1",
      "address": "서울 중랑구 사가정로71길 11",
      "lat": "37.5810043",
      "lng": "127.0945040",
      "total_count": 5,
      "available_count": 2,
      "total_percent": 40.0,
      "slow_total": 5,
      "slow_avail": 2,
      "slow_percent": 40.0,
      "fast_total": 0,
      "fast_avail": 0,
      "fast_percent": 0.0,
      "latest_update": "20260714072947"
    },
    {
      "station_id": "HY000867",
      "name": "중랑 해모로아파트",
      "address": "서울특별시 중랑구 양원역로6가길 19",
      "lat": "37.6032913",
      "lng": "127.1098413",
      "total_count": 5,
      "available_count": 5,
      "total_percent": 100.0,
      "slow_total": 5,
      "slow_avail": 5,
      "slow_percent": 100.0,
      "fast_total": 0,
      "fast_avail": 0,
      "fast_percent": 0.0,
      "latest_update": "20260714091404"
    },
    {
      "station_id": "KL001977",
      "name": "묵동한국아파트",
      "address": "서울특별시 중랑구 중랑천로 332",
      "lat": "37.614334",
      "lng": "127.0735021",
      "total_count": 5,
      "available_count": 5,
      "total_percent": 100.0,
      "slow_total": 5,
      "slow_avail": 5,
      "slow_percent": 100.0,
      "fast_total": 0,
      "fast_avail": 0,
      "fast_percent": 0.0,
      "latest_update": "20260714082001"
    },
    {
      "station_id": "KL001988",
      "name": "상봉동태영데시앙아파트",
      "address": "서울특별시 중랑구 상봉중앙로8길 104",
      "lat": "37.6033569",
      "lng": "127.0926848",
      "total_count": 5,
      "available_count": 4,
      "total_percent": 80.0,
      "slow_total": 5,
      "slow_avail": 4,
      "slow_percent": 80.0,
      "fast_total": 0,
      "fast_avail": 0,
      "fast_percent": 0.0,
      "latest_update": "20260712231101"
    },
    {
      "station_id": "KL002016",
      "name": "중화한신아파트",
      "address": "서울특별시 중랑구 동일로 752",
      "lat": "37.5972356",
      "lng": "127.0823486",
      "total_count": 5,
      "available_count": 4,
      "total_percent": 80.0,
      "slow_total": 5,
      "slow_avail": 4,
      "slow_percent": 80.0,
      "fast_total": 0,
      "fast_avail": 0,
      "fast_percent": 0.0,
      "latest_update": "20260714095701"
    },
    {
      "station_id": "LU002521",
      "name": "신내영풍마드레빌",
      "address": "서울특별시 중랑구 용마산로129가길 41",
      "lat": "37.606020",
      "lng": "127.100233",
      "total_count": 5,
      "available_count": 3,
      "total_percent": 60.0,
      "slow_total": 5,
      "slow_avail": 3,
      "slow_percent": 60.0,
      "fast_total": 0,
      "fast_avail": 0,
      "fast_percent": 0.0,
      "latest_update": "20260714095256"
    },
    {
      "station_id": "LU004315",
      "name": "예성그린캐슬아파트",
      "address": "서울특별시 중랑구 용마산로112가길 34",
      "lat": "37.597145",
      "lng": "127.101899",
      "total_count": 5,
      "available_count": 2,
      "total_percent": 40.0,
      "slow_total": 5,
      "slow_avail": 2,
      "slow_percent": 40.0,
      "fast_total": 0,
      "fast_avail": 0,
      "fast_percent": 0.0,
      "latest_update": "20260714081638"
    },
    {
      "station_id": "LU101433",
      "name": "신내역 힐데스하임 참좋은아파트",
      "address": "서울특별시 중랑구 봉화산로 301",
      "lat": "37.6100126",
      "lng": "127.1049866",
      "total_count": 5,
      "available_count": 3,
      "total_percent": 60.0,
      "slow_total": 5,
      "slow_avail": 3,
      "slow_percent": 60.0,
      "fast_total": 0,
      "fast_avail": 0,
      "fast_percent": 0.0,
      "latest_update": "20260714084446"
    },
    {
      "station_id": "NT101458",
      "name": "면목동 금호어울림아파트",
      "address": "서울특별시 중랑구 용마산로 271",
      "lat": "37.57736",
      "lng": "127.08964",
      "total_count": 5,
      "available_count": 4,
      "total_percent": 80.0,
      "slow_total": 5,
      "slow_avail": 4,
      "slow_percent": 80.0,
      "fast_total": 0,
      "fast_avail": 0,
      "fast_percent": 0.0,
      "latest_update": "20260714101050"
    },
    {
      "station_id": "NT101780",
      "name": "상봉 듀오트리스아파트상가",
      "address": "서울특별시 중랑구 상봉로 131",
      "lat": "37.59740",
      "lng": "127.09217",
      "total_count": 5,
      "available_count": 1,
      "total_percent": 20.0,
      "slow_total": 5,
      "slow_avail": 1,
      "slow_percent": 20.0,
      "fast_total": 0,
      "fast_avail": 0,
      "fast_percent": 0.0,
      "latest_update": "20260714030750"
    },
    {
      "station_id": "BNBN0878",
      "name": "중랑구 봉화산역 공영주차장",
      "address": "서울특별시 중랑구 신내로 208",
      "lat": "37.6170335",
      "lng": "127.0927031",
      "total_count": 4,
      "available_count": 0,
      "total_percent": 0.0,
      "slow_total": 4,
      "slow_avail": 0,
      "slow_percent": 0.0,
      "fast_total": 0,
      "fast_avail": 0,
      "fast_percent": 0.0,
      "latest_update": "20260714025112"
    },
    {
      "station_id": "CG000033",
      "name": "중랑 묵동신안2차아파트",
      "address": "서울특별시 중랑구 공릉로2나길 44",
      "lat": "37.6141418",
      "lng": "127.0795124",
      "total_count": 4,
      "available_count": 4,
      "total_percent": 100.0,
      "slow_total": 4,
      "slow_avail": 4,
      "slow_percent": 100.0,
      "fast_total": 0,
      "fast_avail": 0,
      "fast_percent": 0.0,
      "latest_update": "20260713101511"
    },
    {
      "station_id": "CGA00083",
      "name": "서울교통공사 신내차량기지",
      "address": "서울특별시 중랑구 용마산로136길 33",
      "lat": "37.610960228",
      "lng": "127.10925942",
      "total_count": 4,
      "available_count": 4,
      "total_percent": 100.0,
      "slow_total": 4,
      "slow_avail": 4,
      "slow_percent": 100.0,
      "fast_total": 0,
      "fast_avail": 0,
      "fast_percent": 0.0,
      "latest_update": "20260713013021"
    },
    {
      "station_id": "CSSJ0001",
      "name": "스마트중앙건설",
      "address": "서울특별시 중랑구 망우로 236",
      "lat": "37.594376",
      "lng": "127.078760",
      "total_count": 4,
      "available_count": 0,
      "total_percent": 0.0,
      "slow_total": 4,
      "slow_avail": 0,
      "slow_percent": 0.0,
      "fast_total": 0,
      "fast_avail": 0,
      "fast_percent": 0.0,
      "latest_update": ""
    },
    {
      "station_id": "CV001936",
      "name": "중곡초교 공영주차장",
      "address": "서울특별시 중랑구 면목로23길 20",
      "lat": "37.5741245",
      "lng": "127.0832173",
      "total_count": 4,
      "available_count": 2,
      "total_percent": 50.0,
      "slow_total": 2,
      "slow_avail": 0,
      "slow_percent": 0.0,
      "fast_total": 2,
      "fast_avail": 2,
      "fast_percent": 100.0,
      "latest_update": "20260714100528"
    },
    {
      "station_id": "EP220273",
      "name": "서울 중화동 오피스텔 충전소(NEWK)",
      "address": "서울특별시 중랑구 중랑천로 129-1",
      "lat": "37.596487461",
      "lng": "127.07191019",
      "total_count": 4,
      "available_count": 0,
      "total_percent": 0.0,
      "slow_total": 4,
      "slow_avail": 0,
      "slow_percent": 0.0,
      "fast_total": 0,
      "fast_avail": 0,
      "fast_percent": 0.0,
      "latest_update": ""
    },
    {
      "station_id": "EV006161",
      "name": "서울중랑 덕수콜택시1",
      "address": "서울특별시 중랑구 겸재로27길 57",
      "lat": "37.5897453",
      "lng": "127.0842513",
      "total_count": 4,
      "available_count": 4,
      "total_percent": 100.0,
      "slow_total": 0,
      "slow_avail": 0,
      "slow_percent": 0.0,
      "fast_total": 4,
      "fast_avail": 4,
      "fast_percent": 100.0,
      "latest_update": "20260714070731"
    },
    {
      "station_id": "EV006265",
      "name": "서울중랑구 새한택시1",
      "address": "서울특별시 중랑구 용마산로 571",
      "lat": "37.6019294",
      "lng": "127.100107",
      "total_count": 4,
      "available_count": 1,
      "total_percent": 25.0,
      "slow_total": 0,
      "slow_avail": 0,
      "slow_percent": 0.0,
      "fast_total": 4,
      "fast_avail": 1,
      "fast_percent": 25.0,
      "latest_update": "20260714063514"
    },
    {
      "station_id": "EV006280",
      "name": "서울중랑 덕수콜택시2",
      "address": "서울특별시 중랑구 겸재로27길 57",
      "lat": "37.5898294",
      "lng": "127.0843457",
      "total_count": 4,
      "available_count": 2,
      "total_percent": 50.0,
      "slow_total": 0,
      "slow_avail": 0,
      "slow_percent": 0.0,
      "fast_total": 4,
      "fast_avail": 2,
      "fast_percent": 50.0,
      "latest_update": "20260714030720"
    },
    {
      "station_id": "EV006281",
      "name": "서울중랑 새한택시2",
      "address": "서울특별시 중랑구 용마산로 571",
      "lat": "37.6019294",
      "lng": "127.100107",
      "total_count": 4,
      "available_count": 4,
      "total_percent": 100.0,
      "slow_total": 0,
      "slow_avail": 0,
      "slow_percent": 0.0,
      "fast_total": 4,
      "fast_avail": 4,
      "fast_percent": 100.0,
      "latest_update": "20260714083224"
    },
    {
      "station_id": "EV007548",
      "name": "서울중랑 묵동신안1차아파트",
      "address": "서울특별시 중랑구 공릉로2길 47",
      "lat": "37.6123786",
      "lng": "127.0806282",
      "total_count": 4,
      "available_count": 4,
      "total_percent": 100.0,
      "slow_total": 4,
      "slow_avail": 4,
      "slow_percent": 100.0,
      "fast_total": 0,
      "fast_avail": 0,
      "fast_percent": 0.0,
      "latest_update": "20260713120145"
    },
    {
      "station_id": "EV010391",
      "name": "서울중랑 중랑숲금호어울림 1",
      "address": "서울특별시 중랑구 양원역로 18",
      "lat": "37.6028468",
      "lng": "127.1093212",
      "total_count": 4,
      "available_count": 4,
      "total_percent": 100.0,
      "slow_total": 4,
      "slow_avail": 4,
      "slow_percent": 100.0,
      "fast_total": 0,
      "fast_avail": 0,
      "fast_percent": 0.0,
      "latest_update": "20260711103509"
    },
    {
      "station_id": "EV010392",
      "name": "서울중랑 중랑숲금호어울림 2",
      "address": "서울특별시 중랑구 양원역로 18",
      "lat": "37.601675",
      "lng": "127.10988",
      "total_count": 4,
      "available_count": 3,
      "total_percent": 75.0,
      "slow_total": 4,
      "slow_avail": 3,
      "slow_percent": 75.0,
      "fast_total": 0,
      "fast_avail": 0,
      "fast_percent": 0.0,
      "latest_update": "20260713230858"
    },
    {
      "station_id": "EV012749",
      "name": "서울중랑 신내9단지아파트",
      "address": "서울특별시 중랑구 신내로 135 (신내동)",
      "lat": "37.6113848",
      "lng": "127.0958495",
      "total_count": 4,
      "available_count": 2,
      "total_percent": 50.0,
      "slow_total": 4,
      "slow_avail": 2,
      "slow_percent": 50.0,
      "fast_total": 0,
      "fast_avail": 0,
      "fast_percent": 0.0,
      "latest_update": "20260714083827"
    },
    {
      "station_id": "EV014899",
      "name": "서울중랑 중화한신아파트 3",
      "address": "서울특별시 중랑구 동일로 752",
      "lat": "37.5970091",
      "lng": "127.0820707",
      "total_count": 4,
      "available_count": 4,
      "total_percent": 100.0,
      "slow_total": 4,
      "slow_avail": 4,
      "slow_percent": 100.0,
      "fast_total": 0,
      "fast_avail": 0,
      "fast_percent": 0.0,
      "latest_update": "20260714070731"
    },
    {
      "station_id": "EV014900",
      "name": "서울중랑 중화한신아파트 4",
      "address": "서울특별시 중랑구 동일로 752",
      "lat": "37.5970091",
      "lng": "127.0820707",
      "total_count": 4,
      "available_count": 3,
      "total_percent": 75.0,
      "slow_total": 4,
      "slow_avail": 3,
      "slow_percent": 75.0,
      "fast_total": 0,
      "fast_avail": 0,
      "fast_percent": 0.0,
      "latest_update": "20260714082619"
    },
    {
      "station_id": "EV017614",
      "name": "서울중랑 신내10단지아파트 5",
      "address": "서울특별시 중랑구 신내로 115 (신내동, 신내10단지신내아파트)",
      "lat": "37.6092975",
      "lng": "127.0949042",
      "total_count": 4,
      "available_count": 4,
      "total_percent": 100.0,
      "slow_total": 4,
      "slow_avail": 4,
      "slow_percent": 100.0,
      "fast_total": 0,
      "fast_avail": 0,
      "fast_percent": 0.0,
      "latest_update": "20260714082821"
    },
    {
      "station_id": "EV018803",
      "name": "서울중랑 청광플러스원아파트 1",
      "address": "서울특별시 중랑구 동일로 136길 15",
      "lat": "37.6025548",
      "lng": "127.0801702",
      "total_count": 4,
      "available_count": 3,
      "total_percent": 75.0,
      "slow_total": 4,
      "slow_avail": 3,
      "slow_percent": 75.0,
      "fast_total": 0,
      "fast_avail": 0,
      "fast_percent": 0.0,
      "latest_update": "20260714053239"
    },
    {
      "station_id": "EV020148",
      "name": "서울중랑 베네스트로프트 1",
      "address": "서울 중랑구 용마산로 636",
      "lat": "37.6078742",
      "lng": "127.1016238",
      "total_count": 4,
      "available_count": 2,
      "total_percent": 50.0,
      "slow_total": 4,
      "slow_avail": 2,
      "slow_percent": 50.0,
      "fast_total": 0,
      "fast_avail": 0,
      "fast_percent": 0.0,
      "latest_update": "20260714073750"
    },
    {
      "station_id": "HU200021",
      "name": "묵동자이상가2단지",
      "address": "서울특별시 중랑구 동일로 932",
      "lat": "37.6138515",
      "lng": "127.0775781",
      "total_count": 4,
      "available_count": 3,
      "total_percent": 75.0,
      "slow_total": 4,
      "slow_avail": 3,
      "slow_percent": 75.0,
      "fast_total": 0,
      "fast_avail": 0,
      "fast_percent": 0.0,
      "latest_update": "20260714054003"
    },
    {
      "station_id": "HY001441",
      "name": "면목 성원상떼빌",
      "address": "서울특별시 중랑구 용마산로 278",
      "lat": "37.577521",
      "lng": "127.090907",
      "total_count": 4,
      "available_count": 4,
      "total_percent": 100.0,
      "slow_total": 4,
      "slow_avail": 4,
      "slow_percent": 100.0,
      "fast_total": 0,
      "fast_avail": 0,
      "fast_percent": 0.0,
      "latest_update": "20260713172707"
    },
    {
      "station_id": "KE000464",
      "name": "서울면목동신성미소지움101동",
      "address": "서울특별시 중랑구 용마산로86길 9-27",
      "lat": "37.6019256",
      "lng": "127.0973932",
      "total_count": 4,
      "available_count": 3,
      "total_percent": 75.0,
      "slow_total": 4,
      "slow_avail": 3,
      "slow_percent": 75.0,
      "fast_total": 0,
      "fast_avail": 0,
      "fast_percent": 0.0,
      "latest_update": "20260714091109"
    },
    {
      "station_id": "LU001446",
      "name": "극동늘푸른",
      "address": "서울특별시 중랑구 동일로 941",
      "lat": "37.614867",
      "lng": "127.076203",
      "total_count": 4,
      "available_count": 4,
      "total_percent": 100.0,
      "slow_total": 4,
      "slow_avail": 4,
      "slow_percent": 100.0,
      "fast_total": 0,
      "fast_avail": 0,
      "fast_percent": 0.0,
      "latest_update": "20260714061000"
    },
    {
      "station_id": "LU003652",
      "name": "면목두산2차",
      "address": "서울특별시 중랑구 면목로37길 58",
      "lat": "37.580775",
      "lng": "127.083603",
      "total_count": 4,
      "available_count": 3,
      "total_percent": 75.0,
      "slow_total": 4,
      "slow_avail": 3,
      "slow_percent": 75.0,
      "fast_total": 0,
      "fast_avail": 0,
      "fast_percent": 0.0,
      "latest_update": "20260714073341"
    },
    {
      "station_id": "LU003653",
      "name": "면목두산3차",
      "address": "서울특별시 중랑구 면목로37길 57",
      "lat": "37.580015",
      "lng": "127.082931",
      "total_count": 4,
      "available_count": 4,
      "total_percent": 100.0,
      "slow_total": 4,
      "slow_avail": 4,
      "slow_percent": 100.0,
      "fast_total": 0,
      "fast_avail": 0,
      "fast_percent": 0.0,
      "latest_update": "20260714063909"
    },
    {
      "station_id": "NT102043",
      "name": "신내 석탑아파트",
      "address": "서울특별시 중랑구 용마산로125길 92",
      "lat": "37.60356",
      "lng": "127.1012",
      "total_count": 4,
      "available_count": 3,
      "total_percent": 75.0,
      "slow_total": 4,
      "slow_avail": 3,
      "slow_percent": 75.0,
      "fast_total": 0,
      "fast_avail": 0,
      "fast_percent": 0.0,
      "latest_update": "20260714075550"
    },
    {
      "station_id": "CGA00179",
      "name": "면목2동 공영주차장",
      "address": "서울특별시 중랑구 겸재로23길 27",
      "lat": "37.587935109",
      "lng": "127.08089330",
      "total_count": 3,
      "available_count": 3,
      "total_percent": 100.0,
      "slow_total": 3,
      "slow_avail": 3,
      "slow_percent": 100.0,
      "fast_total": 0,
      "fast_avail": 0,
      "fast_percent": 0.0,
      "latest_update": "20260714060008"
    },
    {
      "station_id": "CV001837",
      "name": "면목2동 공영주차장",
      "address": "서울특별시 중랑구 동일로109길 35",
      "lat": "37.5915302",
      "lng": "127.078230",
      "total_count": 3,
      "available_count": 2,
      "total_percent": 66.7,
      "slow_total": 1,
      "slow_avail": 0,
      "slow_percent": 0.0,
      "fast_total": 2,
      "fast_avail": 2,
      "fast_percent": 100.0,
      "latest_update": "20260714093526"
    },
    {
      "station_id": "CV001919",
      "name": "서울시북부병원",
      "address": "서울특별시 중랑구 양원역로 38",
      "lat": "37.6042665",
      "lng": "127.107257",
      "total_count": 3,
      "available_count": 1,
      "total_percent": 33.3,
      "slow_total": 3,
      "slow_avail": 1,
      "slow_percent": 33.3,
      "fast_total": 0,
      "fast_avail": 0,
      "fast_percent": 0.0,
      "latest_update": "20260714100528"
    },
    {
      "station_id": "EV001177",
      "name": "서울중랑구 신내두산화성아파트1",
      "address": "서울특별시 중랑구 신내로 155",
      "lat": "37.6141509",
      "lng": "127.0949307",
      "total_count": 3,
      "available_count": 3,
      "total_percent": 100.0,
      "slow_total": 3,
      "slow_avail": 3,
      "slow_percent": 100.0,
      "fast_total": 0,
      "fast_avail": 0,
      "fast_percent": 0.0,
      "latest_update": "20260714072544"
    },
    {
      "station_id": "EV001178",
      "name": "서울중랑구 신내두산화성아파트2",
      "address": "서울특별시 중랑구 신내로 155",
      "lat": "37.6137388",
      "lng": "127.0947773",
      "total_count": 3,
      "available_count": 3,
      "total_percent": 100.0,
      "slow_total": 3,
      "slow_avail": 3,
      "slow_percent": 100.0,
      "fast_total": 0,
      "fast_avail": 0,
      "fast_percent": 0.0,
      "latest_update": "20260714045219"
    },
    {
      "station_id": "EV006792",
      "name": "서울중랑 신내우디안1단지1(B1)",
      "address": "서울특별시 중랑구 신내역로1길 85",
      "lat": "37.617470925",
      "lng": "127.10562457",
      "total_count": 3,
      "available_count": 2,
      "total_percent": 66.7,
      "slow_total": 3,
      "slow_avail": 2,
      "slow_percent": 66.7,
      "fast_total": 0,
      "fast_avail": 0,
      "fast_percent": 0.0,
      "latest_update": "20260714053842"
    },
    {
      "station_id": "EV006793",
      "name": "서울중랑 신내우디안1단지2(B1)",
      "address": "서울특별시 중랑구 신내역로1길 85",
      "lat": "37.617000374",
      "lng": "127.10538321",
      "total_count": 3,
      "available_count": 2,
      "total_percent": 66.7,
      "slow_total": 3,
      "slow_avail": 2,
      "slow_percent": 66.7,
      "fast_total": 0,
      "fast_avail": 0,
      "fast_percent": 0.0,
      "latest_update": "20260714065123"
    },
    {
      "station_id": "EV006794",
      "name": "서울중랑 신내우디안1단지3(B1)",
      "address": "서울특별시 중랑구 신내역로1길 85",
      "lat": "37.616053646",
      "lng": "127.10615491",
      "total_count": 3,
      "available_count": 2,
      "total_percent": 66.7,
      "slow_total": 3,
      "slow_avail": 2,
      "slow_percent": 66.7,
      "fast_total": 0,
      "fast_avail": 0,
      "fast_percent": 0.0,
      "latest_update": "20260714101123"
    },
    {
      "station_id": "EV006795",
      "name": "서울중랑 신내우디안1단지4(B1)",
      "address": "서울특별시 중랑구 신내역로1길 85",
      "lat": "37.615675701",
      "lng": "127.10563053",
      "total_count": 3,
      "available_count": 3,
      "total_percent": 100.0,
      "slow_total": 3,
      "slow_avail": 3,
      "slow_percent": 100.0,
      "fast_total": 0,
      "fast_avail": 0,
      "fast_percent": 0.0,
      "latest_update": "20260710160547"
    },
    {
      "station_id": "EV006796",
      "name": "서울중랑 신내우디안1단지5(B1)",
      "address": "서울특별시 중랑구 신내역로1길 85",
      "lat": "37.616423895",
      "lng": "127.10521250",
      "total_count": 3,
      "available_count": 3,
      "total_percent": 100.0,
      "slow_total": 3,
      "slow_avail": 3,
      "slow_percent": 100.0,
      "fast_total": 0,
      "fast_avail": 0,
      "fast_percent": 0.0,
      "latest_update": "20260712142822"
    },
    {
      "station_id": "EV006798",
      "name": "서울중랑 신내우디안1단지7(B2)",
      "address": "서울특별시 중랑구 신내역로1길 85",
      "lat": "37.616885846",
      "lng": "127.10749547",
      "total_count": 3,
      "available_count": 2,
      "total_percent": 66.7,
      "slow_total": 3,
      "slow_avail": 2,
      "slow_percent": 66.7,
      "fast_total": 0,
      "fast_avail": 0,
      "fast_percent": 0.0,
      "latest_update": "20260714084633"
    },
    {
      "station_id": "EV006799",
      "name": "서울중랑 신내우디안1단지8(B2)",
      "address": "서울특별시 중랑구 신내역로1길 85",
      "lat": "37.617210859",
      "lng": "127.10677103",
      "total_count": 3,
      "available_count": 3,
      "total_percent": 100.0,
      "slow_total": 3,
      "slow_avail": 3,
      "slow_percent": 100.0,
      "fast_total": 0,
      "fast_avail": 0,
      "fast_percent": 0.0,
      "latest_update": "20260714085840"
    },
    {
      "station_id": "EV006800",
      "name": "서울중랑 신내우디안1단지9(B1)",
      "address": "서울특별시 중랑구 신내역로1길 85",
      "lat": "37.618099071",
      "lng": "127.10595110",
      "total_count": 3,
      "available_count": 1,
      "total_percent": 33.3,
      "slow_total": 3,
      "slow_avail": 1,
      "slow_percent": 33.3,
      "fast_total": 0,
      "fast_avail": 0,
      "fast_percent": 0.0,
      "latest_update": "20260714031716"
    },
    {
      "station_id": "EV006801",
      "name": "서울중랑 신내우디안1단지10(B2)",
      "address": "서울특별시 중랑구 신내역로1길 85",
      "lat": "37.618255701",
      "lng": "127.10710666",
      "total_count": 3,
      "available_count": 2,
      "total_percent": 66.7,
      "slow_total": 3,
      "slow_avail": 2,
      "slow_percent": 66.7,
      "fast_total": 0,
      "fast_avail": 0,
      "fast_percent": 0.0,
      "latest_update": "20260714075800"
    },
    {
      "station_id": "EV007512",
      "name": "서울중랑구 신내두산화성아파트4",
      "address": "서울특별시 중랑구 신내로 155",
      "lat": "37.613817814",
      "lng": "127.09453391",
      "total_count": 3,
      "available_count": 3,
      "total_percent": 100.0,
      "slow_total": 3,
      "slow_avail": 3,
      "slow_percent": 100.0,
      "fast_total": 0,
      "fast_avail": 0,
      "fast_percent": 0.0,
      "latest_update": "20260714092053"
    },
    {
      "station_id": "EV007513",
      "name": "서울중랑구 신내두산화성아파트5",
      "address": "서울특별시 중랑구 신내로 155",
      "lat": "37.613678027",
      "lng": "127.09470080",
      "total_count": 3,
      "available_count": 3,
      "total_percent": 100.0,
      "slow_total": 3,
      "slow_avail": 3,
      "slow_percent": 100.0,
      "fast_total": 0,
      "fast_avail": 0,
      "fast_percent": 0.0,
      "latest_update": "20260714043809"
    },
    {
      "station_id": "EV007760",
      "name": "서울중랑 면목두산4단지5단지1",
      "address": "서울특별시 중랑구 사가정로42길 90",
      "lat": "37.578193325",
      "lng": "127.08151242",
      "total_count": 3,
      "available_count": 2,
      "total_percent": 66.7,
      "slow_total": 3,
      "slow_avail": 2,
      "slow_percent": 66.7,
      "fast_total": 0,
      "fast_avail": 0,
      "fast_percent": 0.0,
      "latest_update": "20260713223438"
    },
    {
      "station_id": "EV008074",
      "name": "서울중랑 면목마젤란21아파트2",
      "address": "서울특별시 중랑구 겸재로30길 42",
      "lat": "37.586451430",
      "lng": "127.08400944",
      "total_count": 3,
      "available_count": 3,
      "total_percent": 100.0,
      "slow_total": 3,
      "slow_avail": 3,
      "slow_percent": 100.0,
      "fast_total": 0,
      "fast_avail": 0,
      "fast_percent": 0.0,
      "latest_update": "20260714095915"
    },
    {
      "station_id": "EV010094",
      "name": "서울중랑 면목현대아파트1",
      "address": "서울특별시 중랑구 용마산로 252",
      "lat": "37.5764507",
      "lng": "127.0897264",
      "total_count": 3,
      "available_count": 3,
      "total_percent": 100.0,
      "slow_total": 3,
      "slow_avail": 3,
      "slow_percent": 100.0,
      "fast_total": 0,
      "fast_avail": 0,
      "fast_percent": 0.0,
      "latest_update": "20260714073750"
    },
    {
      "station_id": "EV010095",
      "name": "서울중랑 면목현대아파트2",
      "address": "서울특별시 중랑구 용마산로 252",
      "lat": "37.575996",
      "lng": "127.0893268",
      "total_count": 3,
      "available_count": 2,
      "total_percent": 66.7,
      "slow_total": 3,
      "slow_avail": 2,
      "slow_percent": 66.7,
      "fast_total": 0,
      "fast_avail": 0,
      "fast_percent": 0.0,
      "latest_update": "20260714071335"
    },
    {
      "station_id": "EV010096",
      "name": "서울중랑 면목현대아파트3",
      "address": "서울특별시 중랑구 용마산로 252",
      "lat": "37.5754985",
      "lng": "127.0889498",
      "total_count": 3,
      "available_count": 3,
      "total_percent": 100.0,
      "slow_total": 3,
      "slow_avail": 3,
      "slow_percent": 100.0,
      "fast_total": 0,
      "fast_avail": 0,
      "fast_percent": 0.0,
      "latest_update": "20260714061301"
    },
    {
      "station_id": "EV010393",
      "name": "서울중랑 중랑숲금호어울림 3",
      "address": "서울특별시 중랑구 양원역로 18",
      "lat": "37.6019461",
      "lng": "127.1089631",
      "total_count": 3,
      "available_count": 3,
      "total_percent": 100.0,
      "slow_total": 3,
      "slow_avail": 3,
      "slow_percent": 100.0,
      "fast_total": 0,
      "fast_avail": 0,
      "fast_percent": 0.0,
      "latest_update": "20260714093903"
    },
    {
      "station_id": "EV010394",
      "name": "서울중랑 중랑숲금호어울림 4",
      "address": "서울특별시 중랑구 양원역로 18",
      "lat": "37.6012286",
      "lng": "127.11027",
      "total_count": 3,
      "available_count": 3,
      "total_percent": 100.0,
      "slow_total": 3,
      "slow_avail": 3,
      "slow_percent": 100.0,
      "fast_total": 0,
      "fast_avail": 0,
      "fast_percent": 0.0,
      "latest_update": "20260714074958"
    },
    {
      "station_id": "EV010712",
      "name": "서울중랑 신내12단지아파트1 (콘센트)",
      "address": "서울특별시 중랑구 봉화산로 153",
      "lat": "37.604768516",
      "lng": "127.09020205",
      "total_count": 3,
      "available_count": 3,
      "total_percent": 100.0,
      "slow_total": 3,
      "slow_avail": 3,
      "slow_percent": 100.0,
      "fast_total": 0,
      "fast_avail": 0,
      "fast_percent": 0.0,
      "latest_update": "20260607172901"
    },
    {
      "station_id": "EV010713",
      "name": "서울중랑 신내12단지아파트2 (콘센트)",
      "address": "서울특별시 중랑구 봉화산로 153",
      "lat": "37.605695339",
      "lng": "127.09175468",
      "total_count": 3,
      "available_count": 3,
      "total_percent": 100.0,
      "slow_total": 3,
      "slow_avail": 3,
      "slow_percent": 100.0,
      "fast_total": 0,
      "fast_avail": 0,
      "fast_percent": 0.0,
      "latest_update": "20260710201153"
    },
    {
      "station_id": "EV011751",
      "name": "서울중랑 신내의료안심주택",
      "address": "서울특별시 중랑구 신내로16길 33",
      "lat": "37.614174400",
      "lng": "127.09766301",
      "total_count": 3,
      "available_count": 3,
      "total_percent": 100.0,
      "slow_total": 3,
      "slow_avail": 3,
      "slow_percent": 100.0,
      "fast_total": 0,
      "fast_avail": 0,
      "fast_percent": 0.0,
      "latest_update": "20260710160547"
    },
    {
      "station_id": "EV011840",
      "name": "서울중랑 신내10단지아파트 2",
      "address": "서울특별시 중랑구 신내로 115",
      "lat": "37.610206454",
      "lng": "127.09533912",
      "total_count": 3,
      "available_count": 2,
      "total_percent": 66.7,
      "slow_total": 3,
      "slow_avail": 2,
      "slow_percent": 66.7,
      "fast_total": 0,
      "fast_avail": 0,
      "fast_percent": 0.0,
      "latest_update": "20260714094909"
    },
    {
      "station_id": "EV012186",
      "name": "서울중랑 상봉듀오트리스 3",
      "address": "서울특별시 중랑구 상봉로 131 (상봉동, 상봉 듀오트리스)",
      "lat": "37.5974066",
      "lng": "127.0921776",
      "total_count": 3,
      "available_count": 2,
      "total_percent": 66.7,
      "slow_total": 3,
      "slow_avail": 2,
      "slow_percent": 66.7,
      "fast_total": 0,
      "fast_avail": 0,
      "fast_percent": 0.0,
      "latest_update": "20260714101122"
    },
    {
      "station_id": "EV012400",
      "name": "서울중랑 두원아파트",
      "address": "서울특별시 중랑구 동일로 483",
      "lat": "37.573562785",
      "lng": "127.07975242",
      "total_count": 3,
      "available_count": 3,
      "total_percent": 100.0,
      "slow_total": 3,
      "slow_avail": 3,
      "slow_percent": 100.0,
      "fast_total": 0,
      "fast_avail": 0,
      "fast_percent": 0.0,
      "latest_update": "20260712071155"
    },
    {
      "station_id": "EV012571",
      "name": "서울중랑 중랑숲금호어울림 5",
      "address": "서울특별시 중랑구 양원역로 18",
      "lat": "37.60277431",
      "lng": "127.108648",
      "total_count": 3,
      "available_count": 3,
      "total_percent": 100.0,
      "slow_total": 3,
      "slow_avail": 3,
      "slow_percent": 100.0,
      "fast_total": 0,
      "fast_avail": 0,
      "fast_percent": 0.0,
      "latest_update": "20260713080521"
    },
    {
      "station_id": "EV014443",
      "name": "서울중랑 신내우디안4단지아파트",
      "address": "서울특별시 중랑구 신내역로 160",
      "lat": "37.6167551",
      "lng": "127.1114570",
      "total_count": 3,
      "available_count": 3,
      "total_percent": 100.0,
      "slow_total": 3,
      "slow_avail": 3,
      "slow_percent": 100.0,
      "fast_total": 0,
      "fast_avail": 0,
      "fast_percent": 0.0,
      "latest_update": "20260713070847"
    },
    {
      "station_id": "EV014794",
      "name": "서울중랑 중앙하이츠아파트 1",
      "address": "서울특별시 중랑구 봉화산로56길 123",
      "lat": "37.6035495",
      "lng": "127.0989035",
      "total_count": 3,
      "available_count": 0,
      "total_percent": 0.0,
      "slow_total": 3,
      "slow_avail": 0,
      "slow_percent": 0.0,
      "fast_total": 0,
      "fast_avail": 0,
      "fast_percent": 0.0,
      "latest_update": "20260713093216"
    },
    {
      "station_id": "EV014795",
      "name": "서울중랑 중앙하이츠아파트 2",
      "address": "서울특별시 중랑구 봉화산로56길 123",
      "lat": "37.6035495",
      "lng": "127.0989035",
      "total_count": 3,
      "available_count": 2,
      "total_percent": 66.7,
      "slow_total": 3,
      "slow_avail": 2,
      "slow_percent": 66.7,
      "fast_total": 0,
      "fast_avail": 0,
      "fast_percent": 0.0,
      "latest_update": "20260714073750"
    },
    {
      "station_id": "EV014796",
      "name": "서울중랑 중앙하이츠아파트 3",
      "address": "서울특별시 중랑구 봉화산로56길 123",
      "lat": "37.6035495",
      "lng": "127.0989035",
      "total_count": 3,
      "available_count": 2,
      "total_percent": 66.7,
      "slow_total": 3,
      "slow_avail": 2,
      "slow_percent": 66.7,
      "fast_total": 0,
      "fast_avail": 0,
      "fast_percent": 0.0,
      "latest_update": "20260714100116"
    },
    {
      "station_id": "EV014898",
      "name": "서울중랑 중화한신아파트 2",
      "address": "서울특별시 중랑구 동일로 752",
      "lat": "37.5970091",
      "lng": "127.0820707",
      "total_count": 3,
      "available_count": 3,
      "total_percent": 100.0,
      "slow_total": 3,
      "slow_avail": 3,
      "slow_percent": 100.0,
      "fast_total": 0,
      "fast_avail": 0,
      "fast_percent": 0.0,
      "latest_update": "20260713075716"
    },
    {
      "station_id": "EV014902",
      "name": "서울중랑 중화한신아파트 6",
      "address": "서울특별시 중랑구 동일로 752",
      "lat": "37.5970091",
      "lng": "127.0820707",
      "total_count": 3,
      "available_count": 3,
      "total_percent": 100.0,
      "slow_total": 3,
      "slow_avail": 3,
      "slow_percent": 100.0,
      "fast_total": 0,
      "fast_avail": 0,
      "fast_percent": 0.0,
      "latest_update": "20260706211102"
    },
    {
      "station_id": "EV015106",
      "name": "서울중랑 신내SKV1센터 4",
      "address": "서울특별시 중랑구 신내역로 111",
      "lat": "37.6131218",
      "lng": "127.1124419",
      "total_count": 3,
      "available_count": 3,
      "total_percent": 100.0,
      "slow_total": 3,
      "slow_avail": 3,
      "slow_percent": 100.0,
      "fast_total": 0,
      "fast_avail": 0,
      "fast_percent": 0.0,
      "latest_update": "20260714092456"
    },
    {
      "station_id": "EV015656",
      "name": "서울중랑 신내동성4차아파트 1",
      "address": "서울특별시 중랑구 봉화산로 216 (신내동, 동성아파트)",
      "lat": "37.6068884",
      "lng": "127.0970278",
      "total_count": 3,
      "available_count": 2,
      "total_percent": 66.7,
      "slow_total": 3,
      "slow_avail": 2,
      "slow_percent": 66.7,
      "fast_total": 0,
      "fast_avail": 0,
      "fast_percent": 0.0,
      "latest_update": "20260714082419"
    },
    {
      "station_id": "EV015657",
      "name": "서울중랑 신내동성4차아파트 2",
      "address": "서울특별시 중랑구 봉화산로 216 (신내동, 동성아파트)",
      "lat": "37.6068884",
      "lng": "127.0970278",
      "total_count": 3,
      "available_count": 3,
      "total_percent": 100.0,
      "slow_total": 3,
      "slow_avail": 3,
      "slow_percent": 100.0,
      "fast_total": 0,
      "fast_avail": 0,
      "fast_percent": 0.0,
      "latest_update": "20260714085438"
    },
    {
      "station_id": "EV016335",
      "name": "서울중랑 면목아파트 1",
      "address": "서울특별시 중랑구 용마산로 228 (면목동, 면목임대아파트)",
      "lat": "37.5741661",
      "lng": "127.0883022",
      "total_count": 3,
      "available_count": 3,
      "total_percent": 100.0,
      "slow_total": 3,
      "slow_avail": 3,
      "slow_percent": 100.0,
      "fast_total": 0,
      "fast_avail": 0,
      "fast_percent": 0.0,
      "latest_update": "20260713173315"
    },
    {
      "station_id": "EV016353",
      "name": "서울중랑 망우동청광오뜨빌",
      "address": "서울특별시 중랑구 용마산로116길 76 (망우동, 청광아파트)",
      "lat": "37.5995814",
      "lng": "127.1048115",
      "total_count": 3,
      "available_count": 2,
      "total_percent": 66.7,
      "slow_total": 3,
      "slow_avail": 2,
      "slow_percent": 66.7,
      "fast_total": 0,
      "fast_avail": 0,
      "fast_percent": 0.0,
      "latest_update": "20260713152751"
    },
    {
      "station_id": "EV016470",
      "name": "서울중랑 신내글로리움아파트 1",
      "address": "서울특별시 중랑구 신내로 208 (신내동, 신내글로리움)",
      "lat": "37.6170001",
      "lng": "127.0931176",
      "total_count": 3,
      "available_count": 2,
      "total_percent": 66.7,
      "slow_total": 3,
      "slow_avail": 2,
      "slow_percent": 66.7,
      "fast_total": 0,
      "fast_avail": 0,
      "fast_percent": 0.0,
      "latest_update": "20260713221827"
    },
    {
      "station_id": "HE230062",
      "name": "코스트코 상봉점",
      "address": "서울특별시 중랑구 망우로 336",
      "lat": "37.596865",
      "lng": "127.0902963",
      "total_count": 3,
      "available_count": 3,
      "total_percent": 100.0,
      "slow_total": 0,
      "slow_avail": 0,
      "slow_percent": 0.0,
      "fast_total": 3,
      "fast_avail": 3,
      "fast_percent": 100.0,
      "latest_update": "20260713212500"
    },
    {
      "station_id": "HM000998",
      "name": "면목신우아파트",
      "address": "서울특별시 중랑구 동일로 569-55",
      "lat": "37.580448731",
      "lng": "127.07930807",
      "total_count": 3,
      "available_count": 3,
      "total_percent": 100.0,
      "slow_total": 3,
      "slow_avail": 3,
      "slow_percent": 100.0,
      "fast_total": 0,
      "fast_avail": 0,
      "fast_percent": 0.0,
      "latest_update": "20260714014612"
    },
    {
      "station_id": "HM110346",
      "name": "_세이지움상봉아파트(B1층)",
      "address": "서울특별시 중랑구 봉우재로 101",
      "lat": "37.5925689",
      "lng": "127.0842839",
      "total_count": 3,
      "available_count": 2,
      "total_percent": 66.7,
      "slow_total": 3,
      "slow_avail": 2,
      "slow_percent": 66.7,
      "fast_total": 0,
      "fast_avail": 0,
      "fast_percent": 0.0,
      "latest_update": "20260714070220"
    },
    {
      "station_id": "HU200023",
      "name": "묵동자이상가1단지",
      "address": "서울특별시 중랑구 숙선옹주로 6-9",
      "lat": "37.6148791",
      "lng": "127.0779208",
      "total_count": 3,
      "available_count": 3,
      "total_percent": 100.0,
      "slow_total": 3,
      "slow_avail": 3,
      "slow_percent": 100.0,
      "fast_total": 0,
      "fast_avail": 0,
      "fast_percent": 0.0,
      "latest_update": "20260713212003"
    },
    {
      "station_id": "IN120113",
      "name": "칼튼테라스",
      "address": "서울특별시 중랑구 공릉로2길 8-4",
      "lat": "37.6118",
      "lng": "127.0782",
      "total_count": 3,
      "available_count": 0,
      "total_percent": 0.0,
      "slow_total": 3,
      "slow_avail": 0,
      "slow_percent": 0.0,
      "fast_total": 0,
      "fast_avail": 0,
      "fast_percent": 0.0,
      "latest_update": "20260615122841"
    },
    {
      "station_id": "KL001153",
      "name": "용마한신2차아파트",
      "address": "서울특별시 중랑구 사가정로71길 11",
      "lat": "37.581002",
      "lng": "127.094503",
      "total_count": 3,
      "available_count": 2,
      "total_percent": 66.7,
      "slow_total": 3,
      "slow_avail": 2,
      "slow_percent": 66.7,
      "fast_total": 0,
      "fast_avail": 0,
      "fast_percent": 0.0,
      "latest_update": "20260714101002"
    },
    {
      "station_id": "KL001292",
      "name": "세방아파트",
      "address": "서울특별시 중랑구 숙선옹주로9길 25",
      "lat": "37.6154017",
      "lng": "127.0833724",
      "total_count": 3,
      "available_count": 2,
      "total_percent": 66.7,
      "slow_total": 3,
      "slow_avail": 2,
      "slow_percent": 66.7,
      "fast_total": 0,
      "fast_avail": 0,
      "fast_percent": 0.0,
      "latest_update": "20260714090701"
    },
    {
      "station_id": "KL001435",
      "name": "용마금호타운_01",
      "address": "서울특별시 중랑구 용마산로 348",
      "lat": "37.5828172",
      "lng": "127.0944499",
      "total_count": 3,
      "available_count": 3,
      "total_percent": 100.0,
      "slow_total": 3,
      "slow_avail": 3,
      "slow_percent": 100.0,
      "fast_total": 0,
      "fast_avail": 0,
      "fast_percent": 0.0,
      "latest_update": "20260714065902"
    },
    {
      "station_id": "KL001436",
      "name": "용마금호타운_02",
      "address": "서울특별시 중랑구 용마산로 348",
      "lat": "37.5828172",
      "lng": "127.0944499",
      "total_count": 3,
      "available_count": 3,
      "total_percent": 100.0,
      "slow_total": 3,
      "slow_avail": 3,
      "slow_percent": 100.0,
      "fast_total": 0,
      "fast_avail": 0,
      "fast_percent": 0.0,
      "latest_update": "20260714085701"
    },
    {
      "station_id": "KL001437",
      "name": "용마금호타운_03",
      "address": "서울특별시 중랑구 용마산로 348",
      "lat": "37.5828172",
      "lng": "127.0944499",
      "total_count": 3,
      "available_count": 3,
      "total_percent": 100.0,
      "slow_total": 3,
      "slow_avail": 3,
      "slow_percent": 100.0,
      "fast_total": 0,
      "fast_avail": 0,
      "fast_percent": 0.0,
      "latest_update": "20260713033401"
    },
    {
      "station_id": "KL001583",
      "name": "용마한신아파트",
      "address": "서울특별시 중랑구 사가정로71길 19",
      "lat": "37.5814619",
      "lng": "127.0959204",
      "total_count": 3,
      "available_count": 3,
      "total_percent": 100.0,
      "slow_total": 3,
      "slow_avail": 3,
      "slow_percent": 100.0,
      "fast_total": 0,
      "fast_avail": 0,
      "fast_percent": 0.0,
      "latest_update": "20260714073201"
    },
    {
      "station_id": "KL001785",
      "name": "중랑구청",
      "address": "서울특별시 중랑구 봉화산로 179",
      "lat": "37.6063242",
      "lng": "127.0925842",
      "total_count": 3,
      "available_count": 3,
      "total_percent": 100.0,
      "slow_total": 2,
      "slow_avail": 2,
      "slow_percent": 100.0,
      "fast_total": 1,
      "fast_avail": 1,
      "fast_percent": 100.0,
      "latest_update": "20260714101201"
    },
    {
      "station_id": "KL002091",
      "name": "용마동아아파트",
      "address": "서울특별시 중랑구 용마산로62길 43",
      "lat": "37.5789195",
      "lng": "127.09486",
      "total_count": 3,
      "available_count": 3,
      "total_percent": 100.0,
      "slow_total": 3,
      "slow_avail": 3,
      "slow_percent": 100.0,
      "fast_total": 0,
      "fast_avail": 0,
      "fast_percent": 0.0,
      "latest_update": "20260714001602"
    },
    {
      "station_id": "KP000579",
      "name": "묵동자이1단지 아파트",
      "address": "서울특별시 중랑구 묵동 숙선옹주로 6-9",
      "lat": "37.6148431359",
      "lng": "127.0778889105",
      "total_count": 3,
      "available_count": 2,
      "total_percent": 66.7,
      "slow_total": 2,
      "slow_avail": 1,
      "slow_percent": 50.0,
      "fast_total": 1,
      "fast_avail": 1,
      "fast_percent": 100.0,
      "latest_update": "20260713190020"
    },
    {
      "station_id": "KP000580",
      "name": "묵동자이2단지 아파트",
      "address": "서울특별시 중랑구 묵동 동일로 932",
      "lat": "37.6138378513",
      "lng": "127.0775571376",
      "total_count": 3,
      "available_count": 2,
      "total_percent": 66.7,
      "slow_total": 2,
      "slow_avail": 1,
      "slow_percent": 50.0,
      "fast_total": 1,
      "fast_avail": 1,
      "fast_percent": 100.0,
      "latest_update": "20260714062010"
    },
    {
      "station_id": "KP000785",
      "name": "면목두산4,5단지 아파트",
      "address": "서울특별시 중랑구 면목동 사가정로42길 90",
      "lat": "37.5779580043",
      "lng": "127.0810927326",
      "total_count": 3,
      "available_count": 2,
      "total_percent": 66.7,
      "slow_total": 2,
      "slow_avail": 1,
      "slow_percent": 50.0,
      "fast_total": 1,
      "fast_avail": 1,
      "fast_percent": 100.0,
      "latest_update": "20260713164007"
    },
    {
      "station_id": "KP000789",
      "name": "중랑숲리가 아파트",
      "address": "서울특별시 중랑구 망우동 망우로75길 19",
      "lat": "37.6017254423",
      "lng": "127.104895105",
      "total_count": 3,
      "available_count": 0,
      "total_percent": 0.0,
      "slow_total": 2,
      "slow_avail": 0,
      "slow_percent": 0.0,
      "fast_total": 1,
      "fast_avail": 0,
      "fast_percent": 0.0,
      "latest_update": "20260324153346"
    },
    {
      "station_id": "KP000978",
      "name": "면목두산2,3차 아파트",
      "address": "서울특별시 중랑구 면목동 면목로37길 58",
      "lat": "37.5807745605",
      "lng": "127.0836045576",
      "total_count": 3,
      "available_count": 0,
      "total_percent": 0.0,
      "slow_total": 2,
      "slow_avail": 0,
      "slow_percent": 0.0,
      "fast_total": 1,
      "fast_avail": 0,
      "fast_percent": 0.0,
      "latest_update": "20260324153346"
    },
    {
      "station_id": "KP000982",
      "name": "신내우디안1단지",
      "address": "서울특별시 중랑구 신내동 신내역로1길 85",
      "lat": "37.616810351",
      "lng": "127.1062936102",
      "total_count": 3,
      "available_count": 3,
      "total_percent": 100.0,
      "slow_total": 2,
      "slow_avail": 2,
      "slow_percent": 100.0,
      "fast_total": 1,
      "fast_avail": 1,
      "fast_percent": 100.0,
      "latest_update": "20260714091019"
    },
    {
      "station_id": "LU000456",
      "name": "망우신원아파트",
      "address": "서울특별시 중랑구 망우로 504-7",
      "lat": "37.6002176",
      "lng": "127.1087773",
      "total_count": 3,
      "available_count": 3,
      "total_percent": 100.0,
      "slow_total": 3,
      "slow_avail": 3,
      "slow_percent": 100.0,
      "fast_total": 0,
      "fast_avail": 0,
      "fast_percent": 0.0,
      "latest_update": "20260713021705"
    },
    {
      "station_id": "LU100895",
      "name": "미영리치타운",
      "address": "서울특별시 중랑구 망우로 223-8",
      "lat": "37.5949881",
      "lng": "127.0776424",
      "total_count": 3,
      "available_count": 3,
      "total_percent": 100.0,
      "slow_total": 3,
      "slow_avail": 3,
      "slow_percent": 100.0,
      "fast_total": 0,
      "fast_avail": 0,
      "fast_percent": 0.0,
      "latest_update": "20260708193756"
    },
    {
      "station_id": "BT000156",
      "name": "중화 제3공영주차장",
      "address": "서울특별시 중랑구 중랑역로 28",
      "lat": "37.59661973",
      "lng": "127.076068",
      "total_count": 2,
      "available_count": 1,
      "total_percent": 50.0,
      "slow_total": 0,
      "slow_avail": 0,
      "slow_percent": 0.0,
      "fast_total": 2,
      "fast_avail": 1,
      "fast_percent": 50.0,
      "latest_update": "20260712103119"
    },
    {
      "station_id": "BT000157",
      "name": "중화 제2공영주차장",
      "address": "서울특별시 중랑구 중랑역로15길 28",
      "lat": "37.59786285",
      "lng": "127.0746342",
      "total_count": 2,
      "available_count": 1,
      "total_percent": 50.0,
      "slow_total": 0,
      "slow_avail": 0,
      "slow_percent": 0.0,
      "fast_total": 2,
      "fast_avail": 1,
      "fast_percent": 50.0,
      "latest_update": "20260713193648"
    },
    {
      "station_id": "BT000158",
      "name": "중화 제1공영주차장",
      "address": "서울특별시 중랑구 중랑천로24길 33",
      "lat": "37.59817486",
      "lng": "127.0731962",
      "total_count": 2,
      "available_count": 1,
      "total_percent": 50.0,
      "slow_total": 0,
      "slow_avail": 0,
      "slow_percent": 0.0,
      "fast_total": 2,
      "fast_avail": 1,
      "fast_percent": 50.0,
      "latest_update": "20260714000638"
    },
    {
      "station_id": "BT000159",
      "name": "중화 제4공영주차장",
      "address": "서울특별시 중랑구 중랑역로 9",
      "lat": "37.5948241",
      "lng": "127.075729",
      "total_count": 2,
      "available_count": 0,
      "total_percent": 0.0,
      "slow_total": 0,
      "slow_avail": 0,
      "slow_percent": 0.0,
      "fast_total": 2,
      "fast_avail": 0,
      "fast_percent": 0.0,
      "latest_update": "20260627142310"
    },
    {
      "station_id": "BT000160",
      "name": "중랑역 제2공영주차장",
      "address": "서울특별시 중랑구 중랑역로 9",
      "lat": "37.5948241",
      "lng": "127.075729",
      "total_count": 2,
      "available_count": 1,
      "total_percent": 50.0,
      "slow_total": 0,
      "slow_avail": 0,
      "slow_percent": 0.0,
      "fast_total": 2,
      "fast_avail": 1,
      "fast_percent": 50.0,
      "latest_update": "20260713193349"
    },
    {
      "station_id": "BT000161",
      "name": "중랑역 제1공영주차장",
      "address": "서울특별시 중랑구 중랑역로 9",
      "lat": "37.5948241",
      "lng": "127.075729",
      "total_count": 2,
      "available_count": 1,
      "total_percent": 50.0,
      "slow_total": 0,
      "slow_avail": 0,
      "slow_percent": 0.0,
      "fast_total": 2,
      "fast_avail": 1,
      "fast_percent": 50.0,
      "latest_update": "20260713213719"
    },
    {
      "station_id": "BT000162",
      "name": "망우3동 공영주차장",
      "address": "서울특별시 중랑구 겸재로61길 40",
      "lat": "37.59189966",
      "lng": "127.0949182",
      "total_count": 2,
      "available_count": 1,
      "total_percent": 50.0,
      "slow_total": 0,
      "slow_avail": 0,
      "slow_percent": 0.0,
      "fast_total": 2,
      "fast_avail": 1,
      "fast_percent": 50.0,
      "latest_update": "20260714094604"
    },
    {
      "station_id": "BT000163",
      "name": "망우본동 공영주차장",
      "address": "서울특별시 중랑구 망우로62길 52-4",
      "lat": "37.59677182",
      "lng": "127.0982722",
      "total_count": 2,
      "available_count": 1,
      "total_percent": 50.0,
      "slow_total": 0,
      "slow_avail": 0,
      "slow_percent": 0.0,
      "fast_total": 2,
      "fast_avail": 1,
      "fast_percent": 50.0,
      "latest_update": "20260713215707"
    },
    {
      "station_id": "CGA00111",
      "name": "중랑 다우훼밀리아파트",
      "address": "서울특별시 중랑구 송림길 18",
      "lat": "37.600471681",
      "lng": "127.09604307",
      "total_count": 2,
      "available_count": 2,
      "total_percent": 100.0,
      "slow_total": 2,
      "slow_avail": 2,
      "slow_percent": 100.0,
      "fast_total": 0,
      "fast_avail": 0,
      "fast_percent": 0.0,
      "latest_update": "20260714084508"
    },
    {
      "station_id": "CRCR0033",
      "name": "중랑공영차고지",
      "address": "서울특별시 중랑구 신내역로 25",
      "lat": "37.61",
      "lng": "127.1",
      "total_count": 2,
      "available_count": 2,
      "total_percent": 100.0,
      "slow_total": 0,
      "slow_avail": 0,
      "slow_percent": 0.0,
      "fast_total": 2,
      "fast_avail": 2,
      "fast_percent": 100.0,
      "latest_update": "20260714093646"
    },
    {
      "station_id": "CSCS1046",
      "name": "삼부그린스포츠센터",
      "address": "서울특별시 중랑구 용마산로 623",
      "lat": "37.60",
      "lng": "127.10",
      "total_count": 2,
      "available_count": 1,
      "total_percent": 50.0,
      "slow_total": 2,
      "slow_avail": 1,
      "slow_percent": 50.0,
      "fast_total": 0,
      "fast_avail": 0,
      "fast_percent": 0.0,
      "latest_update": "20260711182022"
    },
    {
      "station_id": "CSSGI031",
      "name": "상봉스마트트라움",
      "address": "서울특별시 중랑구 망우로 236",
      "lat": "37.5942",
      "lng": "127.0788",
      "total_count": 2,
      "available_count": 0,
      "total_percent": 0.0,
      "slow_total": 2,
      "slow_avail": 0,
      "slow_percent": 0.0,
      "fast_total": 0,
      "fast_avail": 0,
      "fast_percent": 0.0,
      "latest_update": "20260714020618"
    },
    {
      "station_id": "CV001311",
      "name": "연산교통",
      "address": "서울특별시 중랑구 겸재로 140",
      "lat": "37.5868078",
      "lng": "127.083194",
      "total_count": 2,
      "available_count": 2,
      "total_percent": 100.0,
      "slow_total": 0,
      "slow_avail": 0,
      "slow_percent": 0.0,
      "fast_total": 2,
      "fast_avail": 2,
      "fast_percent": 100.0,
      "latest_update": "20260714062023"
    },
    {
      "station_id": "CV001677",
      "name": "중랑경찰서",
      "address": "서울특별시 중랑구 신내역로3길 40-10",
      "lat": "37.6185614",
      "lng": "127.103961",
      "total_count": 2,
      "available_count": 1,
      "total_percent": 50.0,
      "slow_total": 0,
      "slow_avail": 0,
      "slow_percent": 0.0,
      "fast_total": 2,
      "fast_avail": 1,
      "fast_percent": 50.0,
      "latest_update": "20260714095027"
    },
    {
      "station_id": "CV001786",
      "name": "원묵고등학교",
      "address": "서울특별시 중랑구 숙선옹주로 82",
      "lat": "37.6155698",
      "lng": "127.085948",
      "total_count": 2,
      "available_count": 2,
      "total_percent": 100.0,
      "slow_total": 2,
      "slow_avail": 2,
      "slow_percent": 100.0,
      "fast_total": 0,
      "fast_avail": 0,
      "fast_percent": 0.0,
      "latest_update": "20260713030520"
    },
    {
      "station_id": "CV002299",
      "name": "신현고등학교",
      "address": "서울특별시 중랑구 봉화산로 174",
      "lat": "37.6049078",
      "lng": "127.0933451",
      "total_count": 2,
      "available_count": 2,
      "total_percent": 100.0,
      "slow_total": 2,
      "slow_avail": 2,
      "slow_percent": 100.0,
      "fast_total": 0,
      "fast_avail": 0,
      "fast_percent": 0.0,
      "latest_update": "20260713152528"
    },
    {
      "station_id": "EC000500",
      "name": "한양수자인사가정파크 101동",
      "address": "서울특별시 중랑구 사가정로72길 26",
      "lat": "37.579345757",
      "lng": "127.09470824",
      "total_count": 2,
      "available_count": 2,
      "total_percent": 100.0,
      "slow_total": 2,
      "slow_avail": 2,
      "slow_percent": 100.0,
      "fast_total": 0,
      "fast_avail": 0,
      "fast_percent": 0.0,
      "latest_update": "20260714083001"
    },
    {
      "station_id": "EC000501",
      "name": "한양수자인사가정파크 102동",
      "address": "서울특별시 중랑구 사가정로72길 26",
      "lat": "37.579670369",
      "lng": "127.09439166",
      "total_count": 2,
      "available_count": 1,
      "total_percent": 50.0,
      "slow_total": 2,
      "slow_avail": 1,
      "slow_percent": 50.0,
      "fast_total": 0,
      "fast_avail": 0,
      "fast_percent": 0.0,
      "latest_update": "20260714081201"
    },
    {
      "station_id": "EC000502",
      "name": "한양수자인사가정파크 103동",
      "address": "서울특별시 중랑구 사가정로72길 26",
      "lat": "37.579990501",
      "lng": "127.09404111",
      "total_count": 2,
      "available_count": 1,
      "total_percent": 50.0,
      "slow_total": 2,
      "slow_avail": 1,
      "slow_percent": 50.0,
      "fast_total": 0,
      "fast_avail": 0,
      "fast_percent": 0.0,
      "latest_update": "20260713195601"
    },
    {
      "station_id": "EC000503",
      "name": "한양수자인사가정파크 104동",
      "address": "서울특별시 중랑구 사가정로72길 26",
      "lat": "37.5796755",
      "lng": "127.0946789",
      "total_count": 2,
      "available_count": 1,
      "total_percent": 50.0,
      "slow_total": 2,
      "slow_avail": 1,
      "slow_percent": 50.0,
      "fast_total": 0,
      "fast_avail": 0,
      "fast_percent": 0.0,
      "latest_update": "20260710135401"
    },
    {
      "station_id": "EC002520",
      "name": "다우훼밀리 101동",
      "address": "서울특별시 중랑구 송림길 18",
      "lat": "37.600493",
      "lng": "127.0963063",
      "total_count": 2,
      "available_count": 0,
      "total_percent": 0.0,
      "slow_total": 2,
      "slow_avail": 0,
      "slow_percent": 0.0,
      "fast_total": 0,
      "fast_avail": 0,
      "fast_percent": 0.0,
      "latest_update": "20260529172601"
    },
    {
      "station_id": "EC004951",
      "name": "서울중랑우체국",
      "address": "서울특별시 중랑구 망우로 271",
      "lat": "37.5957666",
      "lng": "127.0826292",
      "total_count": 2,
      "available_count": 0,
      "total_percent": 0.0,
      "slow_total": 2,
      "slow_avail": 0,
      "slow_percent": 0.0,
      "fast_total": 0,
      "fast_avail": 0,
      "fast_percent": 0.0,
      "latest_update": "20260709143402"
    },
    {
      "station_id": "EP200234",
      "name": "서울 진광교회",
      "address": "서울특별시 중랑구 사가정로41길 34",
      "lat": "37.5826433",
      "lng": "127.0845202",
      "total_count": 2,
      "available_count": 0,
      "total_percent": 0.0,
      "slow_total": 2,
      "slow_avail": 0,
      "slow_percent": 0.0,
      "fast_total": 0,
      "fast_avail": 0,
      "fast_percent": 0.0,
      "latest_update": "20260324150039"
    },
    {
      "station_id": "ER000357",
      "name": "면목신성미소지움2차",
      "address": "서울특별시 중랑구 용마산로86길 9-14",
      "lat": "37.58676841",
      "lng": "127.09625991",
      "total_count": 2,
      "available_count": 2,
      "total_percent": 100.0,
      "slow_total": 2,
      "slow_avail": 2,
      "slow_percent": 100.0,
      "fast_total": 0,
      "fast_avail": 0,
      "fast_percent": 0.0,
      "latest_update": "20260714093127"
    },
    {
      "station_id": "EV003722",
      "name": "로프트원태릉입구역",
      "address": "서울특별시 중랑구 동일로 952",
      "lat": "37.6153331",
      "lng": "127.0768805",
      "total_count": 2,
      "available_count": 0,
      "total_percent": 0.0,
      "slow_total": 2,
      "slow_avail": 0,
      "slow_percent": 0.0,
      "fast_total": 0,
      "fast_avail": 0,
      "fast_percent": 0.0,
      "latest_update": "20260713161722"
    },
    {
      "station_id": "EV003992",
      "name": "일흥교통_1",
      "address": "서울특별시 중랑구 양원역로 2",
      "lat": "37.6008269",
      "lng": "127.1086166",
      "total_count": 2,
      "available_count": 2,
      "total_percent": 100.0,
      "slow_total": 0,
      "slow_avail": 0,
      "slow_percent": 0.0,
      "fast_total": 2,
      "fast_avail": 2,
      "fast_percent": 100.0,
      "latest_update": "20260714091450"
    },
    {
      "station_id": "EV004015",
      "name": "일흥교통_2",
      "address": "서울특별시 중랑구 양원역로 2",
      "lat": "37.6008269",
      "lng": "127.1086166",
      "total_count": 2,
      "available_count": 1,
      "total_percent": 50.0,
      "slow_total": 0,
      "slow_avail": 0,
      "slow_percent": 0.0,
      "fast_total": 2,
      "fast_avail": 1,
      "fast_percent": 50.0,
      "latest_update": "20260713193358"
    },
    {
      "station_id": "EV005981",
      "name": "서울중랑 현대휴온아파트",
      "address": "서울특별시 중랑구 동일로109가길 5",
      "lat": "37.5922401",
      "lng": "127.0787069",
      "total_count": 2,
      "available_count": 1,
      "total_percent": 50.0,
      "slow_total": 2,
      "slow_avail": 1,
      "slow_percent": 50.0,
      "fast_total": 0,
      "fast_avail": 0,
      "fast_percent": 0.0,
      "latest_update": "20260714085639"
    },
    {
      "station_id": "EV006797",
      "name": "서울중랑 신내우디안1단지6(B1)",
      "address": "서울특별시 중랑구 신내역로1길 85",
      "lat": "37.616931189",
      "lng": "127.10717272",
      "total_count": 2,
      "available_count": 1,
      "total_percent": 50.0,
      "slow_total": 2,
      "slow_avail": 1,
      "slow_percent": 50.0,
      "fast_total": 0,
      "fast_avail": 0,
      "fast_percent": 0.0,
      "latest_update": "20260714063714"
    },
    {
      "station_id": "EV007720",
      "name": "서울중랑 극동늘푸른아파트",
      "address": "서울특별시 중랑구 동일로 941",
      "lat": "37.6148668",
      "lng": "127.0762031",
      "total_count": 2,
      "available_count": 0,
      "total_percent": 0.0,
      "slow_total": 2,
      "slow_avail": 0,
      "slow_percent": 0.0,
      "fast_total": 0,
      "fast_avail": 0,
      "fast_percent": 0.0,
      "latest_update": "20260627101810"
    },
    {
      "station_id": "EV007762",
      "name": "서울중랑 면목두산4단지5단지3",
      "address": "서울특별시 중랑구 사가정로42길 90",
      "lat": "37.578020006",
      "lng": "127.08133393",
      "total_count": 2,
      "available_count": 2,
      "total_percent": 100.0,
      "slow_total": 2,
      "slow_avail": 2,
      "slow_percent": 100.0,
      "fast_total": 0,
      "fast_avail": 0,
      "fast_percent": 0.0,
      "latest_update": "20260714100520"
    },
    {
      "station_id": "EV007954",
      "name": "서울중랑구 동일교회",
      "address": "서울특별시 중랑구 면목로35길 21",
      "lat": "37.5781451",
      "lng": "127.0846556",
      "total_count": 2,
      "available_count": 2,
      "total_percent": 100.0,
      "slow_total": 2,
      "slow_avail": 2,
      "slow_percent": 100.0,
      "fast_total": 0,
      "fast_avail": 0,
      "fast_percent": 0.0,
      "latest_update": "20260714084431"
    },
    {
      "station_id": "EV008073",
      "name": "서울중랑 면목마젤란21아파트1",
      "address": "서울특별시 중랑구 겸재로30길 42",
      "lat": "37.5871558",
      "lng": "127.0841646",
      "total_count": 2,
      "available_count": 2,
      "total_percent": 100.0,
      "slow_total": 2,
      "slow_avail": 2,
      "slow_percent": 100.0,
      "fast_total": 0,
      "fast_avail": 0,
      "fast_percent": 0.0,
      "latest_update": "20260713111116"
    },
    {
      "station_id": "EV008905",
      "name": "서울중랑 신내벽산아파트2",
      "address": "서울특별시 중랑구 용마산로125길 50",
      "lat": "37.6029642",
      "lng": "127.0998682",
      "total_count": 2,
      "available_count": 2,
      "total_percent": 100.0,
      "slow_total": 2,
      "slow_avail": 2,
      "slow_percent": 100.0,
      "fast_total": 0,
      "fast_avail": 0,
      "fast_percent": 0.0,
      "latest_update": "20260714083626"
    },
    {
      "station_id": "EV008984",
      "name": "서울중랑 로프트원 태릉입구역(급속)",
      "address": "서울특별시 중랑구 동일로 952",
      "lat": "37.6153331",
      "lng": "127.0768805",
      "total_count": 2,
      "available_count": 2,
      "total_percent": 100.0,
      "slow_total": 0,
      "slow_avail": 0,
      "slow_percent": 0.0,
      "fast_total": 2,
      "fast_avail": 2,
      "fast_percent": 100.0,
      "latest_update": "20260714100116"
    },
    {
      "station_id": "EV010862",
      "name": "서울중랑 새한택시3",
      "address": "서울특별시 중랑구 용마산로 571",
      "lat": "37.6019294",
      "lng": "127.100107",
      "total_count": 2,
      "available_count": 2,
      "total_percent": 100.0,
      "slow_total": 2,
      "slow_avail": 2,
      "slow_percent": 100.0,
      "fast_total": 0,
      "fast_avail": 0,
      "fast_percent": 0.0,
      "latest_update": "20260630113710"
    },
    {
      "station_id": "EV012572",
      "name": "서울중랑 중랑숲금호어울림 6",
      "address": "서울특별시 중랑구 양원역로 18",
      "lat": "37.60277431",
      "lng": "127.108648",
      "total_count": 2,
      "available_count": 2,
      "total_percent": 100.0,
      "slow_total": 2,
      "slow_avail": 2,
      "slow_percent": 100.0,
      "fast_total": 0,
      "fast_avail": 0,
      "fast_percent": 0.0,
      "latest_update": "20260626074721"
    },
    {
      "station_id": "EV012936",
      "name": "서울중랑 동양엔파트아파트 3",
      "address": "서울특별시 중랑구 망우로 203",
      "lat": "37.593995654",
      "lng": "127.07500898",
      "total_count": 2,
      "available_count": 2,
      "total_percent": 100.0,
      "slow_total": 2,
      "slow_avail": 2,
      "slow_percent": 100.0,
      "fast_total": 0,
      "fast_avail": 0,
      "fast_percent": 0.0,
      "latest_update": "20260706094420"
    },
    {
      "station_id": "EV013425",
      "name": "서울중랑 면목아파트",
      "address": "서울특별시 중랑구 용마산로 228",
      "lat": "37.5743165",
      "lng": "127.0881786",
      "total_count": 2,
      "available_count": 0,
      "total_percent": 0.0,
      "slow_total": 2,
      "slow_avail": 0,
      "slow_percent": 0.0,
      "fast_total": 0,
      "fast_avail": 0,
      "fast_percent": 0.0,
      "latest_update": "20260713200256"
    },
    {
      "station_id": "EV017613",
      "name": "서울중랑 신내10단지아파트 4",
      "address": "서울특별시 중랑구 신내로 115 (신내동, 신내10단지신내아파트)",
      "lat": "37.6092975",
      "lng": "127.0949042",
      "total_count": 2,
      "available_count": 2,
      "total_percent": 100.0,
      "slow_total": 2,
      "slow_avail": 2,
      "slow_percent": 100.0,
      "fast_total": 0,
      "fast_avail": 0,
      "fast_percent": 0.0,
      "latest_update": "20260712130933"
    },
    {
      "station_id": "EZ001020",
      "name": "면목3동8동주민센터",
      "address": "서울특별시 중랑구 사가정로51길 48",
      "lat": "37.5829680",
      "lng": "127.0880956",
      "total_count": 2,
      "available_count": 0,
      "total_percent": 0.0,
      "slow_total": 2,
      "slow_avail": 0,
      "slow_percent": 0.0,
      "fast_total": 0,
      "fast_avail": 0,
      "fast_percent": 0.0,
      "latest_update": "20260601113310"
    },
    {
      "station_id": "HU200022",
      "name": "동성타워프라자",
      "address": "서울특별시 중랑구 봉화산로 221",
      "lat": "37.6080188",
      "lng": "127.097234",
      "total_count": 2,
      "available_count": 2,
      "total_percent": 100.0,
      "slow_total": 2,
      "slow_avail": 2,
      "slow_percent": 100.0,
      "fast_total": 0,
      "fast_avail": 0,
      "fast_percent": 0.0,
      "latest_update": "20260706124003"
    },
    {
      "station_id": "IN120041",
      "name": "롯데시네마중랑",
      "address": "서울특별시 중랑구 동일로 951",
      "lat": "37.6151",
      "lng": "127.076",
      "total_count": 2,
      "available_count": 0,
      "total_percent": 0.0,
      "slow_total": 2,
      "slow_avail": 0,
      "slow_percent": 0.0,
      "fast_total": 0,
      "fast_avail": 0,
      "fast_percent": 0.0,
      "latest_update": "20260615122838"
    },
    {
      "station_id": "JA110149",
      "name": "서울 중랑구 제이타워",
      "address": "서울특별시 중랑구 양원역로10길 3",
      "lat": "37.606723876",
      "lng": "127.10618978",
      "total_count": 2,
      "available_count": 1,
      "total_percent": 50.0,
      "slow_total": 2,
      "slow_avail": 1,
      "slow_percent": 50.0,
      "fast_total": 0,
      "fast_avail": 0,
      "fast_percent": 0.0,
      "latest_update": "20260714085611"
    },
    {
      "station_id": "KE000705",
      "name": "서울중랑묵동리본타워",
      "address": "서울특별시 중랑구 신내로 277",
      "lat": "37.6192605",
      "lng": "127.0863069",
      "total_count": 2,
      "available_count": 2,
      "total_percent": 100.0,
      "slow_total": 2,
      "slow_avail": 2,
      "slow_percent": 100.0,
      "fast_total": 0,
      "fast_avail": 0,
      "fast_percent": 0.0,
      "latest_update": "20260709045410"
    },
    {
      "station_id": "KP000790",
      "name": "중랑해모로 아파트",
      "address": "서울특별시 중랑구 망우동 양원역로 6",
      "lat": "37.6011960258",
      "lng": "127.1084773567",
      "total_count": 2,
      "available_count": 0,
      "total_percent": 0.0,
      "slow_total": 2,
      "slow_avail": 0,
      "slow_percent": 0.0,
      "fast_total": 0,
      "fast_avail": 0,
      "fast_percent": 0.0,
      "latest_update": "20260324153346"
    },
    {
      "station_id": "KP000979",
      "name": "면목두원 아파트",
      "address": "서울특별시 중랑구 면목동 동일로 483",
      "lat": "37.5735620653",
      "lng": "127.079752197",
      "total_count": 2,
      "available_count": 2,
      "total_percent": 100.0,
      "slow_total": 2,
      "slow_avail": 2,
      "slow_percent": 100.0,
      "fast_total": 0,
      "fast_avail": 0,
      "fast_percent": 0.0,
      "latest_update": "20260710040014"
    },
    {
      "station_id": "KP000980",
      "name": "상봉우정 아파트",
      "address": "서울특별시 중랑구 상봉동 상봉중앙로1다길 21",
      "lat": "37.5998244991",
      "lng": "127.0893920762",
      "total_count": 2,
      "available_count": 2,
      "total_percent": 100.0,
      "slow_total": 1,
      "slow_avail": 1,
      "slow_percent": 100.0,
      "fast_total": 1,
      "fast_avail": 1,
      "fast_percent": 100.0,
      "latest_update": "20260714073022"
    },
    {
      "station_id": "KP000981",
      "name": "신내LG쌍용 아파트",
      "address": "서울특별시 중랑구 상봉동 봉화산로 130",
      "lat": "37.6031912956",
      "lng": "127.0884674907",
      "total_count": 2,
      "available_count": 2,
      "total_percent": 100.0,
      "slow_total": 1,
      "slow_avail": 1,
      "slow_percent": 100.0,
      "fast_total": 1,
      "fast_avail": 1,
      "fast_percent": 100.0,
      "latest_update": "20260714085017"
    },
    {
      "station_id": "KP002690",
      "name": "한일써너스빌 아파트",
      "address": "서울특별시 중랑구 상봉동 81-5",
      "lat": "37.597381",
      "lng": "127.091548",
      "total_count": 2,
      "available_count": 2,
      "total_percent": 100.0,
      "slow_total": 2,
      "slow_avail": 2,
      "slow_percent": 100.0,
      "fast_total": 0,
      "fast_avail": 0,
      "fast_percent": 0.0,
      "latest_update": "20260714042016"
    },
    {
      "station_id": "KP004154",
      "name": "태릉시장 중화공영주차장",
      "address": "서울특별시 중랑구 중랑역로 9",
      "lat": "37.597533083",
      "lng": "127.07477609",
      "total_count": 2,
      "available_count": 2,
      "total_percent": 100.0,
      "slow_total": 0,
      "slow_avail": 0,
      "slow_percent": 0.0,
      "fast_total": 2,
      "fast_avail": 2,
      "fast_percent": 100.0,
      "latest_update": "20260714095020"
    },
    {
      "station_id": "KP005563",
      "name": "서울의료원",
      "address": "서울특별시 중랑구 신내로 156",
      "lat": "37.6129",
      "lng": "127.0994",
      "total_count": 2,
      "available_count": 2,
      "total_percent": 100.0,
      "slow_total": 0,
      "slow_avail": 0,
      "slow_percent": 0.0,
      "fast_total": 2,
      "fast_avail": 2,
      "fast_percent": 100.0,
      "latest_update": "20260714090018"
    },
    {
      "station_id": "KP005805",
      "name": "동대문중랑지사(공용)",
      "address": "서울특별시 중랑구 동일로 862",
      "lat": "37.60",
      "lng": "127.07",
      "total_count": 2,
      "available_count": 2,
      "total_percent": 100.0,
      "slow_total": 1,
      "slow_avail": 1,
      "slow_percent": 100.0,
      "fast_total": 1,
      "fast_avail": 1,
      "fast_percent": 100.0,
      "latest_update": "20260712141017"
    },
    {
      "station_id": "LU001763",
      "name": "솔루테아파트",
      "address": "서울특별시 중랑구 봉우재로6길 19",
      "lat": "37.589255",
      "lng": "127.076995",
      "total_count": 2,
      "available_count": 2,
      "total_percent": 100.0,
      "slow_total": 2,
      "slow_avail": 2,
      "slow_percent": 100.0,
      "fast_total": 0,
      "fast_avail": 0,
      "fast_percent": 0.0,
      "latest_update": "20260713165007"
    },
    {
      "station_id": "LU003509",
      "name": "묵동신도브래뉴아파트",
      "address": "서울특별시 중랑구 동일로 946",
      "lat": "37.615027",
      "lng": "127.076989",
      "total_count": 2,
      "available_count": 2,
      "total_percent": 100.0,
      "slow_total": 2,
      "slow_avail": 2,
      "slow_percent": 100.0,
      "fast_total": 0,
      "fast_avail": 0,
      "fast_percent": 0.0,
      "latest_update": "20260713162925"
    },
    {
      "station_id": "ME20A1a7",
      "name": "면목2동공영주차장",
      "address": "서울특별시 중랑구 겸재로23길 27",
      "lat": "37.58793511",
      "lng": "127.0808933",
      "total_count": 1,
      "available_count": 1,
      "total_percent": 100.0,
      "slow_total": 0,
      "slow_avail": 0,
      "slow_percent": 0.0,
      "fast_total": 1,
      "fast_avail": 1,
      "fast_percent": 100.0,
      "latest_update": "20260714100646"
    },
    {
      "station_id": "ME20A1a8",
      "name": "중화제1공영주차장",
      "address": "서울특별시 중랑구 중화동 73-5",
      "lat": "37.59871",
      "lng": "127.072706",
      "total_count": 1,
      "available_count": 1,
      "total_percent": 100.0,
      "slow_total": 0,
      "slow_avail": 0,
      "slow_percent": 0.0,
      "fast_total": 1,
      "fast_avail": 1,
      "fast_percent": 100.0,
      "latest_update": "20260714100655"
    },
    {
      "station_id": "ME20A1a9",
      "name": "중화제4공영주차장",
      "address": "서울특별시 중랑구 중화동 73-10",
      "lat": "37.595670",
      "lng": "127.079469",
      "total_count": 1,
      "available_count": 1,
      "total_percent": 100.0,
      "slow_total": 0,
      "slow_avail": 0,
      "slow_percent": 0.0,
      "fast_total": 1,
      "fast_avail": 1,
      "fast_percent": 100.0,
      "latest_update": "20260714100654"
    },
    {
      "station_id": "ME20A1b0",
      "name": "중랑역제1공영주차장",
      "address": "서울특별시 중랑구 중화동 73-6",
      "lat": "37.595325",
      "lng": "127.077539",
      "total_count": 1,
      "available_count": 1,
      "total_percent": 100.0,
      "slow_total": 0,
      "slow_avail": 0,
      "slow_percent": 0.0,
      "fast_total": 1,
      "fast_avail": 1,
      "fast_percent": 100.0,
      "latest_update": "20260714100639"
    },
    {
      "station_id": "ME25A108",
      "name": "E-share 구립신내노인종합복지관",
      "address": "서울특별시 중랑구 신내로15길 175",
      "lat": "37.6148116",
      "lng": "127.0879227",
      "total_count": 1,
      "available_count": 1,
      "total_percent": 100.0,
      "slow_total": 0,
      "slow_avail": 0,
      "slow_percent": 0.0,
      "fast_total": 1,
      "fast_avail": 1,
      "fast_percent": 100.0,
      "latest_update": "20260714100818"
    },
    {
      "station_id": "CGA00105",
      "name": "중랑 묵동신안2차아파트",
      "address": "서울특별시 중랑구 공릉로2나길 44",
      "lat": "37.6141417",
      "lng": "127.0798669",
      "total_count": 1,
      "available_count": 1,
      "total_percent": 100.0,
      "slow_total": 1,
      "slow_avail": 1,
      "slow_percent": 100.0,
      "fast_total": 0,
      "fast_avail": 0,
      "fast_percent": 0.0,
      "latest_update": "20260714074508"
    },
    {
      "station_id": "CU200014",
      "name": "태혁종합건설",
      "address": "서울특별시 중랑구 양원역로8길 25",
      "lat": "37.605190",
      "lng": "127.108237",
      "total_count": 1,
      "available_count": 0,
      "total_percent": 0.0,
      "slow_total": 1,
      "slow_avail": 0,
      "slow_percent": 0.0,
      "fast_total": 0,
      "fast_avail": 0,
      "fast_percent": 0.0,
      "latest_update": "20260324151401"
    },
    {
      "station_id": "CV001011",
      "name": "서일대학교 지하1층",
      "address": "서울특별시 중랑구 용마산로90길 28",
      "lat": "37.5861",
      "lng": "127.097222",
      "total_count": 1,
      "available_count": 1,
      "total_percent": 100.0,
      "slow_total": 0,
      "slow_avail": 0,
      "slow_percent": 0.0,
      "fast_total": 1,
      "fast_avail": 1,
      "fast_percent": 100.0,
      "latest_update": "20260713050019"
    },
    {
      "station_id": "CV001911",
      "name": "중랑용마폭포공원공영주차장",
      "address": "서울특별시 중랑구 용마산로 250-12",
      "lat": "37.5749",
      "lng": "127.089442",
      "total_count": 1,
      "available_count": 1,
      "total_percent": 100.0,
      "slow_total": 0,
      "slow_avail": 0,
      "slow_percent": 0.0,
      "fast_total": 1,
      "fast_avail": 1,
      "fast_percent": 100.0,
      "latest_update": "20260714045524"
    },
    {
      "station_id": "CV001982",
      "name": "송곡고등학교",
      "address": "서울특별시 중랑구 양원역로 50",
      "lat": "37.605459",
      "lng": "127.106471",
      "total_count": 1,
      "available_count": 1,
      "total_percent": 100.0,
      "slow_total": 1,
      "slow_avail": 1,
      "slow_percent": 100.0,
      "fast_total": 0,
      "fast_avail": 0,
      "fast_percent": 0.0,
      "latest_update": "20260713223027"
    },
    {
      "station_id": "CV002066",
      "name": "서일대학교 지하2층",
      "address": "서울특별시 중랑구 용마산로90길 28-9",
      "lat": "37.5871979",
      "lng": "127.0976834",
      "total_count": 1,
      "available_count": 1,
      "total_percent": 100.0,
      "slow_total": 0,
      "slow_avail": 0,
      "slow_percent": 0.0,
      "fast_total": 1,
      "fast_avail": 1,
      "fast_percent": 100.0,
      "latest_update": "20260713053029"
    },
    {
      "station_id": "CV002067",
      "name": "서일대학교 지상1층",
      "address": "서울특별시 중랑구 용마산로90길 28-9",
      "lat": "37.5871979",
      "lng": "127.0976834",
      "total_count": 1,
      "available_count": 1,
      "total_percent": 100.0,
      "slow_total": 0,
      "slow_avail": 0,
      "slow_percent": 0.0,
      "fast_total": 1,
      "fast_avail": 1,
      "fast_percent": 100.0,
      "latest_update": "20260701131039"
    },
    {
      "station_id": "DO000061",
      "name": "용마폭포공원 공영주차장",
      "address": "서울특별시 중랑구 용마산로 250-12",
      "lat": "37.575003",
      "lng": "127.089478",
      "total_count": 1,
      "available_count": 1,
      "total_percent": 100.0,
      "slow_total": 0,
      "slow_avail": 0,
      "slow_percent": 0.0,
      "fast_total": 1,
      "fast_avail": 1,
      "fast_percent": 100.0,
      "latest_update": "20260714064525"
    },
    {
      "station_id": "EM000004",
      "name": "EV충전소 SK중랑교셀프주유소 (ev Most)",
      "address": "서울특별시 중랑구 망우로 229",
      "lat": "37.594717",
      "lng": "127.077906",
      "total_count": 1,
      "available_count": 0,
      "total_percent": 0.0,
      "slow_total": 1,
      "slow_avail": 0,
      "slow_percent": 0.0,
      "fast_total": 0,
      "fast_avail": 0,
      "fast_percent": 0.0,
      "latest_update": "20260324151154"
    },
    {
      "station_id": "EV000026",
      "name": "면목 용마2차한신아파트",
      "address": "서울특별시 중랑구 사가정로71길 11",
      "lat": "37.58099",
      "lng": "127.0942874",
      "total_count": 1,
      "available_count": 1,
      "total_percent": 100.0,
      "slow_total": 1,
      "slow_avail": 1,
      "slow_percent": 100.0,
      "fast_total": 0,
      "fast_avail": 0,
      "fast_percent": 0.0,
      "latest_update": "20260712172618"
    },
    {
      "station_id": "EV000657",
      "name": "망우신원아파트",
      "address": "서울특별시 중랑구 망우로 504-7",
      "lat": "37.6002191",
      "lng": "127.1087794",
      "total_count": 1,
      "available_count": 1,
      "total_percent": 100.0,
      "slow_total": 1,
      "slow_avail": 1,
      "slow_percent": 100.0,
      "fast_total": 0,
      "fast_avail": 0,
      "fast_percent": 0.0,
      "latest_update": "20260714081413"
    },
    {
      "station_id": "EV001736",
      "name": "SH공사동대문센터",
      "address": "서울특별시 중랑구 봉화산로 165",
      "lat": "37.6053909",
      "lng": "127.0916637",
      "total_count": 1,
      "available_count": 1,
      "total_percent": 100.0,
      "slow_total": 1,
      "slow_avail": 1,
      "slow_percent": 100.0,
      "fast_total": 0,
      "fast_avail": 0,
      "fast_percent": 0.0,
      "latest_update": "20260710135831"
    },
    {
      "station_id": "EV007511",
      "name": "서울중랑구 신내두산화성아파트3",
      "address": "서울특별시 중랑구 신내로 155",
      "lat": "37.613859",
      "lng": "127.0943227",
      "total_count": 1,
      "available_count": 1,
      "total_percent": 100.0,
      "slow_total": 1,
      "slow_avail": 1,
      "slow_percent": 100.0,
      "fast_total": 0,
      "fast_avail": 0,
      "fast_percent": 0.0,
      "latest_update": "20260713085509"
    },
    {
      "station_id": "EV007514",
      "name": "서울중랑구 신내두산화성아파트6",
      "address": "서울특별시 중랑구 신내로 155",
      "lat": "37.613700454",
      "lng": "127.09482258",
      "total_count": 1,
      "available_count": 1,
      "total_percent": 100.0,
      "slow_total": 1,
      "slow_avail": 1,
      "slow_percent": 100.0,
      "fast_total": 0,
      "fast_avail": 0,
      "fast_percent": 0.0,
      "latest_update": "20260714062508"
    },
    {
      "station_id": "EV012934",
      "name": "서울중랑 동양엔파트아파트 1",
      "address": "서울특별시 중랑구 망우로 203",
      "lat": "37.594129234",
      "lng": "127.07533318",
      "total_count": 1,
      "available_count": 1,
      "total_percent": 100.0,
      "slow_total": 1,
      "slow_avail": 1,
      "slow_percent": 100.0,
      "fast_total": 0,
      "fast_avail": 0,
      "fast_percent": 0.0,
      "latest_update": "20260710200622"
    },
    {
      "station_id": "EV012935",
      "name": "서울중랑 동양엔파트아파트 2",
      "address": "서울특별시 중랑구 망우로 203",
      "lat": "37.593995643",
      "lng": "127.07500898",
      "total_count": 1,
      "available_count": 1,
      "total_percent": 100.0,
      "slow_total": 1,
      "slow_avail": 1,
      "slow_percent": 100.0,
      "fast_total": 0,
      "fast_avail": 0,
      "fast_percent": 0.0,
      "latest_update": "20260711191839"
    },
    {
      "station_id": "EV012958",
      "name": "서울중랑 국민은행 사가정역",
      "address": "서울특별시 중랑구 면목로 315 (면목동)",
      "lat": "37.5802710",
      "lng": "127.0880025",
      "total_count": 1,
      "available_count": 1,
      "total_percent": 100.0,
      "slow_total": 1,
      "slow_avail": 1,
      "slow_percent": 100.0,
      "fast_total": 0,
      "fast_avail": 0,
      "fast_percent": 0.0,
      "latest_update": "20260710171831"
    },