{
  "district": "마포구",
  "zscode": "11440",
  "summary": {
    "total_count": 2000,
    "available_count": 1482,
    "total_percent": 74.1,
    "slow_total": 1870,
    "slow_avail": 1376,
    "slow_percent": 73.6,
    "fast_total": 130,
    "fast_avail": 106,
    "fast_percent": 81.5,
    "station_count": 451
  },
  "stations": [
    {
      "station_id": "PI793300",
      "name": "마포더클래시아파트",
      "address": "서울특별시 마포구 신촌로28길 50",
      "lat": "37.5554228",
      "lng": "126.9493704",
      "total_count": 47,
      "available_count": 42,
      "total_percent": 89.4,
      "slow_total": 47,
      "slow_avail": 42,
      "slow_percent": 89.4,
      "fast_total": 0,
      "fast_avail": 0,
      "fast_percent": 0.0,
      "latest_update": "20260714080746"
    },
    {
      "station_id": "NT102102",
      "name": "상암 월드컵파크11단지아파트",
      "address": "서울특별시 마포구 월드컵북로 502-37",
      "lat": "37.58775",
      "lng": "126.88228",
      "total_count": 31,
      "available_count": 28,
      "total_percent": 90.3,
      "slow_total": 30,
      "slow_avail": 27,
      "slow_percent": 90.0,
      "fast_total": 1,
      "fast_avail": 1,
      "fast_percent": 100.0,
      "latest_update": "20260714041650"
    },
    {
      "station_id": "PI001494",
      "name": "상암월드컵파크6단지아파트",
      "address": "서울특별시 마포구 상암산로1길 57",
      "lat": "37.5797981",
      "lng": "126.884233",
      "total_count": 26,
      "available_count": 8,
      "total_percent": 30.8,
      "slow_total": 26,
      "slow_avail": 8,
      "slow_percent": 30.8,
      "fast_total": 0,
      "fast_avail": 0,
      "fast_percent": 0.0,
      "latest_update": "20260714081224"
    },
    {
      "station_id": "PI763958",
      "name": "서강국제학사유한회사",
      "address": "서울특별시 마포구 백범로 35",
      "lat": "37.5514693",
      "lng": "126.943025",
      "total_count": 23,
      "available_count": 21,
      "total_percent": 91.3,
      "slow_total": 23,
      "slow_avail": 21,
      "slow_percent": 91.3,
      "fast_total": 0,
      "fast_avail": 0,
      "fast_percent": 0.0,
      "latest_update": "20260714010543"
    },
    {
      "station_id": "CV004156",
      "name": "월드컵공원 주차장",
      "address": "서울특별시 마포구 월드컵로 243-60",
      "lat": "37.5635472",
      "lng": "126.8987163",
      "total_count": 20,
      "available_count": 13,
      "total_percent": 65.0,
      "slow_total": 12,
      "slow_avail": 6,
      "slow_percent": 50.0,
      "fast_total": 8,
      "fast_avail": 7,
      "fast_percent": 87.5,
      "latest_update": "20260714080544"
    },
    {
      "station_id": "HY001224",
      "name": "마포 공덕삼성아파트",
      "address": "서울특별시 마포구 마포대로 115-8",
      "lat": "37.5465529",
      "lng": "126.9511665",
      "total_count": 19,
      "available_count": 18,
      "total_percent": 94.7,
      "slow_total": 19,
      "slow_avail": 18,
      "slow_percent": 94.7,
      "fast_total": 0,
      "fast_avail": 0,
      "fast_percent": 0.0,
      "latest_update": "20260713210305"
    },
    {
      "station_id": "NT101892",
      "name": "공덕 래미안5차아파트",
      "address": "서울특별시 마포구 마포대로 173-15",
      "lat": "37.55119",
      "lng": "126.95217",
      "total_count": 19,
      "available_count": 12,
      "total_percent": 63.2,
      "slow_total": 19,
      "slow_avail": 12,
      "slow_percent": 63.2,
      "fast_total": 0,
      "fast_avail": 0,
      "fast_percent": 0.0,
      "latest_update": "20260714080650"
    },
    {
      "station_id": "PC000350",
      "name": "공덕푸르지오 펜트라우스 아파트(마포)",
      "address": "서울특별시 마포구 백범로 205",
      "lat": "37.5433930",
      "lng": "126.9541070",
      "total_count": 19,
      "available_count": 12,
      "total_percent": 63.2,
      "slow_total": 19,
      "slow_avail": 12,
      "slow_percent": 63.2,
      "fast_total": 0,
      "fast_avail": 0,
      "fast_percent": 0.0,
      "latest_update": "20260714075313"
    },
    {
      "station_id": "IN120115",
      "name": "신촌삼익아파트",
      "address": "서울특별시 마포구 신수로 107",
      "lat": "37.5509",
      "lng": "126.9362",
      "total_count": 18,
      "available_count": 0,
      "total_percent": 0.0,
      "slow_total": 17,
      "slow_avail": 0,
      "slow_percent": 0.0,
      "fast_total": 1,
      "fast_avail": 0,
      "fast_percent": 0.0,
      "latest_update": "20260615122841"
    },
    {
      "station_id": "LU101451",
      "name": "상암월드컵파크4단지",
      "address": "서울특별시 마포구 상암산로1길 24",
      "lat": "37.57766721",
      "lng": "126.88934167",
      "total_count": 18,
      "available_count": 11,
      "total_percent": 61.1,
      "slow_total": 18,
      "slow_avail": 11,
      "slow_percent": 61.1,
      "fast_total": 0,
      "fast_avail": 0,
      "fast_percent": 0.0,
      "latest_update": "20260714080340"
    },
    {
      "station_id": "PI069464",
      "name": "상암dmc푸르지오시티오피스텔상가",
      "address": "서울특별시 마포구 월드컵북로54길 25",
      "lat": "37.581755564",
      "lng": "126.88935112",
      "total_count": 18,
      "available_count": 14,
      "total_percent": 77.8,
      "slow_total": 18,
      "slow_avail": 14,
      "slow_percent": 77.8,
      "fast_total": 0,
      "fast_avail": 0,
      "fast_percent": 0.0,
      "latest_update": "20260714073601"
    },
    {
      "station_id": "PI712675",
      "name": "신공덕1차삼성래미안아파트",
      "address": "서울특별시 마포구 백범로37길 12",
      "lat": "37.542667552",
      "lng": "126.95565425",
      "total_count": 17,
      "available_count": 12,
      "total_percent": 70.6,
      "slow_total": 17,
      "slow_avail": 12,
      "slow_percent": 70.6,
      "fast_total": 0,
      "fast_avail": 0,
      "fast_percent": 0.0,
      "latest_update": "20260714074527"
    },
    {
      "station_id": "NT100059",
      "name": "홍익대 서울캠퍼스(홍문관)",
      "address": "서울특별시 마포구 와우산로 94",
      "lat": "37.5525193",
      "lng": "126.9249906",
      "total_count": 16,
      "available_count": 12,
      "total_percent": 75.0,
      "slow_total": 15,
      "slow_avail": 11,
      "slow_percent": 73.3,
      "fast_total": 1,
      "fast_avail": 1,
      "fast_percent": 100.0,
      "latest_update": "20260714073450"
    },
    {
      "station_id": "LU100332",
      "name": "공덕삼성래미안3차",
      "address": "서울특별시 마포구 마포대로7길 22",
      "lat": "37.54919304",
      "lng": "126.95152511",
      "total_count": 15,
      "available_count": 14,
      "total_percent": 93.3,
      "slow_total": 15,
      "slow_avail": 14,
      "slow_percent": 93.3,
      "fast_total": 0,
      "fast_avail": 0,
      "fast_percent": 0.0,
      "latest_update": "20260714075623"
    },
    {
      "station_id": "NT102625",
      "name": "상암 월드컵파크7단지아파트",
      "address": "서울특별시 마포구 상암산로1길 92",
      "lat": "37.58275",
      "lng": "126.88209",
      "total_count": 15,
      "available_count": 9,
      "total_percent": 60.0,
      "slow_total": 15,
      "slow_avail": 9,
      "slow_percent": 60.0,
      "fast_total": 0,
      "fast_avail": 0,
      "fast_percent": 0.0,
      "latest_update": "20260714074450"
    },
    {
      "station_id": "PC000565",
      "name": "상암월드컵파크6단지(마포)",
      "address": "서울특별시 마포구 상암산로1길 57",
      "lat": "37.5802825",
      "lng": "126.8823069",
      "total_count": 15,
      "available_count": 10,
      "total_percent": 66.7,
      "slow_total": 14,
      "slow_avail": 9,
      "slow_percent": 64.3,
      "fast_total": 1,
      "fast_avail": 1,
      "fast_percent": 100.0,
      "latest_update": "20260714080754"
    },
    {
      "station_id": "PI707391",
      "name": "마포한화오벨리스크",
      "address": "서울특별시 마포구 마포대로 33",
      "lat": "37.5399848",
      "lng": "126.9454475",
      "total_count": 15,
      "available_count": 6,
      "total_percent": 40.0,
      "slow_total": 15,
      "slow_avail": 6,
      "slow_percent": 40.0,
      "fast_total": 0,
      "fast_avail": 0,
      "fast_percent": 0.0,
      "latest_update": "20260714070009"
    },
    {
      "station_id": "PI713269",
      "name": "도화동현대아파트",
      "address": "서울특별시 마포구 새창로 52",
      "lat": "37.5399065",
      "lng": "126.9557465",
      "total_count": 15,
      "available_count": 12,
      "total_percent": 80.0,
      "slow_total": 15,
      "slow_avail": 12,
      "slow_percent": 80.0,
      "fast_total": 0,
      "fast_avail": 0,
      "fast_percent": 0.0,
      "latest_update": "20260714072528"
    },
    {
      "station_id": "LU001557",
      "name": "성산월드타운대림아파트",
      "address": "서울특별시 마포구 월드컵북로30길 9-22",
      "lat": "37.569114",
      "lng": "126.907907",
      "total_count": 14,
      "available_count": 8,
      "total_percent": 57.1,
      "slow_total": 14,
      "slow_avail": 8,
      "slow_percent": 57.1,
      "fast_total": 0,
      "fast_avail": 0,
      "fast_percent": 0.0,
      "latest_update": "20260714072507"
    },
    {
      "station_id": "PI645240",
      "name": "BMW차징스테이션 메세나폴리스",
      "address": "서울특별시 마포구 양화로 45",
      "lat": "37.550979915",
      "lng": "126.91379817",
      "total_count": 14,
      "available_count": 13,
      "total_percent": 92.9,
      "slow_total": 14,
      "slow_avail": 13,
      "slow_percent": 92.9,
      "fast_total": 0,
      "fast_avail": 0,
      "fast_percent": 0.0,
      "latest_update": "20260714080651"
    },
    {
      "station_id": "KE001234",
      "name": "서울마포구청부설주차장",
      "address": "서울특별시 마포구 월드컵로 212",
      "lat": "37.5663245",
      "lng": "126.901491",
      "total_count": 13,
      "available_count": 13,
      "total_percent": 100.0,
      "slow_total": 13,
      "slow_avail": 13,
      "slow_percent": 100.0,
      "fast_total": 0,
      "fast_avail": 0,
      "fast_percent": 0.0,
      "latest_update": "20260714064610"
    },
    {
      "station_id": "PI708172",
      "name": "상암월드컵1단지",
      "address": "서울특별시 마포구 월드컵북로47길 8",
      "lat": "37.5747582",
      "lng": "126.8933399",
      "total_count": 13,
      "available_count": 9,
      "total_percent": 69.2,
      "slow_total": 13,
      "slow_avail": 9,
      "slow_percent": 69.2,
      "fast_total": 0,
      "fast_avail": 0,
      "fast_percent": 0.0,
      "latest_update": "20260714022009"
    },
    {
      "station_id": "DYME2049",
      "name": "서울 상암월드컵파크2단지아파트",
      "address": "서울특별시 마포구 월드컵북로47길 46",
      "lat": "37.5748013",
      "lng": "126.8915348",
      "total_count": 12,
      "available_count": 11,
      "total_percent": 91.7,
      "slow_total": 12,
      "slow_avail": 11,
      "slow_percent": 91.7,
      "fast_total": 0,
      "fast_avail": 0,
      "fast_percent": 0.0,
      "latest_update": "20260714075701"
    },
    {
      "station_id": "EZ210024",
      "name": "월드컵참누리아파트 입주자대표회의 (콘센트)",
      "address": "서울특별시 마포구 월드컵북로38길 53",
      "lat": "37.5721699",
      "lng": "126.9050842",
      "total_count": 12,
      "available_count": 0,
      "total_percent": 0.0,
      "slow_total": 12,
      "slow_avail": 0,
      "slow_percent": 0.0,
      "fast_total": 0,
      "fast_avail": 0,
      "fast_percent": 0.0,
      "latest_update": "20260601113310"
    },
    {
      "station_id": "LU100031",
      "name": "마포한강삼성아파트",
      "address": "서울 마포구 토정로32길 11",
      "lat": "37.5398470",
      "lng": "126.9409870",
      "total_count": 12,
      "available_count": 9,
      "total_percent": 75.0,
      "slow_total": 12,
      "slow_avail": 9,
      "slow_percent": 75.0,
      "fast_total": 0,
      "fast_avail": 0,
      "fast_percent": 0.0,
      "latest_update": "20260714003952"
    },
    {
      "station_id": "NT100420",
      "name": "공덕 한화꿈에그린",
      "address": "서울특별시 마포구 마포대로10길 22",
      "lat": "37.5469861",
      "lng": "126.9548997",
      "total_count": 12,
      "available_count": 8,
      "total_percent": 66.7,
      "slow_total": 12,
      "slow_avail": 8,
      "slow_percent": 66.7,
      "fast_total": 0,
      "fast_avail": 0,
      "fast_percent": 0.0,
      "latest_update": "20260713231950"
    },
    {
      "station_id": "PI200379",
      "name": "서울시 마포구 케이지아이티센터",
      "address": "서울특별시 마포구 월드컵북로 402",
      "lat": "37.580107752042",
      "lng": "126.8889823464",
      "total_count": 12,
      "available_count": 12,
      "total_percent": 100.0,
      "slow_total": 10,
      "slow_avail": 10,
      "slow_percent": 100.0,
      "fast_total": 2,
      "fast_avail": 2,
      "fast_percent": 100.0,
      "latest_update": "20260713225111"
    },
    {
      "station_id": "IN120040",
      "name": "상암월드컵5단지",
      "address": "서울특별시 마포구 상암산로1길 52",
      "lat": "37.5803",
      "lng": "126.8859",
      "total_count": 11,
      "available_count": 0,
      "total_percent": 0.0,
      "slow_total": 10,
      "slow_avail": 0,
      "slow_percent": 0.0,
      "fast_total": 1,
      "fast_avail": 0,
      "fast_percent": 0.0,
      "latest_update": "20260615122838"
    },
    {
      "station_id": "PI200871",
      "name": "서울시 마포구 공덕파크자이",
      "address": "서울특별시 마포구 백범로 152",
      "lat": "37.544747743",
      "lng": "126.94825820",
      "total_count": 11,
      "available_count": 10,
      "total_percent": 90.9,
      "slow_total": 11,
      "slow_avail": 10,
      "slow_percent": 90.9,
      "fast_total": 0,
      "fast_avail": 0,
      "fast_percent": 0.0,
      "latest_update": "20260714063612"
    },
    {
      "station_id": "PI709255",
      "name": "상암동DMC디지털큐브",
      "address": "서울특별시 마포구 상암산로 34",
      "lat": "37.5762102",
      "lng": "126.8892399",
      "total_count": 11,
      "available_count": 8,
      "total_percent": 72.7,
      "slow_total": 11,
      "slow_avail": 8,
      "slow_percent": 72.7,
      "fast_total": 0,
      "fast_avail": 0,
      "fast_percent": 0.0,
      "latest_update": "20260714073016"
    },
    {
      "station_id": "AM900012",
      "name": "서울 한샘상암사옥 충전소",
      "address": "서울특별시 마포구 성암로 179",
      "lat": "37.5761509",
      "lng": "126.8987638",
      "total_count": 10,
      "available_count": 10,
      "total_percent": 100.0,
      "slow_total": 10,
      "slow_avail": 10,
      "slow_percent": 100.0,
      "fast_total": 0,
      "fast_avail": 0,
      "fast_percent": 0.0,
      "latest_update": "20260713162420"
    },
    {
      "station_id": "EC001027",
      "name": "상암월드컵파크9단지 911동",
      "address": "서울특별시 마포구 월드컵북로 501",
      "lat": "37.5833581",
      "lng": "126.8789018",
      "total_count": 10,
      "available_count": 9,
      "total_percent": 90.0,
      "slow_total": 10,
      "slow_avail": 9,
      "slow_percent": 90.0,
      "fast_total": 0,
      "fast_avail": 0,
      "fast_percent": 0.0,
      "latest_update": "20260714062401"
    },
    {
      "station_id": "EP220314",
      "name": "서울 한샘상암사옥 충전소",
      "address": "서울특별시 마포구 성암로 179",
      "lat": "37.5761509",
      "lng": "126.8987638",
      "total_count": 10,
      "available_count": 0,
      "total_percent": 0.0,
      "slow_total": 10,
      "slow_avail": 0,
      "slow_percent": 0.0,
      "fast_total": 0,
      "fast_avail": 0,
      "fast_percent": 0.0,
      "latest_update": "20260324150039"
    },
    {
      "station_id": "EV000104",
      "name": "상암월드컵9단지아파트",
      "address": "서울특별시 마포구 월드컵북로 501",
      "lat": "37.5837656",
      "lng": "126.8787001",
      "total_count": 10,
      "available_count": 10,
      "total_percent": 100.0,
      "slow_total": 10,
      "slow_avail": 10,
      "slow_percent": 100.0,
      "fast_total": 0,
      "fast_avail": 0,
      "fast_percent": 0.0,
      "latest_update": "20260714075800"
    },
    {
      "station_id": "KL001200",
      "name": "마포자이아파트",
      "address": "서울특별시 마포구 독막로42길 2",
      "lat": "37.542907",
      "lng": "126.944233",
      "total_count": 10,
      "available_count": 10,
      "total_percent": 100.0,
      "slow_total": 10,
      "slow_avail": 10,
      "slow_percent": 100.0,
      "fast_total": 0,
      "fast_avail": 0,
      "fast_percent": 0.0,
      "latest_update": "20260714065301"
    },
    {
      "station_id": "KP000194",
      "name": "상암월드컵경기장",
      "address": "서울특별시 마포구 월드컵로 240",
      "lat": "37.56845536423",
      "lng": "126.8950813889",
      "total_count": 10,
      "available_count": 10,
      "total_percent": 100.0,
      "slow_total": 3,
      "slow_avail": 3,
      "slow_percent": 100.0,
      "fast_total": 7,
      "fast_avail": 7,
      "fast_percent": 100.0,
      "latest_update": "20260714072017"
    },
    {
      "station_id": "LU003979",
      "name": "중동현대1차아파트",
      "address": "서울특별시 마포구 성암로 91",
      "lat": "37.571316",
      "lng": "126.906616",
      "total_count": 10,
      "available_count": 8,
      "total_percent": 80.0,
      "slow_total": 10,
      "slow_avail": 8,
      "slow_percent": 80.0,
      "fast_total": 0,
      "fast_avail": 0,
      "fast_percent": 0.0,
      "latest_update": "20260714072146"
    },
    {
      "station_id": "LU101450",
      "name": "마포자이2차아파트",
      "address": "서울특별시 마포구 서강대길 40",
      "lat": "37.54919004",
      "lng": "126.94116971",
      "total_count": 10,
      "available_count": 7,
      "total_percent": 70.0,
      "slow_total": 10,
      "slow_avail": 7,
      "slow_percent": 70.0,
      "fast_total": 0,
      "fast_avail": 0,
      "fast_percent": 0.0,
      "latest_update": "20260714080915"
    },
    {
      "station_id": "NT102054",
      "name": "신공덕 3차삼성래미안아파트",
      "address": "서울특별시 마포구 만리재로 60",
      "lat": "37.54596",
      "lng": "126.95700",
      "total_count": 10,
      "available_count": 10,
      "total_percent": 100.0,
      "slow_total": 10,
      "slow_avail": 10,
      "slow_percent": 100.0,
      "fast_total": 0,
      "fast_avail": 0,
      "fast_percent": 0.0,
      "latest_update": "20260714073450"
    },
    {
      "station_id": "NT102216",
      "name": "마포 래미안웰스트림아파트",
      "address": "서울특별시 마포구 토정로18길 11",
      "lat": "37.54384",
      "lng": "126.93485",
      "total_count": 10,
      "available_count": 7,
      "total_percent": 70.0,
      "slow_total": 10,
      "slow_avail": 7,
      "slow_percent": 70.0,
      "fast_total": 0,
      "fast_avail": 0,
      "fast_percent": 0.0,
      "latest_update": "20260714075750"
    },
    {
      "station_id": "NT102414",
      "name": "마포 서강쌍용예가아파트",
      "address": "서울특별시 마포구 서강로 55",
      "lat": "37.54828",
      "lng": "126.93135",
      "total_count": 10,
      "available_count": 8,
      "total_percent": 80.0,
      "slow_total": 10,
      "slow_avail": 8,
      "slow_percent": 80.0,
      "fast_total": 0,
      "fast_avail": 0,
      "fast_percent": 0.0,
      "latest_update": "20260714080750"
    },
    {
      "station_id": "NT102838",
      "name": "마포 한강아이파크",
      "address": "서울특별시 마포구 희우정로 77",
      "lat": "37.55317",
      "lng": "126.90269",
      "total_count": 10,
      "available_count": 7,
      "total_percent": 70.0,
      "slow_total": 10,
      "slow_avail": 7,
      "slow_percent": 70.0,
      "fast_total": 0,
      "fast_avail": 0,
      "fast_percent": 0.0,
      "latest_update": "20260714065750"
    },
    {
      "station_id": "PI200963",
      "name": "서울시 마포구 에스플렉스센터",
      "address": "서울특별시 마포구 매봉산로 31",
      "lat": "37.575692530",
      "lng": "126.89005064",
      "total_count": 10,
      "available_count": 9,
      "total_percent": 90.0,
      "slow_total": 8,
      "slow_avail": 7,
      "slow_percent": 87.5,
      "fast_total": 2,
      "fast_avail": 2,
      "fast_percent": 100.0,
      "latest_update": "20260714075618"
    },
    {
      "station_id": "HM110128",
      "name": "YTN 상암",
      "address": "서울특별시 마포구 상암산로 76",
      "lat": "37.5791943",
      "lng": "126.8923145",
      "total_count": 9,
      "available_count": 7,
      "total_percent": 77.8,
      "slow_total": 9,
      "slow_avail": 7,
      "slow_percent": 77.8,
      "fast_total": 0,
      "fast_avail": 0,
      "fast_percent": 0.0,
      "latest_update": "20260714073817"
    },
    {
      "station_id": "NT102276",
      "name": "마포 자이아파트",
      "address": "서울특별시 마포구 독막로42길 2",
      "lat": "37.5436",
      "lng": "126.94585",
      "total_count": 9,
      "available_count": 9,
      "total_percent": 100.0,
      "slow_total": 9,
      "slow_avail": 9,
      "slow_percent": 100.0,
      "fast_total": 0,
      "fast_avail": 0,
      "fast_percent": 0.0,
      "latest_update": "20260714074750"
    },
    {
      "station_id": "PI204198",
      "name": "서울시 마포구 DMC이안상암2단지",
      "address": "서울특별시 마포구 월드컵북로 361",
      "lat": "37.5771097",
      "lng": "126.8914039",
      "total_count": 9,
      "available_count": 8,
      "total_percent": 88.9,
      "slow_total": 9,
      "slow_avail": 8,
      "slow_percent": 88.9,
      "fast_total": 0,
      "fast_avail": 0,
      "fast_percent": 0.0,
      "latest_update": "20260714064133"
    },
    {
      "station_id": "PI645074",
      "name": "서울시 마포구 상암월드컵파크12단지",
      "address": "서울특별시 마포구 월드컵북로 502-7",
      "lat": "37.5868307",
      "lng": "126.8807134",
      "total_count": 9,
      "available_count": 9,
      "total_percent": 100.0,
      "slow_total": 9,
      "slow_avail": 9,
      "slow_percent": 100.0,
      "fast_total": 0,
      "fast_avail": 0,
      "fast_percent": 0.0,
      "latest_update": "20260714073724"
    },
    {
      "station_id": "PI761177",
      "name": "마포자이3차아파트",
      "address": "서울특별시 마포구 숭문길 98",
      "lat": "37.550279",
      "lng": "126.9466157",
      "total_count": 9,
      "available_count": 9,
      "total_percent": 100.0,
      "slow_total": 9,
      "slow_avail": 9,
      "slow_percent": 100.0,
      "fast_total": 0,
      "fast_avail": 0,
      "fast_percent": 0.0,
      "latest_update": "20260714013019"
    },
    {
      "station_id": "PI762360",
      "name": "래미안마포리버웰아파트",
      "address": "서울특별시 마포구 토정로31길 23",
      "lat": "37.5416323",
      "lng": "126.9414797",
      "total_count": 9,
      "available_count": 4,
      "total_percent": 44.4,
      "slow_total": 9,
      "slow_avail": 4,
      "slow_percent": 44.4,
      "fast_total": 0,
      "fast_avail": 0,
      "fast_percent": 0.0,
      "latest_update": "20260714080032"
    },
    {
      "station_id": "EC001042",
      "name": "삼성래미안공덕3차아파트",
      "address": "서울특별시 마포구 마포대로7길 22",
      "lat": "37.5472717",
      "lng": "126.9520671",
      "total_count": 8,
      "available_count": 0,
      "total_percent": 0.0,
      "slow_total": 8,
      "slow_avail": 0,
      "slow_percent": 0.0,
      "fast_total": 0,
      "fast_avail": 0,
      "fast_percent": 0.0,
      "latest_update": "20260713084003"
    },
    {
      "station_id": "EC003241",
      "name": "세아타워 지하4층 주차장-2",
      "address": "서울특별시 마포구 양화로 45",
      "lat": "37.5500697",
      "lng": "126.9135587",
      "total_count": 8,
      "available_count": 6,
      "total_percent": 75.0,
      "slow_total": 8,
      "slow_avail": 6,
      "slow_percent": 75.0,
      "fast_total": 0,
      "fast_avail": 0,
      "fast_percent": 0.0,
      "latest_update": "20260714072801"
    },
    {
      "station_id": "EV000122",
      "name": "마포 메세나폴리스아파트",
      "address": "서울특별시 마포구 양화로 45",
      "lat": "37.5515013",
      "lng": "126.913952",
      "total_count": 8,
      "available_count": 8,
      "total_percent": 100.0,
      "slow_total": 8,
      "slow_avail": 8,
      "slow_percent": 100.0,
      "fast_total": 0,
      "fast_avail": 0,
      "fast_percent": 0.0,
      "latest_update": "20260714074758"
    },
    {
      "station_id": "EV013199",
      "name": "서울마포 DDMC 2",
      "address": "서울특별시 마포구 상암동 1610 디디엠씨(DDMC)",
      "lat": "37.5784745",
      "lng": "126.8929564",
      "total_count": 8,
      "available_count": 5,
      "total_percent": 62.5,
      "slow_total": 8,
      "slow_avail": 5,
      "slow_percent": 62.5,
      "fast_total": 0,
      "fast_avail": 0,
      "fast_percent": 0.0,
      "latest_update": "20260714075804"
    },
    {
      "station_id": "EV019498",
      "name": "서울마포 코오롱하늘채아파트 1",
      "address": "서울특별시 마포구 연남로 52",
      "lat": "37.5648203",
      "lng": "126.9201571",
      "total_count": 8,
      "available_count": 7,
      "total_percent": 87.5,
      "slow_total": 8,
      "slow_avail": 7,
      "slow_percent": 87.5,
      "fast_total": 0,
      "fast_avail": 0,
      "fast_percent": 0.0,
      "latest_update": "20260714054246"
    },
    {
      "station_id": "EZ210047",
      "name": "밤섬경남아너스빌아파트 입주자대표회의",
      "address": "서울특별시 마포구 독막로28길 10",
      "lat": "37.5466564",
      "lng": "126.9361631",
      "total_count": 8,
      "available_count": 0,
      "total_percent": 0.0,
      "slow_total": 8,
      "slow_avail": 0,
      "slow_percent": 0.0,
      "fast_total": 0,
      "fast_avail": 0,
      "fast_percent": 0.0,
      "latest_update": "20260601113310"
    },
    {
      "station_id": "HM110081",
      "name": "_마포한강2차푸르지오",
      "address": "서울특별시 마포구 월드컵로3길 14",
      "lat": "37.551008",
      "lng": "126.911649",
      "total_count": 8,
      "available_count": 8,
      "total_percent": 100.0,
      "slow_total": 8,
      "slow_avail": 8,
      "slow_percent": 100.0,
      "fast_total": 0,
      "fast_avail": 0,
      "fast_percent": 0.0,
      "latest_update": "20260714041816"
    },
    {
      "station_id": "JA110015",
      "name": "(출입제한)상암데이터 센터",
      "address": "서울특별시 마포구 월드컵북로60길 24",
      "lat": "37.5831206",
      "lng": "126.8869829",
      "total_count": 8,
      "available_count": 0,
      "total_percent": 0.0,
      "slow_total": 6,
      "slow_avail": 0,
      "slow_percent": 0.0,
      "fast_total": 2,
      "fast_avail": 0,
      "fast_percent": 0.0,
      "latest_update": "20260519112011"
    },
    {
      "station_id": "LU001272",
      "name": "한국지역정보개발원",
      "address": "서울특별시 마포구 성암로 301",
      "lat": "37.582469",
      "lng": "126.887937",
      "total_count": 8,
      "available_count": 8,
      "total_percent": 100.0,
      "slow_total": 8,
      "slow_avail": 8,
      "slow_percent": 100.0,
      "fast_total": 0,
      "fast_avail": 0,
      "fast_percent": 0.0,
      "latest_update": "20260713171933"
    },
    {
      "station_id": "LU004181",
      "name": "래미안밤섬리베뉴2",
      "address": "서울특별시 마포구 독막로20나길 21",
      "lat": "37.546868",
      "lng": "126.926979",
      "total_count": 8,
      "available_count": 5,
      "total_percent": 62.5,
      "slow_total": 8,
      "slow_avail": 5,
      "slow_percent": 62.5,
      "fast_total": 0,
      "fast_avail": 0,
      "fast_percent": 0.0,
      "latest_update": "20260714075757"
    },
    {
      "station_id": "LU101070",
      "name": " 래미안밤섬리베뉴2_EC",
      "address": "서울특별시 마포구 독막로20나길 21",
      "lat": "37.54686782",
      "lng": "126.92697919",
      "total_count": 8,
      "available_count": 7,
      "total_percent": 87.5,
      "slow_total": 8,
      "slow_avail": 7,
      "slow_percent": 87.5,
      "fast_total": 0,
      "fast_avail": 0,
      "fast_percent": 0.0,
      "latest_update": "20260714075713"
    },
    {
      "station_id": "LU101680",
      "name": " 마포하늘채더리버",
      "address": "서울특별시 마포구 토정로35길 17",
      "lat": "37.54073594",
      "lng": "126.94407778",
      "total_count": 8,
      "available_count": 8,
      "total_percent": 100.0,
      "slow_total": 4,
      "slow_avail": 4,
      "slow_percent": 100.0,
      "fast_total": 4,
      "fast_avail": 4,
      "fast_percent": 100.0,
      "latest_update": "20260713223241"
    },
    {
      "station_id": "NT100674",
      "name": "공덕 래미안4차",
      "address": "서울특별시 마포구 마포대로11길 50",
      "lat": "37.55158",
      "lng": "126.95119",
      "total_count": 8,
      "available_count": 8,
      "total_percent": 100.0,
      "slow_total": 8,
      "slow_avail": 8,
      "slow_percent": 100.0,
      "fast_total": 0,
      "fast_avail": 0,
      "fast_percent": 0.0,
      "latest_update": "20260714073050"
    },
    {
      "station_id": "NT101451",
      "name": "상암 IT타워",
      "address": "서울특별시 마포구 월드컵북로 434",
      "lat": "37.58162",
      "lng": "126.88604",
      "total_count": 8,
      "available_count": 7,
      "total_percent": 87.5,
      "slow_total": 8,
      "slow_avail": 7,
      "slow_percent": 87.5,
      "fast_total": 0,
      "fast_avail": 0,
      "fast_percent": 0.0,
      "latest_update": "20260713214650"
    },
    {
      "station_id": "NT101784",
      "name": "합정 KB손해보험빌딩",
      "address": "서울특별시 마포구 양화로 19",
      "lat": "37.54913",
      "lng": "126.91124",
      "total_count": 8,
      "available_count": 8,
      "total_percent": 100.0,
      "slow_total": 8,
      "slow_avail": 8,
      "slow_percent": 100.0,
      "fast_total": 0,
      "fast_avail": 0,
      "fast_percent": 0.0,
      "latest_update": "20260713210250"
    },
    {
      "station_id": "NT102589",
      "name": "마포 한강푸르지오",
      "address": "서울특별시 마포구 월드컵로1길 14",
      "lat": "37.549994",
      "lng": "126.911953",
      "total_count": 8,
      "available_count": 6,
      "total_percent": 75.0,
      "slow_total": 8,
      "slow_avail": 6,
      "slow_percent": 75.0,
      "fast_total": 0,
      "fast_avail": 0,
      "fast_percent": 0.0,
      "latest_update": "20260713190150"
    },
    {
      "station_id": "PI001327",
      "name": "마포쌍용황금아파트",
      "address": "서울특별시 마포구 마포대로4라길 30",
      "lat": "37.5371451",
      "lng": "126.945625",
      "total_count": 8,
      "available_count": 7,
      "total_percent": 87.5,
      "slow_total": 8,
      "slow_avail": 7,
      "slow_percent": 87.5,
      "fast_total": 0,
      "fast_avail": 0,
      "fast_percent": 0.0,
      "latest_update": "20260714081214"
    },
    {
      "station_id": "PI001708",
      "name": "마포한강아이파크",
      "address": "서울특별시 마포구 희우정로 77",
      "lat": "37.5531277",
      "lng": "126.902722",
      "total_count": 8,
      "available_count": 5,
      "total_percent": 62.5,
      "slow_total": 8,
      "slow_avail": 5,
      "slow_percent": 62.5,
      "fast_total": 0,
      "fast_avail": 0,
      "fast_percent": 0.0,
      "latest_update": "20260714080706"
    },
    {
      "station_id": "PI200990",
      "name": "서울시 마포구 KBS미디어센터",
      "address": "서울특별시 마포구 매봉산로 45",
      "lat": "37.5765126",
      "lng": "126.8909921",
      "total_count": 8,
      "available_count": 6,
      "total_percent": 75.0,
      "slow_total": 8,
      "slow_avail": 6,
      "slow_percent": 75.0,
      "fast_total": 0,
      "fast_avail": 0,
      "fast_percent": 0.0,
      "latest_update": "20260714062626"
    },
    {
      "station_id": "PI204034",
      "name": "서울시 마포구 삼성래미안공덕2차",
      "address": "서울특별시 마포구 마포대로20길 26",
      "lat": "37.551585906",
      "lng": "126.95888352",
      "total_count": 8,
      "available_count": 0,
      "total_percent": 0.0,
      "slow_total": 8,
      "slow_avail": 0,
      "slow_percent": 0.0,
      "fast_total": 0,
      "fast_avail": 0,
      "fast_percent": 0.0,
      "latest_update": "20260616112810"
    },
    {
      "station_id": "AMAM0003",
      "name": "파크엠빌딩",
      "address": "서울특별시 마포구 매봉산로 80",
      "lat": "37.57853",
      "lng": "126.894285",
      "total_count": 7,
      "available_count": 6,
      "total_percent": 85.7,
      "slow_total": 7,
      "slow_avail": 6,
      "slow_percent": 85.7,
      "fast_total": 0,
      "fast_avail": 0,
      "fast_percent": 0.0,
      "latest_update": "20260714001202"
    },
    {
      "station_id": "CGA00047",
      "name": "마포 삼창프라자(B5F)",
      "address": "서울특별시 마포구 마포대로 63-8",
      "lat": "37.5422597",
      "lng": "126.9478155",
      "total_count": 7,
      "available_count": 7,
      "total_percent": 100.0,
      "slow_total": 7,
      "slow_avail": 7,
      "slow_percent": 100.0,
      "fast_total": 0,
      "fast_avail": 0,
      "fast_percent": 0.0,
      "latest_update": "20260713204513"
    },
    {
      "station_id": "CGA00268",
      "name": "마포 현대아파트",
      "address": "서울특별시 마포구 마포대로11길 84",
      "lat": "37.5498497",
      "lng": "126.9498849",
      "total_count": 7,
      "available_count": 7,
      "total_percent": 100.0,
      "slow_total": 7,
      "slow_avail": 7,
      "slow_percent": 100.0,
      "fast_total": 0,
      "fast_avail": 0,
      "fast_percent": 0.0,
      "latest_update": "20260713173011"
    },
    {
      "station_id": "CPAM0003",
      "name": "본사_파크엠빌딩",
      "address": "서울특별시 마포구 매봉산로 80",
      "lat": "37.5",
      "lng": "126.8",
      "total_count": 7,
      "available_count": 0,
      "total_percent": 0.0,
      "slow_total": 7,
      "slow_avail": 0,
      "slow_percent": 0.0,
      "fast_total": 0,
      "fast_avail": 0,
      "fast_percent": 0.0,
      "latest_update": ""
    },
    {
      "station_id": "EC003536",
      "name": "염리삼성래미안 B5-2",
      "address": "서울특별시 마포구 백범로25길 63",
      "lat": "37.5488325",
      "lng": "126.9468019",
      "total_count": 7,
      "available_count": 0,
      "total_percent": 0.0,
      "slow_total": 7,
      "slow_avail": 0,
      "slow_percent": 0.0,
      "fast_total": 0,
      "fast_avail": 0,
      "fast_percent": 0.0,
      "latest_update": "20260713093802"
    },
    {
      "station_id": "EV004659",
      "name": "서울마포 신촌태영데시앙2",
      "address": "서울특별시 마포구 서강로9길 45",
      "lat": "37.5526601",
      "lng": "126.9313805",
      "total_count": 7,
      "available_count": 4,
      "total_percent": 57.1,
      "slow_total": 7,
      "slow_avail": 4,
      "slow_percent": 57.1,
      "fast_total": 0,
      "fast_avail": 0,
      "fast_percent": 0.0,
      "latest_update": "20260714080609"
    },
    {
      "station_id": "EV010176",
      "name": "서울마포 밤섬경남아너스빌",
      "address": "서울특별시 마포구 독막로28길 10",
      "lat": "37.546978",
      "lng": "126.936237",
      "total_count": 7,
      "available_count": 5,
      "total_percent": 71.4,
      "slow_total": 7,
      "slow_avail": 5,
      "slow_percent": 71.4,
      "fast_total": 0,
      "fast_avail": 0,
      "fast_percent": 0.0,
      "latest_update": "20260714022859"
    },
    {
      "station_id": "HM001000",
      "name": "마포리버파크",
      "address": "서울특별시 마포구 토정로31길 24",
      "lat": "37.5418303",
      "lng": "126.9428231",
      "total_count": 7,
      "available_count": 7,
      "total_percent": 100.0,
      "slow_total": 7,
      "slow_avail": 7,
      "slow_percent": 100.0,
      "fast_total": 0,
      "fast_avail": 0,
      "fast_percent": 0.0,
      "latest_update": "20260714075611"
    },
    {
      "station_id": "HU200013",
      "name": "마포현대하이엘오피스텔",
      "address": "서울특별시 마포구 마포대로 173",
      "lat": "37.5499011",
      "lng": "126.9544597",
      "total_count": 7,
      "available_count": 6,
      "total_percent": 85.7,
      "slow_total": 7,
      "slow_avail": 6,
      "slow_percent": 85.7,
      "fast_total": 0,
      "fast_avail": 0,
      "fast_percent": 0.0,
      "latest_update": "20260713224001"
    },
    {
      "station_id": "IN120079",
      "name": "상암동S-City오피스동",
      "address": "서울특별시 마포구 월드컵북로54길 25",
      "lat": "37.5821",
      "lng": "126.889",
      "total_count": 7,
      "available_count": 0,
      "total_percent": 0.0,
      "slow_total": 7,
      "slow_avail": 0,
      "slow_percent": 0.0,
      "fast_total": 0,
      "fast_avail": 0,
      "fast_percent": 0.0,
      "latest_update": "20260615122840"
    },
    {
      "station_id": "KE000869",
      "name": "서울상암카이저팰리스",
      "address": "서울특별시 마포구 월드컵북로47길 37",
      "lat": "37.573623",
      "lng": "126.89037",
      "total_count": 7,
      "available_count": 7,
      "total_percent": 100.0,
      "slow_total": 7,
      "slow_avail": 7,
      "slow_percent": 100.0,
      "fast_total": 0,
      "fast_avail": 0,
      "fast_percent": 0.0,
      "latest_update": "20260714065610"
    },
    {
      "station_id": "KP000013",
      "name": "마포용산지사",
      "address": "서울특별시 마포구 토정로37길 38",
      "lat": "37.54205285",
      "lng": "126.9466325",
      "total_count": 7,
      "available_count": 4,
      "total_percent": 57.1,
      "slow_total": 6,
      "slow_avail": 4,
      "slow_percent": 66.7,
      "fast_total": 1,
      "fast_avail": 0,
      "fast_percent": 0.0,
      "latest_update": "20260713151009"
    },
    {
      "station_id": "LU002933",
      "name": "브라운스톤공덕아파트",
      "address": "서울특별시 마포구 백범로 230",
      "lat": "37.541817",
      "lng": "126.954619",
      "total_count": 7,
      "available_count": 4,
      "total_percent": 57.1,
      "slow_total": 7,
      "slow_avail": 4,
      "slow_percent": 57.1,
      "fast_total": 0,
      "fast_avail": 0,
      "fast_percent": 0.0,
      "latest_update": "20260714010103"
    },
    {
      "station_id": "LU003446",
      "name": "마포상수두산위브",
      "address": "서울특별시 마포구 독막로18길 5",
      "lat": "37.54748",
      "lng": "126.92429",
      "total_count": 7,
      "available_count": 5,
      "total_percent": 71.4,
      "slow_total": 7,
      "slow_avail": 5,
      "slow_percent": 71.4,
      "fast_total": 0,
      "fast_avail": 0,
      "fast_percent": 0.0,
      "latest_update": "20260714063357"
    },
    {
      "station_id": "NT999998",
      "name": "NICE인프라테스트",
      "address": "서울특별시 마포구 새창로 7",
      "lat": "37.54247",
      "lng": "126.95092",
      "total_count": 7,
      "available_count": 4,
      "total_percent": 57.1,
      "slow_total": 7,
      "slow_avail": 4,
      "slow_percent": 57.1,
      "fast_total": 0,
      "fast_avail": 0,
      "fast_percent": 0.0,
      "latest_update": "20260713124150"
    },
    {
      "station_id": "PI069349",
      "name": "상암사보이시티디엠씨",
      "address": "서울특별시 마포구 월드컵북로54길 17",
      "lat": "37.5813242",
      "lng": "126.8885484",
      "total_count": 7,
      "available_count": 5,
      "total_percent": 71.4,
      "slow_total": 7,
      "slow_avail": 5,
      "slow_percent": 71.4,
      "fast_total": 0,
      "fast_avail": 0,
      "fast_percent": 0.0,
      "latest_update": "20260714075554"
    },
    {
      "station_id": "PI204216",
      "name": "서울시 마포구 마포KCC웰츠타워",
      "address": "서울특별시 마포구 백범로 202",
      "lat": "37.5428481",
      "lng": "126.9524686",
      "total_count": 7,
      "available_count": 6,
      "total_percent": 85.7,
      "slow_total": 7,
      "slow_avail": 6,
      "slow_percent": 85.7,
      "fast_total": 0,
      "fast_avail": 0,
      "fast_percent": 0.0,
      "latest_update": "20260714035632"
    },
    {
      "station_id": "PI770284",
      "name": "중앙일보빌딩",
      "address": "서울특별시 마포구 상암산로 48-6",
      "lat": "37.577010820",
      "lng": "126.89009964",
      "total_count": 7,
      "available_count": 4,
      "total_percent": 57.1,
      "slow_total": 7,
      "slow_avail": 4,
      "slow_percent": 57.1,
      "fast_total": 0,
      "fast_avail": 0,
      "fast_percent": 0.0,
      "latest_update": "20260714080156"
    },
    {
      "station_id": "ME19A601",
      "name": "망원동 공영주차장1",
      "address": "서울특별시 마포구 동교로1길 39",
      "lat": "37.55503247",
      "lng": "126.89778505",
      "total_count": 6,
      "available_count": 3,
      "total_percent": 50.0,
      "slow_total": 0,
      "slow_avail": 0,
      "slow_percent": 0.0,
      "fast_total": 6,
      "fast_avail": 3,
      "fast_percent": 50.0,
      "latest_update": "20260714080734"
    },
    {
      "station_id": "CGA00009",
      "name": "마포 성지빌딩(B2F 입주자 전용)",
      "address": "서울특별시 마포구 큰우물로 75",
      "lat": "37.541267",
      "lng": "126.9462981",
      "total_count": 6,
      "available_count": 6,
      "total_percent": 100.0,
      "slow_total": 6,
      "slow_avail": 6,
      "slow_percent": 100.0,
      "fast_total": 0,
      "fast_avail": 0,
      "fast_percent": 0.0,
      "latest_update": "20260713184512"
    },
    {
      "station_id": "CGA00059",
      "name": "마포 우리금융상암센터(B3F)",
      "address": "서울특별시 마포구 월드컵북로60길 17",
      "lat": "37.5833854",
      "lng": "126.8859923",
      "total_count": 6,
      "available_count": 5,
      "total_percent": 83.3,
      "slow_total": 6,
      "slow_avail": 5,
      "slow_percent": 83.3,
      "fast_total": 0,
      "fast_avail": 0,
      "fast_percent": 0.0,
      "latest_update": "20260714053008"
    },
    {
      "station_id": "CGA00154",
      "name": "마포 세양청마루아파트",
      "address": "서울특별시 마포구 독막로 209",
      "lat": "37.5478166",
      "lng": "126.9371886",
      "total_count": 6,
      "available_count": 6,
      "total_percent": 100.0,
      "slow_total": 6,
      "slow_avail": 6,
      "slow_percent": 100.0,
      "fast_total": 0,
      "fast_avail": 0,
      "fast_percent": 0.0,
      "latest_update": "20260714080013"
    },
    {
      "station_id": "CGA00188",
      "name": "마포 성산월드타운대림아파트",
      "address": "서울특별시 마포구 월드컵북로30길 9-22",
      "lat": "37.569113701",
      "lng": "126.90790726",
      "total_count": 6,
      "available_count": 3,
      "total_percent": 50.0,
      "slow_total": 6,
      "slow_avail": 3,
      "slow_percent": 50.0,
      "fast_total": 0,
      "fast_avail": 0,
      "fast_percent": 0.0,
      "latest_update": "20260714074508"
    },
    {
      "station_id": "ER000251",
      "name": "마포쌍용황금아파트",
      "address": "서울특별시 마포구 마포대로4라길 30",
      "lat": "37.5367333",
      "lng": "126.945492",
      "total_count": 6,
      "available_count": 6,
      "total_percent": 100.0,
      "slow_total": 6,
      "slow_avail": 6,
      "slow_percent": 100.0,
      "fast_total": 0,
      "fast_avail": 0,
      "fast_percent": 0.0,
      "latest_update": "20260714063735"
    },
    {
      "station_id": "EV001942",
      "name": "마포 신촌태영데시앙",
      "address": "서울특별시 마포구 서강로9길 45",
      "lat": "37.553196",
      "lng": "126.9312209",
      "total_count": 6,
      "available_count": 6,
      "total_percent": 100.0,
      "slow_total": 6,
      "slow_avail": 6,
      "slow_percent": 100.0,
      "fast_total": 0,
      "fast_avail": 0,
      "fast_percent": 0.0,
      "latest_update": "20260714080501"
    },
    {
      "station_id": "EV004340",
      "name": "서울마포 신수성원아파트",
      "address": "서울특별시 마포구 독막로28길 7",
      "lat": "37.5470388",
      "lng": "126.93763",
      "total_count": 6,
      "available_count": 4,
      "total_percent": 66.7,
      "slow_total": 6,
      "slow_avail": 4,
      "slow_percent": 66.7,
      "fast_total": 0,
      "fast_avail": 0,
      "fast_percent": 0.0,
      "latest_update": "20260714073550"
    },
    {
      "station_id": "EV007043",
      "name": "서울마포 서강GS아파트",
      "address": "서울특별시 마포구 창전로 26",
      "lat": "37.5445686",
      "lng": "126.931921",
      "total_count": 6,
      "available_count": 2,
      "total_percent": 33.3,
      "slow_total": 6,
      "slow_avail": 2,
      "slow_percent": 33.3,
      "fast_total": 0,
      "fast_avail": 0,
      "fast_percent": 0.0,
      "latest_update": "20260713212355"
    },
    {
      "station_id": "EV007081",
      "name": "서울마포 공덕자이아파트5",
      "address": "서울특별시 마포구 마포대로24길 16",
      "lat": "37.553184849",
      "lng": "126.95949648",
      "total_count": 6,
      "available_count": 5,
      "total_percent": 83.3,
      "slow_total": 6,
      "slow_avail": 5,
      "slow_percent": 83.3,
      "fast_total": 0,
      "fast_avail": 0,
      "fast_percent": 0.0,
      "latest_update": "20260714064721"
    },
    {
      "station_id": "EV013198",
      "name": "서울마포 DDMC 1",
      "address": "서울특별시 마포구 상암동 1610 디디엠씨(DDMC)",
      "lat": "37.5784545",
      "lng": "126.8929164",
      "total_count": 6,
      "available_count": 5,
      "total_percent": 83.3,
      "slow_total": 4,
      "slow_avail": 3,
      "slow_percent": 75.0,
      "fast_total": 2,
      "fast_avail": 2,
      "fast_percent": 100.0,
      "latest_update": "20260714003754"
    },
    {
      "station_id": "EV013678",
      "name": "서울마포 신공덕2삼성래미안아파트",
      "address": "서울특별시 마포구 만리재로 74",
      "lat": "37.5465281",
      "lng": "126.9577008",
      "total_count": 6,
      "available_count": 6,
      "total_percent": 100.0,
      "slow_total": 6,
      "slow_avail": 6,
      "slow_percent": 100.0,
      "fast_total": 0,
      "fast_avail": 0,
      "fast_percent": 0.0,
      "latest_update": "20260714060257"
    },
    {
      "station_id": "EV017644",
      "name": "서울마포 서강해모로아파트 3",
      "address": "서울특별시 마포구 토정로 167 (창전동, 해모로아파트)",
      "lat": "37.5466140",
      "lng": "126.9299540",
      "total_count": 6,
      "available_count": 5,
      "total_percent": 83.3,
      "slow_total": 6,
      "slow_avail": 5,
      "slow_percent": 83.3,
      "fast_total": 0,
      "fast_avail": 0,
      "fast_percent": 0.0,
      "latest_update": "20260714025917"
    },
    {
      "station_id": "HE240192",
      "name": "마포유수지공영주차장",
      "address": "서울특별시 마포구 마포대로1길 9",
      "lat": "37.538742027",
      "lng": "126.94351081",
      "total_count": 6,
      "available_count": 6,
      "total_percent": 100.0,
      "slow_total": 0,
      "slow_avail": 0,
      "slow_percent": 0.0,
      "fast_total": 6,
      "fast_avail": 6,
      "fast_percent": 100.0,
      "latest_update": "20260714032500"
    },
    {
      "station_id": "HM100009",
      "name": "_공덕푸르지오시티",
      "address": "서울특별시 마포구 공덕동 475 공덕푸르지오시티",
      "lat": "37.5479384",
      "lng": "126.9543697",
      "total_count": 6,
      "available_count": 6,
      "total_percent": 100.0,
      "slow_total": 6,
      "slow_avail": 6,
      "slow_percent": 100.0,
      "fast_total": 0,
      "fast_avail": 0,
      "fast_percent": 0.0,
      "latest_update": "20260714011223"
    },
    {
      "station_id": "LU002235",
      "name": "메트로디오빌",
      "address": "서울특별시 마포구 백범로 199",
      "lat": "37.54353",
      "lng": "126.952771",
      "total_count": 6,
      "available_count": 4,
      "total_percent": 66.7,
      "slow_total": 6,
      "slow_avail": 4,
      "slow_percent": 66.7,
      "fast_total": 0,
      "fast_avail": 0,
      "fast_percent": 0.0,
      "latest_update": "20260714075846"
    },
    {
      "station_id": "NT102848",
      "name": "마포 한강2차푸르지오",
      "address": "서울특별시 마포구 월드컵로3길 14",
      "lat": "37.55100",
      "lng": "126.91164",
      "total_count": 6,
      "available_count": 3,
      "total_percent": 50.0,
      "slow_total": 6,
      "slow_avail": 3,
      "slow_percent": 50.0,
      "fast_total": 0,
      "fast_avail": 0,
      "fast_percent": 0.0,
      "latest_update": "20260714070150"
    },
    {
      "station_id": "PI200862",
      "name": "서울시 영등포구 마포대림2차이편한세상",
      "address": "서울특별시 마포구 토정로32길 6",
      "lat": "37.540804051",
      "lng": "126.94092374",
      "total_count": 6,
      "available_count": 6,
      "total_percent": 100.0,
      "slow_total": 6,
      "slow_avail": 6,
      "slow_percent": 100.0,
      "fast_total": 0,
      "fast_avail": 0,
      "fast_percent": 0.0,
      "latest_update": "20260713172622"
    },
    {
      "station_id": "PI202255",
      "name": "서울시 마포구 DMC이안상암1단지",
      "address": "서울특별시 마포구 월드컵북로 375",
      "lat": "37.577574",
      "lng": "126.8907233",
      "total_count": 6,
      "available_count": 5,
      "total_percent": 83.3,
      "slow_total": 6,
      "slow_avail": 5,
      "slow_percent": 83.3,
      "fast_total": 0,
      "fast_avail": 0,
      "fast_percent": 0.0,
      "latest_update": "20260714060309"
    },
    {
      "station_id": "PI204033",
      "name": "서울시 마포구 삼성래미안공덕3차",
      "address": "서울특별시 마포구 마포대로7길 12",
      "lat": "37.547196681",
      "lng": "126.95238031",
      "total_count": 6,
      "available_count": 6,
      "total_percent": 100.0,
      "slow_total": 6,
      "slow_avail": 6,
      "slow_percent": 100.0,
      "fast_total": 0,
      "fast_avail": 0,
      "fast_percent": 0.0,
      "latest_update": "20260714071621"
    },
    {
      "station_id": "PI760096",
      "name": "DMC첨단산업센터",
      "address": "서울특별시 마포구 성암로 330",
      "lat": "37.585020171",
      "lng": "126.88542611",
      "total_count": 6,
      "available_count": 6,
      "total_percent": 100.0,
      "slow_total": 6,
      "slow_avail": 6,
      "slow_percent": 100.0,
      "fast_total": 0,
      "fast_avail": 0,
      "fast_percent": 0.0,
      "latest_update": "20260713194520"
    },
    {
      "station_id": "CV000887",
      "name": "염리공영주차장",
      "address": "서울특별시 마포구 큰우물로 61",
      "lat": "37.541994",
      "lng": "126.945208",
      "total_count": 5,
      "available_count": 5,
      "total_percent": 100.0,
      "slow_total": 0,
      "slow_avail": 0,
      "slow_percent": 0.0,
      "fast_total": 5,
      "fast_avail": 5,
      "fast_percent": 100.0,
      "latest_update": "20260714020518"
    },
    {
      "station_id": "EAPRIDMP",
      "name": "프리딕션[일양로지스 마포]",
      "address": "서울특별시 마포구 창전로 28-1",
      "lat": "37.5000000",
      "lng": "126.9300000",
      "total_count": 5,
      "available_count": 5,
      "total_percent": 100.0,
      "slow_total": 5,
      "slow_avail": 5,
      "slow_percent": 100.0,
      "fast_total": 0,
      "fast_avail": 0,
      "fast_percent": 0.0,
      "latest_update": "20260713101500"
    },
    {
      "station_id": "EC003535",
      "name": "염리삼성래미안 B5-1",
      "address": "서울특별시 마포구 백범로25길 63",
      "lat": "37.5488528",
      "lng": "126.9467821",
      "total_count": 5,
      "available_count": 0,
      "total_percent": 0.0,
      "slow_total": 5,
      "slow_avail": 0,
      "slow_percent": 0.0,
      "fast_total": 0,
      "fast_avail": 0,
      "fast_percent": 0.0,
      "latest_update": "20260713093802"
    },
    {
      "station_id": "ER000371",
      "name": "서강GS아파트",
      "address": "서울 마포구 창전로 26",
      "lat": "37.5445686",
      "lng": "126.9319210",
      "total_count": 5,
      "available_count": 3,
      "total_percent": 60.0,
      "slow_total": 5,
      "slow_avail": 3,
      "slow_percent": 60.0,
      "fast_total": 0,
      "fast_avail": 0,
      "fast_percent": 0.0,
      "latest_update": "20260714074531"
    },
    {
      "station_id": "ER000554",
      "name": "망원1차대림아파트",
      "address": "서울 마포구 망원로2길 103",
      "lat": "37.5533415",
      "lng": "126.9050694",
      "total_count": 5,
      "available_count": 4,
      "total_percent": 80.0,
      "slow_total": 5,
      "slow_avail": 4,
      "slow_percent": 80.0,
      "fast_total": 0,
      "fast_avail": 0,
      "fast_percent": 0.0,
      "latest_update": "20260714080748"
    },
    {
      "station_id": "EV003851",
      "name": "서울마포 래미안웰스트림",
      "address": "서울특별시 마포구 토정로18길 11",
      "lat": "37.5438641",
      "lng": "126.934817",
      "total_count": 5,
      "available_count": 2,
      "total_percent": 40.0,
      "slow_total": 5,
      "slow_avail": 2,
      "slow_percent": 40.0,
      "fast_total": 0,
      "fast_avail": 0,
      "fast_percent": 0.0,
      "latest_update": "20260714012622"
    },
    {
      "station_id": "EV003881",
      "name": "서울마포 공덕자이아파트1",
      "address": "서울특별시 마포구 마포대로24길 16",
      "lat": "37.5532412",
      "lng": "126.9597112",
      "total_count": 5,
      "available_count": 5,
      "total_percent": 100.0,
      "slow_total": 5,
      "slow_avail": 5,
      "slow_percent": 100.0,
      "fast_total": 0,
      "fast_avail": 0,
      "fast_percent": 0.0,
      "latest_update": "20260714014633"
    },
    {
      "station_id": "EV005017",
      "name": "서울마포 신촌그랑자이2",
      "address": "서울특별시 마포구 대흥로 175",
      "lat": "37.555721556",
      "lng": "126.94394503",
      "total_count": 5,
      "available_count": 3,
      "total_percent": 60.0,
      "slow_total": 5,
      "slow_avail": 3,
      "slow_percent": 60.0,
      "fast_total": 0,
      "fast_avail": 0,
      "fast_percent": 0.0,
      "latest_update": "20260714011416"
    },
    {
      "station_id": "EV005548",
      "name": "서울마포 공덕자이아파트2",
      "address": "서울특별시 마포구 마포대로24길 16",
      "lat": "37.5532412",
      "lng": "126.9597112",
      "total_count": 5,
      "available_count": 5,
      "total_percent": 100.0,
      "slow_total": 5,
      "slow_avail": 5,
      "slow_percent": 100.0,
      "fast_total": 0,
      "fast_avail": 0,
      "fast_percent": 0.0,
      "latest_update": "20260714060257"
    },
    {
      "station_id": "EV014938",
      "name": "서울마포 마포도화우성아파트 7",
      "address": "서울특별시 마포구 삼개로 33 (도화동, 도화3지구우성아파트)",
      "lat": "37.5366445",
      "lng": "126.9477514",
      "total_count": 5,
      "available_count": 5,
      "total_percent": 100.0,
      "slow_total": 5,
      "slow_avail": 5,
      "slow_percent": 100.0,
      "fast_total": 0,
      "fast_avail": 0,
      "fast_percent": 0.0,
      "latest_update": "20260713091205"
    },
    {
      "station_id": "EV015893",
      "name": "서울마포 밤섬경남아너스빌 3",
      "address": "서울특별시 마포구 독막로28길 10(신수동, 밤섬경남아너스빌)",
      "lat": "37.5469551",
      "lng": "126.9362273",
      "total_count": 5,
      "available_count": 5,
      "total_percent": 100.0,
      "slow_total": 5,
      "slow_avail": 5,
      "slow_percent": 100.0,
      "fast_total": 0,
      "fast_avail": 0,
      "fast_percent": 0.0,
      "latest_update": "20260713084105"
    },
    {
      "station_id": "EV017668",
      "name": "서울마포 공덕SK리더스뷰아파트",
      "address": "서울특별시 마포구 백범로31길 7",
      "lat": "37.5452546",
      "lng": "126.9487508",
      "total_count": 5,
      "available_count": 5,
      "total_percent": 100.0,
      "slow_total": 5,
      "slow_avail": 5,
      "slow_percent": 100.0,
      "fast_total": 0,
      "fast_avail": 0,
      "fast_percent": 0.0,
      "latest_update": "20260714054246"
    },
    {
      "station_id": "EV018041",
      "name": "서울마포 신공덕2삼성래미안 1",
      "address": "서울 마포구 만리재로 74",
      "lat": "37.5464519",
      "lng": "126.9589123",
      "total_count": 5,
      "available_count": 4,
      "total_percent": 80.0,
      "slow_total": 5,
      "slow_avail": 4,
      "slow_percent": 80.0,
      "fast_total": 0,
      "fast_avail": 0,
      "fast_percent": 0.0,
      "latest_update": "20260714025715"
    },
    {
      "station_id": "EV020414",
      "name": "서울마포 서교동 효성해링턴타워 1",
      "address": "서울 마포구 양화로 72",
      "lat": "37.5508138",
      "lng": "126.9164940",
      "total_count": 5,
      "available_count": 5,
      "total_percent": 100.0,
      "slow_total": 5,
      "slow_avail": 5,
      "slow_percent": 100.0,
      "fast_total": 0,
      "fast_avail": 0,
      "fast_percent": 0.0,
      "latest_update": "20260714080809"
    },
    {
      "station_id": "EV020415",
      "name": "서울마포 서교동 효성해링턴타워 2",
      "address": "서울 마포구 양화로 72",
      "lat": "37.5508138",
      "lng": "126.9164940",
      "total_count": 5,
      "available_count": 3,
      "total_percent": 60.0,
      "slow_total": 5,
      "slow_avail": 3,
      "slow_percent": 60.0,
      "fast_total": 0,
      "fast_avail": 0,
      "fast_percent": 0.0,
      "latest_update": "20260714065727"
    },
    {
      "station_id": "EZ002046",
      "name": "KBIZ자산관리 DMC타워",
      "address": "서울특별시 마포구 성암로 189",
      "lat": "37.5767396",
      "lng": "126.8979123",
      "total_count": 5,
      "available_count": 0,
      "total_percent": 0.0,
      "slow_total": 5,
      "slow_avail": 0,
      "slow_percent": 0.0,
      "fast_total": 0,
      "fast_avail": 0,
      "fast_percent": 0.0,
      "latest_update": "20260601113310"
    },
    {
      "station_id": "HE202628",
      "name": "마포한화오벨리스크아파트",
      "address": "서울특별시 마포구 마포대로 33",
      "lat": "37.540144",
      "lng": "126.945149",
      "total_count": 5,
      "available_count": 5,
      "total_percent": 100.0,
      "slow_total": 5,
      "slow_avail": 5,
      "slow_percent": 100.0,
      "fast_total": 0,
      "fast_avail": 0,
      "fast_percent": 0.0,
      "latest_update": "20260713215521"
    },
    {
      "station_id": "HE212827",
      "name": "망원e편한세상1차아파트",
      "address": "서울특별시 마포구 망원로2길 103",
      "lat": "37.553394",
      "lng": "126.904892",
      "total_count": 5,
      "available_count": 5,
      "total_percent": 100.0,
      "slow_total": 5,
      "slow_avail": 5,
      "slow_percent": 100.0,
      "fast_total": 0,
      "fast_avail": 0,
      "fast_percent": 0.0,
      "latest_update": "20260519111832"
    },
    {
      "station_id": "HY001272",
      "name": "마포 공덕아이파크",
      "address": "서울특별시 마포구 만리재로 36",
      "lat": "37.5446736",
      "lng": "126.9560537",
      "total_count": 5,
      "available_count": 4,
      "total_percent": 80.0,
      "slow_total": 5,
      "slow_avail": 4,
      "slow_percent": 80.0,
      "fast_total": 0,
      "fast_avail": 0,
      "fast_percent": 0.0,
      "latest_update": "20260714054803"
    },
    {
      "station_id": "KE001238",
      "name": "서울마포창천공영주차장",
      "address": "서울특별시 마포구 백범로1길 56",
      "lat": "37.5549751",
      "lng": "126.9390619",
      "total_count": 5,
      "available_count": 5,
      "total_percent": 100.0,
      "slow_total": 5,
      "slow_avail": 5,
      "slow_percent": 100.0,
      "fast_total": 0,
      "fast_avail": 0,
      "fast_percent": 0.0,
      "latest_update": "20260713211011"
    },
    {
      "station_id": "KL001960",
      "name": "아현아이파크아파트",
      "address": "서울특별시 마포구 마포대로 246",
      "lat": "37.5556531",
      "lng": "126.9582533",
      "total_count": 5,
      "available_count": 5,
      "total_percent": 100.0,
      "slow_total": 5,
      "slow_avail": 5,
      "slow_percent": 100.0,
      "fast_total": 0,
      "fast_avail": 0,
      "fast_percent": 0.0,
      "latest_update": "20260714005902"
    },
    {
      "station_id": "KL002120",
      "name": "서강한화오벨리스크스위트아파트",
      "address": "서울특별시 마포구 창전로 45",
      "lat": "37.5466987",
      "lng": "126.9318529",
      "total_count": 5,
      "available_count": 4,
      "total_percent": 80.0,
      "slow_total": 5,
      "slow_avail": 4,
      "slow_percent": 80.0,
      "fast_total": 0,
      "fast_avail": 0,
      "fast_percent": 0.0,
      "latest_update": "20260714012702"
    },
    {
      "station_id": "KL002146",
      "name": "마포자이3차아파트",
      "address": "서울특별시 마포구 숭문길 98",
      "lat": "37.5511663",
      "lng": "126.9495565",
      "total_count": 5,
      "available_count": 4,
      "total_percent": 80.0,
      "slow_total": 5,
      "slow_avail": 4,
      "slow_percent": 80.0,
      "fast_total": 0,
      "fast_avail": 0,
      "fast_percent": 0.0,
      "latest_update": "20260714075701"
    },
    {
      "station_id": "KL002176",
      "name": "태영데시앙루브관리단",
      "address": "서울특별시 마포구 독막로 320",
      "lat": "37.5429883",
      "lng": "126.9478769",
      "total_count": 5,
      "available_count": 5,
      "total_percent": 100.0,
      "slow_total": 5,
      "slow_avail": 5,
      "slow_percent": 100.0,
      "fast_total": 0,
      "fast_avail": 0,
      "fast_percent": 0.0,
      "latest_update": "20260713051202"
    },
    {
      "station_id": "KL200203",
      "name": "마포 T타운",
      "address": "서울특별시 마포구 마포대로 144",
      "lat": "37.547001351",
      "lng": "126.95375681",
      "total_count": 5,
      "available_count": 4,
      "total_percent": 80.0,
      "slow_total": 5,
      "slow_avail": 4,
      "slow_percent": 80.0,
      "fast_total": 0,
      "fast_avail": 0,
      "fast_percent": 0.0,
      "latest_update": "20260714075054"
    },
    {
      "station_id": "KP002285",
      "name": "마포래미안푸르지오 2단지",
      "address": "서울특별시 마포구 마포대로 195",
      "lat": "37.553968",
      "lng": "126.954621",
      "total_count": 5,
      "available_count": 5,
      "total_percent": 100.0,
      "slow_total": 4,
      "slow_avail": 4,
      "slow_percent": 100.0,
      "fast_total": 1,
      "fast_avail": 1,
      "fast_percent": 100.0,
      "latest_update": "20260714055006"
    },
    {
      "station_id": "KP002287",
      "name": "마포래미안푸르지오 4단지",
      "address": "서울특별시 마포구 아현동 마포대로 195 ",
      "lat": "37.5524319716",
      "lng": "126.9543024402",
      "total_count": 5,
      "available_count": 5,
      "total_percent": 100.0,
      "slow_total": 5,
      "slow_avail": 5,
      "slow_percent": 100.0,
      "fast_total": 0,
      "fast_avail": 0,
      "fast_percent": 0.0,
      "latest_update": "20260714032020"
    },
    {
      "station_id": "KP004001",
      "name": "마포한강2차 푸르지오아파트",
      "address": "서울특별시 마포구 합정동 473",
      "lat": "37.55111142385",
      "lng": "126.9119166283",
      "total_count": 5,
      "available_count": 2,
      "total_percent": 40.0,
      "slow_total": 5,
      "slow_avail": 2,
      "slow_percent": 40.0,
      "fast_total": 0,
      "fast_avail": 0,
      "fast_percent": 0.0,
      "latest_update": "20260713190006"
    },
    {
      "station_id": "KRC10015",
      "name": "SK허브그린",
      "address": "서울특별시 마포구 마포대로 73",
      "lat": "37.542584",
      "lng": "126.948991",
      "total_count": 5,
      "available_count": 5,
      "total_percent": 100.0,
      "slow_total": 5,
      "slow_avail": 5,
      "slow_percent": 100.0,
      "fast_total": 0,
      "fast_avail": 0,
      "fast_percent": 0.0,
      "latest_update": "20260714062529"
    },
    {
      "station_id": "LU001248",
      "name": "마포구프라자",
      "address": "서울특별시 마포구 백범로 23",
      "lat": "37.552434",
      "lng": "126.937559",
      "total_count": 5,
      "available_count": 5,
      "total_percent": 100.0,
      "slow_total": 5,
      "slow_avail": 5,
      "slow_percent": 100.0,
      "fast_total": 0,
      "fast_avail": 0,
      "fast_percent": 0.0,
      "latest_update": "20260713133439"
    },
    {
      "station_id": "LU101069",
      "name": "래미안밤섬리베뉴1",
      "address": "서울특별시 마포구 독막로20나길 22",
      "lat": "37.54609361",
      "lng": "126.924865",
      "total_count": 5,
      "available_count": 2,
      "total_percent": 40.0,
      "slow_total": 5,
      "slow_avail": 2,
      "slow_percent": 40.0,
      "fast_total": 0,
      "fast_avail": 0,
      "fast_percent": 0.0,
      "latest_update": "20260714021049"
    },
    {
      "station_id": "NT100198",
      "name": "성산2차이편한세상",
      "address": "서울특별시 마포구 월드컵북로 216",
      "lat": "37.5693521",
      "lng": "126.9052108",
      "total_count": 5,
      "available_count": 3,
      "total_percent": 60.0,
      "slow_total": 5,
      "slow_avail": 3,
      "slow_percent": 60.0,
      "fast_total": 0,
      "fast_avail": 0,
      "fast_percent": 0.0,
      "latest_update": "20260714071250"
    },
    {
      "station_id": "NT100905",
      "name": "마포 상암우남퍼스트빌스타",
      "address": "서울특별시 마포구 모래내로 5",
      "lat": "37.5642549",
      "lng": "126.9036878",
      "total_count": 5,
      "available_count": 3,
      "total_percent": 60.0,
      "slow_total": 5,
      "slow_avail": 3,
      "slow_percent": 60.0,
      "fast_total": 0,
      "fast_avail": 0,
      "fast_percent": 0.0,
      "latest_update": "20260714052250"
    },
    {
      "station_id": "PI001734",
      "name": "이랜드 PEER 신촌주택",
      "address": "서울특별시 마포구 서강로 75-16",
      "lat": "37.5497875",
      "lng": "126.931402",
      "total_count": 5,
      "available_count": 1,
      "total_percent": 20.0,
      "slow_total": 5,
      "slow_avail": 1,
      "slow_percent": 20.0,
      "fast_total": 0,
      "fast_avail": 0,
      "fast_percent": 0.0,
      "latest_update": "20260714040656"
    },
    {
      "station_id": "PI200904",
      "name": "서울시 마포구 중동현대아파트",
      "address": "서울특별시 마포구 성암로 91",
      "lat": "37.571316341",
      "lng": "126.90661637",
      "total_count": 5,
      "available_count": 5,
      "total_percent": 100.0,
      "slow_total": 5,
      "slow_avail": 5,
      "slow_percent": 100.0,
      "fast_total": 0,
      "fast_avail": 0,
      "fast_percent": 0.0,
      "latest_update": "20260713221618"
    },
    {
      "station_id": "PI700643",
      "name": "아현아이파크아파트",
      "address": "서울특별시 마포구 마포대로 246",
      "lat": "37.555693950",
      "lng": "126.95898301",
      "total_count": 5,
      "available_count": 5,
      "total_percent": 100.0,
      "slow_total": 5,
      "slow_avail": 5,
      "slow_percent": 100.0,
      "fast_total": 0,
      "fast_avail": 0,
      "fast_percent": 0.0,
      "latest_update": "20260713084008"
    },
    {
      "station_id": "PI771996",
      "name": "JTBC빌딩",
      "address": "서울특별시 마포구 상암산로 38",
      "lat": "37.576614094",
      "lng": "126.88969325",
      "total_count": 5,
      "available_count": 5,
      "total_percent": 100.0,
      "slow_total": 5,
      "slow_avail": 5,
      "slow_percent": 100.0,
      "fast_total": 0,
      "fast_avail": 0,
      "fast_percent": 0.0,
      "latest_update": "20260713195701"
    },
    {
      "station_id": "PI773904",
      "name": "드림타워",
      "address": "서울특별시 마포구 월드컵북로56길 19",
      "lat": "37.582401213",
      "lng": "126.88848691",
      "total_count": 5,
      "available_count": 2,
      "total_percent": 40.0,
      "slow_total": 5,
      "slow_avail": 2,
      "slow_percent": 40.0,
      "fast_total": 0,
      "fast_avail": 0,
      "fast_percent": 0.0,
      "latest_update": "20260714080736"
    },
    {
      "station_id": "ME20A409",
      "name": "마포구청",
      "address": "서울특별시 마포구 월드컵로 212",
      "lat": "37.567121",
      "lng": "126.9017038",
      "total_count": 4,
      "available_count": 3,
      "total_percent": 75.0,
      "slow_total": 0,
      "slow_avail": 0,
      "slow_percent": 0.0,
      "fast_total": 4,
      "fast_avail": 3,
      "fast_percent": 75.0,
      "latest_update": "20260714080612"
    },
    {
      "station_id": "ME21B412",
      "name": "마포소금나루도서관",
      "address": "서울특별시 마포구 염리동 61-4",
      "lat": "37.5495525",
      "lng": "126.9460746",
      "total_count": 4,
      "available_count": 3,
      "total_percent": 75.0,
      "slow_total": 0,
      "slow_avail": 0,
      "slow_percent": 0.0,
      "fast_total": 4,
      "fast_avail": 3,
      "fast_percent": 75.0,
      "latest_update": "20260714080310"
    },
    {
      "station_id": "CG000058",
      "name": "마포 대우월드마크마포아파트_2",
      "address": "서울특별시 마포구 백범로 212",
      "lat": "37.542314393",
      "lng": "126.95362969",
      "total_count": 4,
      "available_count": 4,
      "total_percent": 100.0,
      "slow_total": 4,
      "slow_avail": 4,
      "slow_percent": 100.0,
      "fast_total": 0,
      "fast_avail": 0,
      "fast_percent": 0.0,
      "latest_update": "20260714071511"
    },
    {
      "station_id": "CGA00046",
      "name": "마포 재화스퀘어(실외주차장)",
      "address": "서울특별시 마포구 독막로 311",
      "lat": "37.5439965",
      "lng": "126.9474812",
      "total_count": 4,
      "available_count": 3,
      "total_percent": 75.0,
      "slow_total": 4,
      "slow_avail": 3,
      "slow_percent": 75.0,
      "fast_total": 0,
      "fast_avail": 0,
      "fast_percent": 0.0,
      "latest_update": "20260714053016"
    },
    {
      "station_id": "CV001934",
      "name": "한국콘텐츠진흥원 DMS방송제작센터",
      "address": "서울특별시 마포구 월드컵북로54길 12",
      "lat": "37.5807286",
      "lng": "126.8892508",
      "total_count": 4,
      "available_count": 3,
      "total_percent": 75.0,
      "slow_total": 4,
      "slow_avail": 3,
      "slow_percent": 75.0,
      "fast_total": 0,
      "fast_avail": 0,
      "fast_percent": 0.0,
      "latest_update": "20260714054525"
    },
    {
      "station_id": "CV001940",
      "name": "마포유수지 공영주차장",
      "address": "서울특별시 마포구 마포대로1길 9",
      "lat": "37.5384931",
      "lng": "126.9432404",
      "total_count": 4,
      "available_count": 4,
      "total_percent": 100.0,
      "slow_total": 4,
      "slow_avail": 4,
      "slow_percent": 100.0,
      "fast_total": 0,
      "fast_avail": 0,
      "fast_percent": 0.0,
      "latest_update": "20260714065522"
    },
    {
      "station_id": "CV004075",
      "name": "채비스테이 마포성산",
      "address": "서울특별시 마포구 월드컵북로 137",
      "lat": "37.565001",
      "lng": "126.911488",
      "total_count": 4,
      "available_count": 4,
      "total_percent": 100.0,
      "slow_total": 0,
      "slow_avail": 0,
      "slow_percent": 0.0,
      "fast_total": 4,
      "fast_avail": 4,
      "fast_percent": 100.0,
      "latest_update": "20260714080543"
    },
    {
      "station_id": "CV004090",
      "name": "채비스테이 홍대",
      "address": "서울특별시 마포구 양화로 85",
      "lat": "37.552269",
      "lng": "126.917072",
      "total_count": 4,
      "available_count": 2,
      "total_percent": 50.0,
      "slow_total": 0,
      "slow_avail": 0,
      "slow_percent": 0.0,
      "fast_total": 4,
      "fast_avail": 2,
      "fast_percent": 50.0,
      "latest_update": "20260714073044"
    },
    {
      "station_id": "EC110072",
      "name": "이대역푸르지오시티",
      "address": "서울특별시 마포구 신촌로 170",
      "lat": "37.556351",
      "lng": "126.9443769",
      "total_count": 4,
      "available_count": 0,
      "total_percent": 0.0,
      "slow_total": 4,
      "slow_avail": 0,
      "slow_percent": 0.0,
      "fast_total": 0,
      "fast_avail": 0,
      "fast_percent": 0.0,
      "latest_update": "20260713101202"
    },
    {
      "station_id": "EV006824",
      "name": "서울마포 상암휴먼시아2단지",
      "address": "서울특별시 마포구 월드컵북로42가길 11",
      "lat": "37.5747375",
      "lng": "126.8975858",
      "total_count": 4,
      "available_count": 3,
      "total_percent": 75.0,
      "slow_total": 4,
      "slow_avail": 3,
      "slow_percent": 75.0,
      "fast_total": 0,
      "fast_avail": 0,
      "fast_percent": 0.0,
      "latest_update": "20260713225653"
    },
    {
      "station_id": "EV008362",
      "name": "서울마포 래미안용강아파트",
      "address": "서울특별시 마포구 큰우물로 28",
      "lat": "37.543879",
      "lng": "126.9415929",
      "total_count": 4,
      "available_count": 4,
      "total_percent": 100.0,
      "slow_total": 4,
      "slow_avail": 4,
      "slow_percent": 100.0,
      "fast_total": 0,
      "fast_avail": 0,
      "fast_percent": 0.0,
      "latest_update": "20260714073149"
    },
    {
      "station_id": "EV012095",
      "name": "서울마포 마포동양엔파트 1",
      "address": "서울특별시 마포구 백범로 82",
      "lat": "37.547575525",
      "lng": "126.94059272",
      "total_count": 4,
      "available_count": 3,
      "total_percent": 75.0,
      "slow_total": 4,
      "slow_avail": 3,
      "slow_percent": 75.0,
      "fast_total": 0,
      "fast_avail": 0,
      "fast_percent": 0.0,
      "latest_update": "20260714073550"
    },
    {
      "station_id": "EV012911",
      "name": "서울마포 홍익인간오피스텔",
      "address": "서울특별시 마포구 양화로 183",
      "lat": "37.5583675",
      "lng": "126.9251484",
      "total_count": 4,
      "available_count": 3,
      "total_percent": 75.0,
      "slow_total": 4,
      "slow_avail": 3,
      "slow_percent": 75.0,
      "fast_total": 0,
      "fast_avail": 0,
      "fast_percent": 0.0,
      "latest_update": "20260714064319"
    },
    {
      "station_id": "EV013324",
      "name": "서울마포 LG CNS 상암IT센터",
      "address": "서울특별시 마포구 월드컵북로 424",
      "lat": "37.581095398",
      "lng": "126.88687060",
      "total_count": 4,
      "available_count": 3,
      "total_percent": 75.0,
      "slow_total": 4,
      "slow_avail": 3,
      "slow_percent": 75.0,
      "fast_total": 0,
      "fast_avail": 0,
      "fast_percent": 0.0,
      "latest_update": "20260714073550"
    },
    {
      "station_id": "EV014178",
      "name": "서울마포 밤섬예가클레식아파트",
      "address": "서울특별시 마포구 신수로2길 26",
      "lat": "37.5421336",
      "lng": "126.9356073",
      "total_count": 4,
      "available_count": 3,
      "total_percent": 75.0,
      "slow_total": 4,
      "slow_avail": 3,
      "slow_percent": 75.0,
      "fast_total": 0,
      "fast_avail": 0,
      "fast_percent": 0.0,
      "latest_update": "20260713221027"
    },
    {
      "station_id": "EV014933",
      "name": "서울마포 마포도화우성아파트 2",
      "address": "서울특별시 마포구 삼개로 33 (도화동, 도화3지구우성아파트)",
      "lat": "37.5366445",
      "lng": "126.9477514",
      "total_count": 4,
      "available_count": 4,
      "total_percent": 100.0,
      "slow_total": 4,
      "slow_avail": 4,
      "slow_percent": 100.0,
      "fast_total": 0,
      "fast_avail": 0,
      "fast_percent": 0.0,
      "latest_update": "20260712124318"
    },
    {
      "station_id": "EV015552",
      "name": "서울마포 상암월드컵파크10단지 4",
      "address": "서울특별시 마포구 월드컵북로 502-36 (상암동, 상암월드컵파크10단지)",
      "lat": "37.5863328",
      "lng": "126.8819727",
      "total_count": 4,
      "available_count": 3,
      "total_percent": 75.0,
      "slow_total": 4,
      "slow_avail": 3,
      "slow_percent": 75.0,
      "fast_total": 0,
      "fast_avail": 0,
      "fast_percent": 0.0,
      "latest_update": "20260714080205"
    },
    {
      "station_id": "EV015892",
      "name": "서울마포 밤섬경남아너스빌 2",
      "address": "서울특별시 마포구 독막로28길 10(신수동, 밤섬경남아너스빌)",
      "lat": "37.5469551",
      "lng": "126.9362273",
      "total_count": 4,
      "available_count": 4,
      "total_percent": 100.0,
      "slow_total": 4,
      "slow_avail": 4,
      "slow_percent": 100.0,
      "fast_total": 0,
      "fast_avail": 0,
      "fast_percent": 0.0,
      "latest_update": "20260714070129"
    },
    {
      "station_id": "EV020361",
      "name": "서울마포 망원휴먼빌 1",
      "address": "서울특별시 마포구 방울내로 31",
      "lat": "37.5588451",
      "lng": "126.8989543",
      "total_count": 4,
      "available_count": 2,
      "total_percent": 50.0,
      "slow_total": 4,
      "slow_avail": 2,
      "slow_percent": 50.0,
      "fast_total": 0,
      "fast_avail": 0,
      "fast_percent": 0.0,
      "latest_update": "20260714065727"
    },
    {
      "station_id": "EZ100038",
      "name": "건영월드컵아파트",
      "address": "서울특별시 마포구 성암로 41",
      "lat": "37.5688198",
      "lng": "126.9117245",
      "total_count": 4,
      "available_count": 0,
      "total_percent": 0.0,
      "slow_total": 4,
      "slow_avail": 0,
      "slow_percent": 0.0,
      "fast_total": 0,
      "fast_avail": 0,
      "fast_percent": 0.0,
      "latest_update": "20260601113310"
    },
    {
      "station_id": "HD000019",
      "name": "마포 소금나루도서관 E-pit",
      "address": "서울특별시 마포구 숭문길 72",
      "lat": "37.5495102",
      "lng": "126.9460659",
      "total_count": 4,
      "available_count": 4,
      "total_percent": 100.0,
      "slow_total": 0,
      "slow_avail": 0,
      "slow_percent": 0.0,
      "fast_total": 4,
      "fast_avail": 4,
      "fast_percent": 100.0,
      "latest_update": "20260714035400"
    },
    {
      "station_id": "HE212880",
      "name": "SBS프리즘타워",
      "address": "서울특별시 마포구 상암산로 82",
      "lat": "37.579664",
      "lng": "126.892738",
      "total_count": 4,
      "available_count": 3,
      "total_percent": 75.0,
      "slow_total": 4,
      "slow_avail": 3,
      "slow_percent": 75.0,
      "fast_total": 0,
      "fast_avail": 0,
      "fast_percent": 0.0,
      "latest_update": "20260714054500"
    },
    {
      "station_id": "HM100003",
      "name": "_루프스테이션 홍대",
      "address": "서울특별시 마포구 월드컵북로5길 41",
      "lat": "37.5562309",
      "lng": "126.9168351",
      "total_count": 4,
      "available_count": 3,
      "total_percent": 75.0,
      "slow_total": 3,
      "slow_avail": 2,
      "slow_percent": 66.7,
      "fast_total": 1,
      "fast_avail": 1,
      "fast_percent": 100.0,
      "latest_update": "20260714075416"
    },
    {
      "station_id": "IM000281",
      "name": "상암월드컵파크7단지아파트 706동",
      "address": "서울특별시 마포구 상암산로1길 92",
      "lat": "37.5",
      "lng": "126.8",
      "total_count": 4,
      "available_count": 4,
      "total_percent": 100.0,
      "slow_total": 4,
      "slow_avail": 4,
      "slow_percent": 100.0,
      "fast_total": 0,
      "fast_avail": 0,
      "fast_percent": 0.0,
      "latest_update": "20260713234845"
    },
    {
      "station_id": "JA110098",
      "name": "롯데시티호텔 마포",
      "address": "서울특별시 마포구 마포대로 109",
      "lat": "37.5445859",
      "lng": "126.950525",
      "total_count": 4,
      "available_count": 3,
      "total_percent": 75.0,
      "slow_total": 4,
      "slow_avail": 3,
      "slow_percent": 75.0,
      "fast_total": 0,
      "fast_avail": 0,
      "fast_percent": 0.0,
      "latest_update": "20260714075607"
    },
    {
      "station_id": "JE050017",
      "name": "우리은행(상암)",
      "address": "서울특별시 마포구 월드컵북로60길 17",
      "lat": "37.5833854",
      "lng": "126.8859923",
      "total_count": 4,
      "available_count": 4,
      "total_percent": 100.0,
      "slow_total": 4,
      "slow_avail": 4,
      "slow_percent": 100.0,
      "fast_total": 0,
      "fast_avail": 0,
      "fast_percent": 0.0,
      "latest_update": "20260712082622"
    },
    {
      "station_id": "KL002739",
      "name": "신구강변연가아파트",
      "address": "서울특별시 마포구 토정로 136-11",
      "lat": "37.54478",
      "lng": "126.92647",
      "total_count": 4,
      "available_count": 4,
      "total_percent": 100.0,
      "slow_total": 4,
      "slow_avail": 4,
      "slow_percent": 100.0,
      "fast_total": 0,
      "fast_avail": 0,
      "fast_percent": 0.0,
      "latest_update": "20260713221802"
    },
    {
      "station_id": "KP001003",
      "name": "e편한세상마포리버파크",
      "address": "서울특별시 마포구 용강동 토정로31길 24",
      "lat": "37.5422172523",
      "lng": "126.9436541564",
      "total_count": 4,
      "available_count": 3,
      "total_percent": 75.0,
      "slow_total": 3,
      "slow_avail": 2,
      "slow_percent": 66.7,
      "fast_total": 1,
      "fast_avail": 1,
      "fast_percent": 100.0,
      "latest_update": "20260713201027"
    },
    {
      "station_id": "KP001859",
      "name": "래미안마포리버웰",
      "address": "서울특별시 마포구 용강동 토정로31길 23 ",
      "lat": "37.5416648648",
      "lng": "126.9416449835",
      "total_count": 4,
      "available_count": 0,
      "total_percent": 0.0,
      "slow_total": 3,
      "slow_avail": 0,
      "slow_percent": 0.0,
      "fast_total": 1,
      "fast_avail": 0,
      "fast_percent": 0.0,
      "latest_update": "20260324153346"
    },
    {
      "station_id": "KP001860",
      "name": "래미안밤섬리베뉴2",
      "address": "서울특별시 마포구 상수동 독막로20나길 21 ",
      "lat": "37.5468752943",
      "lng": "126.9269798634",
      "total_count": 4,
      "available_count": 4,
      "total_percent": 100.0,
      "slow_total": 3,
      "slow_avail": 3,
      "slow_percent": 100.0,
      "fast_total": 1,
      "fast_avail": 1,
      "fast_percent": 100.0,
      "latest_update": "20260713015014"
    },
    {
      "station_id": "KP002284",
      "name": "마포래미안푸르지오 1단지",
      "address": "서울특별시 마포구 아현동 마포대로 195 ",
      "lat": "37.5524319716",
      "lng": "126.9543024402",
      "total_count": 4,
      "available_count": 4,
      "total_percent": 100.0,
      "slow_total": 4,
      "slow_avail": 4,
      "slow_percent": 100.0,
      "fast_total": 0,
      "fast_avail": 0,
      "fast_percent": 0.0,
      "latest_update": "20260713163021"
    },
    {
      "station_id": "KP002286",
      "name": "마포래미안푸르지오 3단지",
      "address": "서울특별시 마포구 아현동 마포대로 195 ",
      "lat": "37.5524319716",
      "lng": "126.9543024402",
      "total_count": 4,
      "available_count": 4,
      "total_percent": 100.0,
      "slow_total": 4,
      "slow_avail": 4,
      "slow_percent": 100.0,
      "fast_total": 0,
      "fast_avail": 0,
      "fast_percent": 0.0,
      "latest_update": "20260714031016"
    },
    {
      "station_id": "LU000202",
      "name": "극동방송",
      "address": "서울특별시 마포구 와우산로 56",
      "lat": "37.549445",
      "lng": "126.923397",
      "total_count": 4,
      "available_count": 4,
      "total_percent": 100.0,
      "slow_total": 4,
      "slow_avail": 4,
      "slow_percent": 100.0,
      "fast_total": 0,
      "fast_avail": 0,
      "fast_percent": 0.0,
      "latest_update": "20260713161623"
    },
    {
      "station_id": "LU100138",
      "name": "성사1차풍림아파트",
      "address": "서울특별시 마포구 성암로1길 8",
      "lat": "37.568594",
      "lng": "126.912079",
      "total_count": 4,
      "available_count": 3,
      "total_percent": 75.0,
      "slow_total": 4,
      "slow_avail": 3,
      "slow_percent": 75.0,
      "fast_total": 0,
      "fast_avail": 0,
      "fast_percent": 0.0,
      "latest_update": "20260713194642"
    },
    {
      "station_id": "NT100067",
      "name": "망원 휴먼빌아파트",
      "address": "서울특별시 마포구 방울내로 31",
      "lat": "37.527465",
      "lng": "126.871642",
      "total_count": 4,
      "available_count": 3,
      "total_percent": 75.0,
      "slow_total": 4,
      "slow_avail": 3,
      "slow_percent": 75.0,
      "fast_total": 0,
      "fast_avail": 0,
      "fast_percent": 0.0,
      "latest_update": "20260713234150"
    },
    {
      "station_id": "NT100675",
      "name": "상암 한화오벨리스크",
      "address": "서울특별시 마포구 구룡길 19",
      "lat": "37.587050854",
      "lng": "126.8834373",
      "total_count": 4,
      "available_count": 4,
      "total_percent": 100.0,
      "slow_total": 4,
      "slow_avail": 4,
      "slow_percent": 100.0,
      "fast_total": 0,
      "fast_avail": 0,
      "fast_percent": 0.0,
      "latest_update": "20260714073450"
    },
    {
      "station_id": "NT101519",
      "name": "홍대 와이즈파크",
      "address": "서울특별시 마포구 양화로 176",
      "lat": "37.55724",
      "lng": "126.92498",
      "total_count": 4,
      "available_count": 2,
      "total_percent": 50.0,
      "slow_total": 4,
      "slow_avail": 2,
      "slow_percent": 50.0,
      "fast_total": 0,
      "fast_avail": 0,
      "fast_percent": 0.0,
      "latest_update": "20260713231950"
    },
    {
      "station_id": "NT102521",
      "name": "마포 서울가좌행복주택",
      "address": "서울특별시 마포구 성암로 28",
      "lat": "37.56915",
      "lng": "126.91330",
      "total_count": 4,
      "available_count": 3,
      "total_percent": 75.0,
      "slow_total": 4,
      "slow_avail": 3,
      "slow_percent": 75.0,
      "fast_total": 0,
      "fast_avail": 0,
      "fast_percent": 0.0,
      "latest_update": "20260714062750"
    },
    {
      "station_id": "NT102613",
      "name": "마포 래미안마포리버웰아파트",
      "address": "서울특별시 마포구 토정로31길 23",
      "lat": "37.54164",
      "lng": "126.94146",
      "total_count": 4,
      "available_count": 3,
      "total_percent": 75.0,
      "slow_total": 4,
      "slow_avail": 3,
      "slow_percent": 75.0,
      "fast_total": 0,
      "fast_avail": 0,
      "fast_percent": 0.0,
      "latest_update": "20260714065950"
    },
    {
      "station_id": "PI001682",
      "name": "삼라마이다스오피스텔",
      "address": "서울특별시 마포구 월드컵로36길 18",
      "lat": "37.5662287",
      "lng": "126.903372",
      "total_count": 4,
      "available_count": 2,
      "total_percent": 50.0,
      "slow_total": 4,
      "slow_avail": 2,
      "slow_percent": 50.0,
      "fast_total": 0,
      "fast_avail": 0,
      "fast_percent": 0.0,
      "latest_update": "20260714040701"
    },
    {
      "station_id": "PI121500",
      "name": "서울시 마포구 성지빌딩",
      "address": "서울특별시 마포구 큰우물로 75 (도화동, 성지빌딩)",
      "lat": "37.5412",
      "lng": "126.946",
      "total_count": 4,
      "available_count": 4,
      "total_percent": 100.0,
      "slow_total": 4,
      "slow_avail": 4,
      "slow_percent": 100.0,
      "fast_total": 0,
      "fast_avail": 0,
      "fast_percent": 0.0,
      "latest_update": "20260706141616"
    },
    {
      "station_id": "PI122365",
      "name": "서울시 마포구 마포공덕파크팰리스2차",
      "address": "서울특별시 마포구 마포대로 143",
      "lat": "37.547398",
      "lng": "126.953028",
      "total_count": 4,
      "available_count": 3,
      "total_percent": 75.0,
      "slow_total": 4,
      "slow_avail": 3,
      "slow_percent": 75.0,
      "fast_total": 0,
      "fast_avail": 0,
      "fast_percent": 0.0,
      "latest_update": "20260713233755"
    },
    {
      "station_id": "PI200352",
      "name": "서울시 마포구 염리상록아파트",
      "address": "서울특별시 마포구 숭문길 106",
      "lat": "37.550924881786",
      "lng": "126.9467958940",
      "total_count": 4,
      "available_count": 4,
      "total_percent": 100.0,
      "slow_total": 4,
      "slow_avail": 4,
      "slow_percent": 100.0,
      "fast_total": 0,
      "fast_avail": 0,
      "fast_percent": 0.0,
      "latest_update": "20260713083758"
    },
    {
      "station_id": "PI200773",
      "name": "서울시 마포구 나눔빌딩",
      "address": "서울특별시 마포구 도화길 43",
      "lat": "37.5417888",
      "lng": "126.9502543",
      "total_count": 4,
      "available_count": 4,
      "total_percent": 100.0,
      "slow_total": 4,
      "slow_avail": 4,
      "slow_percent": 100.0,
      "fast_total": 0,
      "fast_avail": 0,
      "fast_percent": 0.0,
      "latest_update": "20260713080613"
    },
    {
      "station_id": "PI204203",
      "name": "서울시 마포구 상암두산위브센티움",
      "address": "서울특별시 마포구 월드컵로36길 14",
      "lat": "37.5659372",
      "lng": "126.9030654",
      "total_count": 4,
      "available_count": 4,
      "total_percent": 100.0,
      "slow_total": 4,
      "slow_avail": 4,
      "slow_percent": 100.0,
      "fast_total": 0,
      "fast_avail": 0,
      "fast_percent": 0.0,
      "latest_update": "20260713090654"
    },
    {
      "station_id": "PI708527",
      "name": "신공덕1차 삼성래미안",
      "address": "서울특별시 마포구 백범로37길 12",
      "lat": "37.543927946",
      "lng": "126.95561741",
      "total_count": 4,
      "available_count": 4,
      "total_percent": 100.0,
      "slow_total": 4,
      "slow_avail": 4,
      "slow_percent": 100.0,
      "fast_total": 0,
      "fast_avail": 0,
      "fast_percent": 0.0,
      "latest_update": "20260710193016"
    },
    {
      "station_id": "PI717575",
      "name": "삼성래미안공덕2차아파트",
      "address": "서울특별시 마포구 공덕동 44 삼성래미안공덕2차아파트",
      "lat": "37.5512929",
      "lng": "126.9609881",
      "total_count": 4,
      "available_count": 2,
      "total_percent": 50.0,
      "slow_total": 4,
      "slow_avail": 2,
      "slow_percent": 50.0,
      "fast_total": 0,
      "fast_avail": 0,
      "fast_percent": 0.0,
      "latest_update": "20260713221549"
    },
    {
      "station_id": "PI766526",
      "name": "창전삼성아파트",
      "address": "서울특별시 마포구 서강로 95",
      "lat": "37.5520441",
      "lng": "126.9321001",
      "total_count": 4,
      "available_count": 4,
      "total_percent": 100.0,
      "slow_total": 4,
      "slow_avail": 4,
      "slow_percent": 100.0,
      "fast_total": 0,
      "fast_avail": 0,
      "fast_percent": 0.0,
      "latest_update": "20260704161547"
    },
    {
      "station_id": "CGA00023",
      "name": "마포 SK허브블루(B4F)",
      "address": "서울특별시 마포구 마포대로 204",
      "lat": "37.5519985",
      "lng": "126.9565197",
      "total_count": 3,
      "available_count": 1,
      "total_percent": 33.3,
      "slow_total": 3,
      "slow_avail": 1,
      "slow_percent": 33.3,
      "fast_total": 0,
      "fast_avail": 0,
      "fast_percent": 0.0,
      "latest_update": "20260713221516"
    },
    {
      "station_id": "CGA00036",
      "name": "마포 제일빌딩(B4F)",
      "address": "서울특별시 마포구 만리재로 15",
      "lat": "37.5445849",
      "lng": "126.9527677",
      "total_count": 3,
      "available_count": 2,
      "total_percent": 66.7,
      "slow_total": 3,
      "slow_avail": 2,
      "slow_percent": 66.7,
      "fast_total": 0,
      "fast_avail": 0,
      "fast_percent": 0.0,
      "latest_update": "20260714071515"
    },
    {
      "station_id": "CGA00051",
      "name": "마포 고려아카데미텔(B4F)",
      "address": "서울특별시 마포구 마포대로 196",
      "lat": "37.5513485",
      "lng": "126.9561801",
      "total_count": 3,
      "available_count": 3,
      "total_percent": 100.0,
      "slow_total": 3,
      "slow_avail": 3,
      "slow_percent": 100.0,
      "fast_total": 0,
      "fast_avail": 0,
      "fast_percent": 0.0,
      "latest_update": "20260713081515"
    },
    {
      "station_id": "CGA00062",
      "name": "마포 외세빌딩(B3F 스포츠시티)",
      "address": "서울특별시 마포구 토정로 299",
      "lat": "37.5409858",
      "lng": "126.9427493",
      "total_count": 3,
      "available_count": 3,
      "total_percent": 100.0,
      "slow_total": 3,
      "slow_avail": 3,
      "slow_percent": 100.0,
      "fast_total": 0,
      "fast_avail": 0,
      "fast_percent": 0.0,
      "latest_update": "20260713163017"
    },
    {
      "station_id": "CGA00210",
      "name": "마포 건영월드컵아파트①_102동 뒤-1",
      "address": "서울특별시 마포구 성암로 41",
      "lat": "37.5692000",
      "lng": "126.9119000",
      "total_count": 3,
      "available_count": 2,
      "total_percent": 66.7,
      "slow_total": 3,
      "slow_avail": 2,
      "slow_percent": 66.7,
      "fast_total": 0,
      "fast_avail": 0,
      "fast_percent": 0.0,
      "latest_update": "20260714063007"
    },
    {
      "station_id": "CGA00221",
      "name": "마포 애오개아이파크",
      "address": "서울특별시 마포구 굴레방로1길 25",
      "lat": "37.5538410",
      "lng": "126.9559851",
      "total_count": 3,
      "available_count": 3,
      "total_percent": 100.0,
      "slow_total": 3,
      "slow_avail": 3,
      "slow_percent": 100.0,
      "fast_total": 0,
      "fast_avail": 0,
      "fast_percent": 0.0,
      "latest_update": "20260713210012"
    },
    {
      "station_id": "CV000974",
      "name": "망원동 공영주차장",
      "address": "서울특별시 마포구 동교로1길 53",
      "lat": "37.555136",
      "lng": "126.897678",
      "total_count": 3,
      "available_count": 3,
      "total_percent": 100.0,
      "slow_total": 3,
      "slow_avail": 3,
      "slow_percent": 100.0,
      "fast_total": 0,
      "fast_avail": 0,
      "fast_percent": 0.0,
      "latest_update": "20260714070019"
    },
    {
      "station_id": "EP021319",
      "name": "마포 맹그로브신촌(AMANO)",
      "address": "서울특별시 마포구 서강로 121",
      "lat": "37.55394632",
      "lng": "126.934014",
      "total_count": 3,
      "available_count": 0,
      "total_percent": 0.0,
      "slow_total": 3,
      "slow_avail": 0,
      "slow_percent": 0.0,
      "fast_total": 0,
      "fast_avail": 0,
      "fast_percent": 0.0,
      "latest_update": ""
    },
    {
      "station_id": "EV000589",
      "name": "공덕삼성아파트102동",
      "address": "서울특별시 마포구 마포대로 115-8",
      "lat": "37.5459145",
      "lng": "126.9506219",
      "total_count": 3,
      "available_count": 2,
      "total_percent": 66.7,
      "slow_total": 3,
      "slow_avail": 2,
      "slow_percent": 66.7,
      "fast_total": 0,
      "fast_avail": 0,
      "fast_percent": 0.0,
      "latest_update": "20260714055655"
    },
    {
      "station_id": "EV000597",
      "name": "공덕삼성아파트105동",
      "address": "서울특별시 마포구 마포대로 115-8",
      "lat": "37.5459145",
      "lng": "126.9506219",
      "total_count": 3,
      "available_count": 1,
      "total_percent": 33.3,
      "slow_total": 3,
      "slow_avail": 1,
      "slow_percent": 33.3,
      "fast_total": 0,
      "fast_avail": 0,
      "fast_percent": 0.0,
      "latest_update": "20260714072545"
    },
    {
      "station_id": "EV002200",
      "name": "서울마포도화현대홈타운205동",
      "address": "서울특별시 마포구 새창로8길 72",
      "lat": "37.5379217",
      "lng": "126.9529365",
      "total_count": 3,
      "available_count": 2,
      "total_percent": 66.7,
      "slow_total": 3,
      "slow_avail": 2,
      "slow_percent": 66.7,
      "fast_total": 0,
      "fast_avail": 0,
      "fast_percent": 0.0,
      "latest_update": "20260714021248"
    },
    {
      "station_id": "EV002201",
      "name": "서울마포도화현대홈타운206동",
      "address": "서울특별시 마포구 새창로8길 72",
      "lat": "37.538282",
      "lng": "126.9526251",
      "total_count": 3,
      "available_count": 2,
      "total_percent": 66.7,
      "slow_total": 3,
      "slow_avail": 2,
      "slow_percent": 66.7,
      "fast_total": 0,
      "fast_avail": 0,
      "fast_percent": 0.0,
      "latest_update": "20260714032732"
    },
    {
      "station_id": "EV005016",
      "name": "서울마포 신촌그랑자이1",
      "address": "서울특별시 마포구 대흥로 175",
      "lat": "37.555000785",
      "lng": "126.94400215",
      "total_count": 3,
      "available_count": 3,
      "total_percent": 100.0,
      "slow_total": 3,
      "slow_avail": 3,
      "slow_percent": 100.0,
      "fast_total": 0,
      "fast_avail": 0,
      "fast_percent": 0.0,
      "latest_update": "20260713205938"
    },
    {
      "station_id": "EV005549",
      "name": "서울마포 공덕자이아파트4",
      "address": "서울특별시 마포구 마포대로24길 16",
      "lat": "37.5532412",
      "lng": "126.9597112",
      "total_count": 3,
      "available_count": 3,
      "total_percent": 100.0,
      "slow_total": 3,
      "slow_avail": 3,
      "slow_percent": 100.0,
      "fast_total": 0,
      "fast_avail": 0,
      "fast_percent": 0.0,
      "latest_update": "20260713231704"
    },
    {
      "station_id": "EV006379",
      "name": "서울마포 망원대주파크빌",
      "address": "서울특별시 마포구 동교로3길 115",
      "lat": "37.5550042",
      "lng": "126.8983592",
      "total_count": 3,
      "available_count": 2,
      "total_percent": 66.7,
      "slow_total": 3,
      "slow_avail": 2,
      "slow_percent": 66.7,
      "fast_total": 0,
      "fast_avail": 0,
      "fast_percent": 0.0,
      "latest_update": "20260712083044"
    },
    {
      "station_id": "EV007082",
      "name": "서울마포 공덕자이아파트6",
      "address": "서울특별시 마포구 마포대로24길 16",
      "lat": "37.553029550",
      "lng": "126.95985870",
      "total_count": 3,
      "available_count": 3,
      "total_percent": 100.0,
      "slow_total": 3,
      "slow_avail": 3,
      "slow_percent": 100.0,
      "fast_total": 0,
      "fast_avail": 0,
      "fast_percent": 0.0,
      "latest_update": "20260713222835"
    },
    {
      "station_id": "EV007083",
      "name": "서울마포 공덕자이아파트7",
      "address": "서울특별시 마포구 마포대로24길 16",
      "lat": "37.5532412",
      "lng": "126.9597112",
      "total_count": 3,
      "available_count": 3,
      "total_percent": 100.0,
      "slow_total": 3,
      "slow_avail": 3,
      "slow_percent": 100.0,
      "fast_total": 0,
      "fast_avail": 0,
      "fast_percent": 0.0,
      "latest_update": "20260713061617"
    },
    {
      "station_id": "EV008075",
      "name": "서울마포 서서울삼성아파트",
      "address": "서울특별시 마포구 마포대로 262",
      "lat": "37.5565789",
      "lng": "126.959278",
      "total_count": 3,
      "available_count": 1,
      "total_percent": 33.3,
      "slow_total": 3,
      "slow_avail": 1,
      "slow_percent": 33.3,
      "fast_total": 0,
      "fast_avail": 0,
      "fast_percent": 0.0,
      "latest_update": "20260713200502"
    },
    {
      "station_id": "EV010405",
      "name": "서울마포 래미안밤섬리베뉴아파트1",
      "address": "서울특별시 마포구 독막로20나길 22",
      "lat": "37.5460694",
      "lng": "126.9248948",
      "total_count": 3,
      "available_count": 3,
      "total_percent": 100.0,
      "slow_total": 3,
      "slow_avail": 3,
      "slow_percent": 100.0,
      "fast_total": 0,
      "fast_avail": 0,
      "fast_percent": 0.0,
      "latest_update": "20260714071337"
    },
    {
      "station_id": "EV010650",
      "name": "서울마포 공덕삼성아파트 1",
      "address": "서울특별시 마포구 마포대로 115-8",
      "lat": "37.545915",
      "lng": "126.9506223",
      "total_count": 3,
      "available_count": 3,
      "total_percent": 100.0,
      "slow_total": 3,
      "slow_avail": 3,
      "slow_percent": 100.0,
      "fast_total": 0,
      "fast_avail": 0,
      "fast_percent": 0.0,
      "latest_update": "20260713211148"
    },
    {
      "station_id": "EV010653",
      "name": "서울마포 공덕삼성아파트 4",
      "address": "서울특별시 마포구 마포대로 115-8",
      "lat": "37.546228403",
      "lng": "126.95155645",
      "total_count": 3,
      "available_count": 3,
      "total_percent": 100.0,
      "slow_total": 3,
      "slow_avail": 3,
      "slow_percent": 100.0,
      "fast_total": 0,
      "fast_avail": 0,
      "fast_percent": 0.0,
      "latest_update": "20260713124814"
    },
    {
      "station_id": "EV011254",
      "name": "서울마포 중동동원월드",
      "address": "서울특별시 마포구 성암로5길 12",
      "lat": "37.569990274",
      "lng": "126.90988518",
      "total_count": 3,
      "available_count": 3,
      "total_percent": 100.0,
      "slow_total": 3,
      "slow_avail": 3,
      "slow_percent": 100.0,
      "fast_total": 0,
      "fast_avail": 0,
      "fast_percent": 0.0,
      "latest_update": "20260712165359"
    },
    {
      "station_id": "EV011569",
      "name": "서울마포 마포프레스티지자이아파트 1",
      "address": "서울특별시 마포구 대흥로24길 24",
      "lat": "37.553439217",
      "lng": "126.94762477",
      "total_count": 3,
      "available_count": 3,
      "total_percent": 100.0,
      "slow_total": 3,
      "slow_avail": 3,
      "slow_percent": 100.0,
      "fast_total": 0,
      "fast_avail": 0,
      "fast_percent": 0.0,
      "latest_update": "20260713161423"
    },
    {
      "station_id": "EV013686",
      "name": "충남서산 한국수자원공사 대산산업용수센터",
      "address": "서울특별시 마포구 만리재로 74",
      "lat": "36.9900902",
      "lng": "126.3841078",
      "total_count": 3,
      "available_count": 2,
      "total_percent": 66.7,
      "slow_total": 3,
      "slow_avail": 2,
      "slow_percent": 66.7,
      "fast_total": 0,
      "fast_avail": 0,
      "fast_percent": 0.0,
      "latest_update": "20260714073951"
    },
    {
      "station_id": "EV014932",
      "name": "서울마포 마포도화우성아파트 1",
      "address": "서울특별시 마포구 삼개로 33 (도화동, 도화3지구우성아파트)",
      "lat": "37.5366445",
      "lng": "126.9477514",
      "total_count": 3,
      "available_count": 2,
      "total_percent": 66.7,
      "slow_total": 3,
      "slow_avail": 2,
      "slow_percent": 66.7,
      "fast_total": 0,
      "fast_avail": 0,
      "fast_percent": 0.0,
      "latest_update": "20260713183749"
    },
    {
      "station_id": "EV014934",
      "name": "서울마포 마포도화우성아파트 3",
      "address": "서울특별시 마포구 삼개로 33 (도화동, 도화3지구우성아파트)",
      "lat": "37.5366445",
      "lng": "126.9477514",
      "total_count": 3,
      "available_count": 2,
      "total_percent": 66.7,
      "slow_total": 3,
      "slow_avail": 2,
      "slow_percent": 66.7,
      "fast_total": 0,
      "fast_avail": 0,
      "fast_percent": 0.0,
      "latest_update": "20260713214609"
    },
    {
      "station_id": "EV014935",
      "name": "서울마포 마포도화우성아파트 4",
      "address": "서울특별시 마포구 삼개로 33 (도화동, 도화3지구우성아파트)",
      "lat": "37.5366445",
      "lng": "126.9477514",
      "total_count": 3,
      "available_count": 2,
      "total_percent": 66.7,
      "slow_total": 3,
      "slow_avail": 2,
      "slow_percent": 66.7,
      "fast_total": 0,
      "fast_avail": 0,
      "fast_percent": 0.0,
      "latest_update": "20260714072544"
    },
    {
      "station_id": "EV014936",
      "name": "서울마포 마포도화우성아파트 5",
      "address": "서울특별시 마포구 삼개로 33 (도화동, 도화3지구우성아파트)",
      "lat": "37.5366445",
      "lng": "126.9477514",
      "total_count": 3,
      "available_count": 2,
      "total_percent": 66.7,
      "slow_total": 3,
      "slow_avail": 2,
      "slow_percent": 66.7,
      "fast_total": 0,
      "fast_avail": 0,
      "fast_percent": 0.0,
      "latest_update": "20260713095029"
    },
    {
      "station_id": "EV015550",
      "name": "서울마포 상암월드컵파크10단지 2",
      "address": "서울특별시 마포구 월드컵북로 502-36 (상암동, 상암월드컵파크10단지)",
      "lat": "37.5863328",
      "lng": "126.8819727",
      "total_count": 3,
      "available_count": 1,
      "total_percent": 33.3,
      "slow_total": 3,
      "slow_avail": 1,
      "slow_percent": 33.3,
      "fast_total": 0,
      "fast_avail": 0,
      "fast_percent": 0.0,
      "latest_update": "20260714060257"
    },
    {
      "station_id": "EV015551",
      "name": "서울마포 상암월드컵파크10단지 3",
      "address": "서울특별시 마포구 월드컵북로 502-36 (상암동, 상암월드컵파크10단지)",
      "lat": "37.5863328",
      "lng": "126.8819727",
      "total_count": 3,
      "available_count": 2,
      "total_percent": 66.7,
      "slow_total": 3,
      "slow_avail": 2,
      "slow_percent": 66.7,
      "fast_total": 0,
      "fast_avail": 0,
      "fast_percent": 0.0,
      "latest_update": "20260714080809"
    },
    {
      "station_id": "EV016289",
      "name": "서울마포 망원대상3차아파트",
      "address": "서울특별시 마포구 월드컵로31길 103 (망원동, 망원동대상3차)",
      "lat": "37.5593832",
      "lng": "126.8996395",
      "total_count": 3,
      "available_count": 1,
      "total_percent": 33.3,
      "slow_total": 3,
      "slow_avail": 1,
      "slow_percent": 33.3,
      "fast_total": 0,
      "fast_avail": 0,
      "fast_percent": 0.0,
      "latest_update": "20260714075402"
    },
    {
      "station_id": "EV017643",
      "name": "서울마포 서강해모로아파트 2",
      "address": "서울특별시 마포구 토정로 167 (창전동, 해모로아파트)",
      "lat": "37.5466224",
      "lng": "126.9289101",
      "total_count": 3,
      "available_count": 2,
      "total_percent": 66.7,
      "slow_total": 3,
      "slow_avail": 2,
      "slow_percent": 66.7,
      "fast_total": 0,
      "fast_avail": 0,
      "fast_percent": 0.0,
      "latest_update": "20260713221027"
    },